"site_id","parameter_desc","latitude","longitude","city_name","location","land_use_type","setting","site_name","stat","used_in_nat_agg","trend","state_name","city_name","location_setting","local_site_name","natts","toxic_name_alias","2003","2004","2005","2006","2007","2008","2009","2010","2011","2012","2013","2014","2015","2016"
"06-019-0008","Arsenic Pm10 Lc","36.781333","-119.77319","Fresno","","RESIDENTIAL","","PM Supersite: Fresno","meanRos_ug_m3","No","Undetermined","California","Fresno","Suburban","3425 N FIRST ST, FRESNO","No","Arsenic","","","","","","","","","","","","","",""
"06-025-0004","Arsenic Pm10 Lc","32.673948","-115.503884","CALEXICO","","RESIDENTIAL","","CALEXICO","meanRos_ug_m3","No","Undetermined","California","Calexico","Suburban","Calexico-Grant Street","No","Arsenic","","","","","","","","","","","","","",""
"06-025-0005","Arsenic Pm10 Lc","32.676186","-115.484144","Calexico","","RESIDENTIAL","","CALEXICO HIGH SCHOOL  ARB (#1300698)","meanRos_ug_m3","No","Undetermined","California","Calexico","Suburban","Calexico-Ethel Street","No","Arsenic","","","","","","","","","","","","","",""
"06-025-1003","Arsenic Pm10 Lc","32.79222","-115.56306","EL CENTRO","","COMMERCIAL","","EL CENTRO","meanRos_ug_m3","No","Undetermined","California","El Centro","Urban And Center City","El Centro-9th Street","No","Arsenic","","","","","","","","","","","","","",""
"06-027-1001","Arsenic Pm10 Lc","36.049402","-117.943927","COSO JUNCTION","","UNKNOWN","","COSO JUNCTION","meanRos_ug_m3","No","Undetermined","California","Not in a city","Unknown","Coso Junction","No","Arsenic","","","","","","","","","","","","","",""
"06-029-0014","Arsenic Pm10 Lc","35.356601","-119.063542","Bakersfield","","MOBILE","","Bakersfield-California Avenue","meanRos_ug_m3","No","Undetermined","California","Bakersfield","Urban And Center City","Bakersfield-California","No","Arsenic","","","","","","","","","","","","","",""
"06-029-2004","Arsenic Pm10 Lc","35.142189","-119.460952","TAFT","","COMMERCIAL","","TAFT","meanRos_ug_m3","No","Undetermined","California","Taft","Suburban","Taft-College","No","Arsenic","","","","","","","","","","","","","",""
"06-031-0003","Arsenic Pm10 Lc","36.086062","-119.563457","CORCORAN","","UNKNOWN","","CORCORAN","meanRos_ug_m3","No","Undetermined","California","Corcoran","Unknown","Corcoran-Van Dorsten Ave","No","Arsenic","","","","","","","","","","","","","",""
"06-031-0004","Arsenic Pm10 Lc","36.10218","-119.566954","CORCORAN","","RESIDENTIAL","","CORCORAN","meanRos_ug_m3","No","Undetermined","California","Corcoran","Suburban","Corcoran-Patterson","No","Arsenic","","","","","","","","","","","","","",""
"06-033-3010","Arsenic Pm10 Lc","38.77453","-122.6995","NOT IN A CITY","","FOREST","","ANDERSON SPRINGS","meanRos_ug_m3","No","Undetermined","California","Middletown","Rural","ANDERSON SPRINGS","No","Arsenic","","","","","","","","","","","","","",""
"06-033-3011","Arsenic Pm10 Lc","38.84846","-122.75797","GLENBROOK","","FOREST","","GLENBROOK","meanRos_ug_m3","No","Undetermined","California","Cobb","Rural","GLENBROOK","No","Arsenic","","","","","","","","","","","","","",""
"06-037-0002","Arsenic Pm10 Lc","34.1365","-117.92391","Azusa","","RESIDENTIAL","","Azusa","meanRos_ug_m3","No","Undetermined","California","Azusa","Suburban","Azusa","No","Arsenic","","","","","","","","","","","","","",""
"06-037-4002","Arsenic Pm10 Lc","33.82376","-118.18921","Long Beach","","RESIDENTIAL","","UATMP: LBHCA; MATES: North Long Beach","meanRos_ug_m3","No","Undetermined","California","Long Beach","Suburban","Long Beach (North)","No","Arsenic","","","","","","","","","","","","","",""
"06-039-0001","Arsenic Pm10 Lc","36.954669","-120.037383","MADERA","","COMMERCIAL","","MADERA","meanRos_ug_m3","No","Undetermined","California","Madera","Urban And Center City","Madera-Library","No","Arsenic","","","","","","","","","","","","","",""
"06-063-1008","Arsenic Pm10 Lc","39.791568","-120.472715","PORTOLA","","RESIDENTIAL","","PORTOLA","meanRos_ug_m3","No","Undetermined","California","Portola","Urban And Center City","MONITOR ON TOP OF PRIMETIME PIZZA BUSINESS","No","Arsenic","","","","","","","","","","","","","",""
"06-067-0010","Arsenic Pm10 Lc","38.558228","-121.492981","SACRAMENTO","","RESIDENTIAL","","SACRAMENTO","meanRos_ug_m3","No","Undetermined","California","Sacramento","Urban And Center City","Sacramento-1309 T Street","No","Arsenic","","","","","","","","","","","","","",""
"06-071-0014","Arsenic Pm10 Lc","34.512496","-117.330879","VICTORVILLE","","RESIDENTIAL","","VICTORVILLE","meanRos_ug_m3","No","Undetermined","California","Victorville","Suburban","Victorville-Amargosa Road","No","Arsenic","","","","","","","","","","","","","",""
"06-077-1002","Arsenic Pm10 Lc","37.950741","-121.268523","Stockton","","RESIDENTIAL","","HAZELTON-HD, STOCKTON","meanRos_ug_m3","No","Undetermined","California","Stockton","Urban And Center City","Stockton-Hazelton","No","Arsenic","","","","","","","","","","","","","",""
"06-085-0004","Arsenic Pm10 Lc","37.339666","-121.888575","San Jose","","RESIDENTIAL","","San Jose - 4th St.","meanRos_ug_m3","No","Undetermined","California","San Jose","Urban And Center City","San Jose - 4th St.","No","Arsenic","","","","","","","","","","","","","",""
"06-099-0002","Arsenic Pm10 Lc","37.648819","-120.997712","MODESTO","","RESIDENTIAL","","Modesto-Courthouse","meanRos_ug_m3","No","Undetermined","California","Modesto","Urban And Center City","Modesto-Courthouse","No","Arsenic","","","","","","","","","","","","","",""
"06-099-0005","Arsenic Pm10 Lc","37.641583","-120.994622","MODESTO","","COMMERCIAL","","Modesto-14th Street","meanRos_ug_m3","No","Undetermined","California","Modesto","Urban And Center City","Modesto-14th Street","No","Arsenic","","","","","","","","","","","","","",""
"06-107-2002","Arsenic Pm10 Lc","36.332179","-119.291228","VISALIA","","COMMERCIAL","","VISALIA","meanRos_ug_m3","No","Undetermined","California","Visalia","Urban And Center City","Visalia-Church","No","Arsenic","","","","","","","","","","","","","",""
"12-057-1065","Arsenic Pm10 Lc","27.892523","-82.538429","Tampa","","COMMERCIAL","","UATMP: GAFL; NADP: FL18; PILOT CITY: Gandy","meanRos_ug_m3","No","No Trend","Florida","Tampa","Suburban","USMC Reserve Center (Gandy)","No","Arsenic","","0.00122015112841687","0.000956265198803159","0.000765825360016624","0.000577464134095854","0.000588562254648234","","","","","","","",""
"12-095-1004","Arsenic Pm10 Lc","28.551112","-81.345347","ORLANDO","","COMMERCIAL","","UATMP: PAFL","meanRos_ug_m3","No","No Trend","Florida","Orlando","Suburban","Primrose Ave","No","Arsenic","","","","","","0.000772009662597105","0.000720258967986655","0.000575943145132653","0.000624237896066011","","","","0.000622345904079396","0.000523219249770756"
"12-095-2002","Arsenic Pm10 Lc","28.596389","-81.3625","Winter Park","","COMMERCIAL","","UATMP: ORFL","meanRos_ug_m3","No","No Trend","Florida","Winter Park","Urban And Center City","WINTER PARK","No","Arsenic","","","","","","","","","","0.000951530032464075","0.000728439473577617","0.000826295106459393","0.000622290379463723","0.000523219249770756"
"12-103-0018","Arsenic Pm10 Lc","27.785866","-82.739875","SAINT PETERSBURG","","RESIDENTIAL","","UATMP: AZFL; PILOT CITY: Azalea Park","meanRos_ug_m3","Yes","Increasing","Florida","Saint Petersburg","Suburban","Azalea Park","No","Arsenic","","","0.00125200999282355","0.00107538500589666","0.000753852019799549","0.00116675141255106","0.00104194470949795","0.00110346564433936","0.00113630858472523","0.0014500982097913","0.00117059390994561","0.00158413748515667","0.00125836600328453","0.00139828959987544"
"16-001-0100","Arsenic Pm10 Lc","43.6013","-116.3473","Meridian","","COMMERCIAL","","","meanRos_ug_m3","No","Undetermined","Idaho","Not in a city","Suburban","","No","Arsenic","","","","","0.000318329143998983","","","","","","","","",""
"16-001-0200","Arsenic Pm10 Lc","43.5776","-116.1777","Boise","","RESIDENTIAL","","White Pine Elementary School","meanRos_ug_m3","No","Undetermined","Idaho","Boise City (corporate name for Boise)","Urban And Center City","White Pine Elementary School","No","Arsenic","","","","","0.000267676766721229","","","","","","","","",""
"17-031-0014","Arsenic Pm10 Lc","41.834276","-87.623851","CHICAGO","","COMMERCIAL","","CHICAGO","meanRos_ug_m3","No","Undetermined","Illinois","Chicago","Suburban","FARR HALL","No","Arsenic","","","","","","","","","","","","","",""
"17-031-0022","Arsenic Pm10 Lc","41.687165","-87.539315","Chicago","","INDUSTRIAL","","UATMP: WASH","meanRos_ug_m3","No","Undetermined","Illinois","Chicago","Suburban","WASHINGTON HS","No","Arsenic","","","","","","","","","","","","","",""
"17-031-0049","Arsenic Pm10 Lc","41.896977","-87.623664","CHICAGO","","COMMERCIAL","","CHICAGO","meanRos_ug_m3","No","Undetermined","Illinois","Chicago","Urban And Center City","CHICAGO","No","Arsenic","","","","","","","","","","","","","",""
"17-031-0052","Arsenic Pm10 Lc","41.965485","-87.749928","Chicago","","COMMERCIAL","","MAYFAIR PUMP STATION","meanRos_ug_m3","No","Undetermined","Illinois","Chicago","Suburban","MAYFAIR PUMP STATION","No","Arsenic","","","","","","","","","","","","","",""
"17-031-0060","Arsenic Pm10 Lc","41.656518","-87.589574","CHICAGO","","RESIDENTIAL","","UATMP: CARV","meanRos_ug_m3","No","Undetermined","Illinois","Chicago","Suburban","CARVER HS","No","Arsenic","","","","","","","","","","","","","",""
"17-031-6001","Arsenic Pm10 Lc","41.859754","-87.750334","CICERO","","RESIDENTIAL","","CICERO","meanRos_ug_m3","No","Undetermined","Illinois","Cicero","Suburban","CICERO","No","Arsenic","","","","","","","","","","","","","",""
"17-115-0002","Arsenic Pm10 Lc","39.859481","-88.924799","DECATUR","","INDUSTRIAL","","DECATUR","meanRos_ug_m3","No","Undetermined","Illinois","Decatur","Suburban","DECATUR","No","Arsenic","","","","","","","","","","","","","",""
"17-117-0002","Arsenic Pm10 Lc","39.396075","-89.809739","Nilwood","","AGRICULTURAL","","IEPA TRAILER","meanRos_ug_m3","No","Undetermined","Illinois","Nilwood","Rural","IEPA TRAILER","No","Arsenic","","","","","","","","","","","","","",""
"17-119-0010","Arsenic Pm10 Lc","38.694438","-90.153954","Granite City","","INDUSTRIAL","","AIR PRODUCTS","meanRos_ug_m3","No","Undetermined","Illinois","Granite City","Urban And Center City","AIR PRODUCTS","No","Arsenic","","","","","","","","","","","","","",""
"17-119-1007","Arsenic Pm10 Lc","38.704534","-90.139675","GRANITE CITY","","INDUSTRIAL","","GRANITE CITY","meanRos_ug_m3","No","Undetermined","Illinois","Granite City","Urban And Center City","FIRESTATION #1","No","Arsenic","","","","","","","","","","","","","",""
"17-143-0037","Arsenic Pm10 Lc","40.697007","-89.584737","Peoria","","COMMERCIAL","","CITY OFFICE BUILDING","meanRos_ug_m3","No","Undetermined","Illinois","Peoria","Urban And Center City","CITY OFFICE BUILDING","No","Arsenic","","","","","","","","","","","","","",""
"17-161-0001","Arsenic Pm10 Lc","41.514478","-90.440409","EAST MOLINE","","COMMERCIAL","","","meanRos_ug_m3","No","Undetermined","Illinois","East Moline","Urban And Center City","","No","Arsenic","","","","","","","","","","","","","",""
"17-163-0010","Arsenic Pm10 Lc","38.612034","-90.160477","East St Louis","","INDUSTRIAL","","IEPA-RAPS TRAILER","meanRos_ug_m3","No","Undetermined","Illinois","East Saint Louis","Suburban","IEPA-RAPS TRAILER","No","Arsenic","","","","","","","","","","","","","",""
"18-089-0022","Arsenic Pm10 Lc","41.60668","-87.304729","Gary","","INDUSTRIAL","","UATMP: INDEM","meanRos_ug_m3","No","Undetermined","Indiana","Gary","Urban And Center City","Gary-IITRI/ 1219.5 meters east of Tennessee St.- old ammuntion bunker","No","Arsenic","","","","","","0.00126365994105814","","","","","","","",""
"18-089-0023","Arsenic Pm10 Lc","41.65274","-87.439551","East Chicago","","INDUSTRIAL","","East Chicago Water Flitration Plant","meanRos_ug_m3","No","No Trend","Indiana","East Chicago","Urban And Center City","SITE MOVED FROM EAST CHICAGO FIELD SCHOOL","No","Arsenic","0.00161093087086383","0.00145470233203256","0.00145695077455642","0.00140609121520481","","0.00123442573448013","","","","","","","",""
"18-097-0057","Arsenic Pm10 Lc","39.749019","-86.186314","INDIANAPOLIS","","RESIDENTIAL","","UATMP: ININ","meanRos_ug_m3","No","Undetermined","Indiana","Indianapolis (Remainder)","Urban And Center City","Indpls- Harding St.","No","Arsenic","","","","","0.00098462644317529","0.00105339101398854","","","","","","","",""
"18-097-0085","Arsenic Pm10 Lc","39.740383","-86.22595","INDIANAPOLIS","","MILITARY RESERVATION","","UATMP: IDIN","meanRos_ug_m3","No","Undetermined","Indiana","Indianapolis (Remainder)","Urban And Center City","Stout Field 2","No","Arsenic","","","","","0.00108834016629299","0.00108546722332294","","","","","","","",""
"20-029-0001","Arsenic Pm10 Lc","39.571669","-97.657261","CONCORDIA","","COMMERCIAL","","CONCORDIA","meanRos_ug_m3","No","Undetermined","Kansas","Concordia","Suburban","CONCORDIA","No","Arsenic","","","","","","","","","","","","","",""
"20-029-0002","Arsenic Pm10 Lc","39.569002","-97.660123","CONCORDIA","","COMMERCIAL","","CONCORDIA","meanRos_ug_m3","No","Undetermined","Kansas","Concordia","Suburban","POINT=CENTER OF MASS OF MANMADE MATERIALS AT SITE","No","Arsenic","","","","","","","","","","","","","",""
"20-057-0001","Arsenic Pm10 Lc","37.771964","-100.01819","DODGE CITY","","COMMERCIAL","","DODGE CITY","meanRos_ug_m3","No","Undetermined","Kansas","Dodge City","Suburban","DODGE CITY","No","Arsenic","","","","","","","","","","","","","",""
"20-071-0001","Arsenic Pm10 Lc","38.466127","-101.775729","TRIBUNE","","AGRICULTURAL","","POINT=CENTER OF MASS OF MAN-MADE MATERIALS AT SITE","meanRos_ug_m3","No","Undetermined","Kansas","Not in a city","Rural","POINT=CENTER OF MASS OF MAN-MADE MATERIALS AT SITE","No","Arsenic","","","","","","","","","","","","","",""
"20-091-0007","Arsenic Pm10 Lc","38.974457","-94.687013","OVERLAND PARK","","COMMERCIAL","","OVERLAND PARK","meanRos_ug_m3","No","Undetermined","Kansas","Overland Park","Urban And Center City","JUSTICE CENTER","No","Arsenic","","","","","","","","","","","","","",""
"20-091-2002","Arsenic Pm10 Lc","38.95695","-94.695237","OVERLAND PARK","","RESIDENTIAL","","OVERLAND PARK","meanRos_ug_m3","No","Undetermined","Kansas","Overland Park","Urban And Center City","OVERLAND PARK","No","Arsenic","","","","","","","","","","","","","",""
"20-093-0001","Arsenic Pm10 Lc","37.980689","-101.133168","DEERFIELD","","COMMERCIAL","","POINT=CENTER OF MANMADE MATERIALS AT SITE","meanRos_ug_m3","No","Undetermined","Kansas","Not in a city","Rural","POINT=CENTER OF MANMADE MATERIALS AT SITE","No","Arsenic","","","","","","","","","","","","","",""
"20-133-0002","Arsenic Pm10 Lc","37.676308","-95.474659","CHANUTE","","RESIDENTIAL","","CHANUTE","meanRos_ug_m3","No","Undetermined","Kansas","Chanute","Suburban","CHANUTE","No","Arsenic","","","","","","","","","","","","","",""
"20-145-0001","Arsenic Pm10 Lc","38.176264","-99.108408","LARNED","","RESIDENTIAL","","LARNED","meanRos_ug_m3","No","Undetermined","Kansas","Larned","Suburban","POINT=CENTER OF MASS OF MANMADE MATERIALS AT SITE","No","Arsenic","","","","","","","","","","","","","",""
"20-173-0007","Arsenic Pm10 Lc","37.708902","-97.375601","WICHITA","","COMMERCIAL","","UATMP: W2KS","meanRos_ug_m3","No","Undetermined","Kansas","Wichita","Suburban","13TH & ST PAUL","No","Arsenic","","","","","","","","","","","","","",""
"20-173-0008","Arsenic Pm10 Lc","37.659334","-97.297714","WICHITA","","COMMERCIAL","","WICHITA","meanRos_ug_m3","No","Undetermined","Kansas","Wichita","Suburban","WASH & SKINNER","No","Arsenic","","","","","","","","","","","","","",""
"20-173-0009","Arsenic Pm10 Lc","37.651114","-97.362212","WICHITA","","RESIDENTIAL","","PAWNEE & GLENN","meanRos_ug_m3","No","Undetermined","Kansas","Wichita","Suburban","PAWNEE & GLENN","No","Arsenic","","","","","","","","","","","","","",""
"20-173-1012","Arsenic Pm10 Lc","37.747085","-97.316912","WICHITA","","INDUSTRIAL","","WICHITA","meanRos_ug_m3","No","Undetermined","Kansas","Wichita","Suburban","HYDRAULIC","No","Arsenic","","","","","","","","","","","","","",""
"20-177-0007","Arsenic Pm10 Lc","39.074722","-95.660537","TOPEKA","","RESIDENTIAL","","TOPEKA","meanRos_ug_m3","No","Undetermined","Kansas","Topeka","Urban And Center City","TOPEKA","No","Arsenic","","","","","","","","","","","","","",""
"20-177-0009","Arsenic Pm10 Lc","39.01889","-95.743594","TOPEKA","","RESIDENTIAL","","TOPEKA","meanRos_ug_m3","No","Undetermined","Kansas","Topeka","Suburban","POINT=CENTER OF MASS OF MANMADE MATERIALS AT SITE","No","Arsenic","","","","","","","","","","","","","",""
"20-181-0001","Arsenic Pm10 Lc","39.348452","-101.713405","GOODLAND","","COMMERCIAL","","GOODLAND","meanRos_ug_m3","No","Undetermined","Kansas","Goodland","Urban And Center City","GOODLAND","No","Arsenic","","","","","","","","","","","","","",""
"20-209-0015","Arsenic Pm10 Lc","39.087949","-94.621453","KANSAS CITY","","INDUSTRIAL","","KANSAS CITY","meanRos_ug_m3","No","Undetermined","Kansas","Kansas City","Urban And Center City","420 KANSAS","No","Arsenic","","","","","","","","","","","","","",""
"20-209-0020","Arsenic Pm10 Lc","39.151393","-94.617734","KANSAS CITY","","INDUSTRIAL","","UATMP: KCKS","meanRos_ug_m3","No","Undetermined","Kansas","Kansas City","Urban And Center City","KINDELBERGER","No","Arsenic","","","","","","","","","","","","","",""
"21-019-0002","Arsenic Pm10 Lc","38.47676","-82.63137","ASHLAND","","INDUSTRIAL","","UATMP: ASKY-M","meanRos_ug_m3","No","Decreasing","Kentucky","Ashland","Urban And Center City","21ST & GREENUP","No","Arsenic","","","","0.00268143939352628","0.0026025544888152","0.00168603481816941","0.00142502314346154","0.00206974980881314","0.00138192374454178","0.00166944164292677","0.00125627570886143","0.00115706879806687","0.00139034413420088","0.00114205863309529"
"21-067-0012","Arsenic Pm10 Lc","38.06503","-84.49761","LEXINGTON-FAYETTE","","RESIDENTIAL","","UATMP: LEKY","meanRos_ug_m3","No","Undetermined","Kentucky","Lexington-Fayette (corporate name for Lexington)","Suburban","LEXINGTON PRIMARY","No","Arsenic","","","","","","","","","","0.000878613112068682","0.00068284297093706","0.00068577157152906","0.00081801564725083",""
"21-067-0014","Arsenic Pm10 Lc","38.038966","-84.507439","LEXINGTON-FAYETTE","","RESIDENTIAL","","","meanRos_ug_m3","No","No Trend","Kentucky","Lexington-Fayette (corporate name for Lexington)","Urban And Center City","","No","Arsenic","","","","0.00122967925882287","0.00133703834432318","0.00133427608840748","0.00117739405319656","0.0012217063022583","0.000896763569876395","","","","",""
"21-101-0014","Arsenic Pm10 Lc","37.8712","-87.46375","NOT IN A CITY","","COMMERCIAL","","UATMP: BAKY","meanRos_ug_m3","No","No Trend","Kentucky","Not in a city","Rural","BASKETT","No","Arsenic","","","","","","","","","","0.000920286895044467","0.000835381095600706","0.000872281458529838","0.000974784120475267","0.000935908497650422"
"21-139-0004","Arsenic Pm10 Lc","37.07151","-88.33389","NOT IN A CITY","","AGRICULTURAL","","UATMP: BLKY","meanRos_ug_m3","No","Undetermined","Kentucky","Smithland","Rural","BLOODWORTH","No","Arsenic","","","","","","","","","","","","","0.000578095786798897","0.000553561979747676"
"21-157-0018","Arsenic Pm10 Lc","37.02702","-88.34387","CALVERT CITY","","RESIDENTIAL","","UATMP: CCKY; CALVERT CITY ELEMENTARY","meanRos_ug_m3","No","No Trend","Kentucky","Calvert City (RR name Calvert)","Suburban","CALVERT CITY ELEMENTARY","No","Arsenic","","","","0.000938772541069155","0.000556519593560294","0.000665761503134445","0.000549170235737972","0.000652616459347635","0.00052913881033779","0.000805921418091647","0.000626755329309171","0.000560118209126117","",""
"21-183-0032","Arsenic Pm10 Lc","37.319769","-86.956091","NOT IN A CITY","","AGRICULTURAL","","ECHOLS","meanRos_ug_m3","No","Undetermined","Kentucky","Not in a city","Rural","ECHOLS","No","Arsenic","","","","","0.00090993400105511","0.000769558905192663","0.000690077554175666","","","","","","",""
"26-139-0009","Arsenic Pm10 Lc","42.790023","-86.114485","Holland","","COMMERCIAL","","100 FEET SOUTH OF 8TH STREET","meanRos_ug_m3","No","Undetermined","Michigan","Holland","Urban And Center City","100 FEET SOUTH OF 8TH STREET","No","Arsenic","","","","","","","","","","","","","",""
"26-157-0001","Arsenic Pm10 Lc","43.368605","-83.569065","Vassar","","RESIDENTIAL","","","meanRos_ug_m3","No","Undetermined","Michigan","Vassar","Suburban","","No","Arsenic","","","","","","","","","","","0.000856805377643305","0.000746811791667952","",""
"26-163-0001","Arsenic Pm10 Lc","42.22862","-83.2082","Allen Park","","COMMERCIAL","","UATMP: APMI; IMPROVE: DETR1; PILOT CITY: Allen Park","meanRos_ug_m3","No","Increasing","Michigan","Allen Park","Suburban","Allen Park","No","Arsenic","","","","","","","","0.00125557254531368","0.00107956238952811","0.0012113128066333","0.00125740394718575","0.00137639896326978","0.00163169963912132","0.00131610962924052"
"27-123-0866","Arsenic Pm10 Lc","44.89926","-93.01708","SAINT PAUL","","INDUSTRIAL","","Red Rock Rd.","meanRos_ug_m3","No","Undetermined","Minnesota","St. Paul","Suburban","Red Rock Road","No","Arsenic","","","","","","","","","","","","","",""
"30-007-0011","Arsenic Pm10 Lc","46.30993","-111.673588","NOT IN A CITY","","FOREST","","","meanRos_ug_m3","No","Undetermined","Montana","Not in a city","Rural","","No","Arsenic","","","","","","","","","","","","","",""
"30-007-0015","Arsenic Pm10 Lc","46.31743","-111.681088","Townsend","","INDUSTRIAL","","DIAMOND HILL MINE DOWNWIND,INDIAN CRK RD;ACCESS RD 150 MTRS E","meanRos_ug_m3","No","Undetermined","Montana","Not in a city","Rural","DIAMOND HILL MINE DOWNWIND,INDIAN CRK RD;ACCESS RD 150 MTRS E","No","Arsenic","","","","","","","","","","","","","",""
"30-023-0010","Arsenic Pm10 Lc","46.131593","-112.940042","ANACONDA","","RESIDENTIAL","","ANACONDA-DEER LODGE COUNTY","meanRos_ug_m3","No","Undetermined","Montana","Anaconda-Deer Lodge County","Suburban","ANACONDA-DEER LODGE COUNTY","No","Arsenic","","","","","","","","","","","","","",""
"30-023-0011","Arsenic Pm10 Lc","46.120482","-112.912541","ANACONDA","","INDUSTRIAL","","ANACONDA-DEER LODGE COUNTY","meanRos_ug_m3","No","Undetermined","Montana","Anaconda-Deer Lodge County","Rural","ANACONDA-DEER LODGE COUNTY","No","Arsenic","","","","","","","","","","","","","",""
"30-023-0706","Arsenic Pm10 Lc","46.104093","-112.879484","ANACONDA","","FOREST","","ANACONDA-DEER LODGE COUNTY","meanRos_ug_m3","No","Undetermined","Montana","Anaconda-Deer Lodge County","Rural","ANACONDA-DEER LODGE COUNTY","No","Arsenic","","","","","","","","","","","","","",""
"30-023-0714","Arsenic Pm10 Lc","46.129093","-112.926986","ANACONDA","","COMMERCIAL","","","meanRos_ug_m3","No","Undetermined","Montana","Anaconda-Deer Lodge County","Suburban","","No","Arsenic","","","","","","","","","","","","","",""
"30-027-0004","Arsenic Pm10 Lc","47.286922","-109.461573","HILGER","","INDUSTRIAL","","CR KENDALL-N TOWNSITE #3, HILGER","meanRos_ug_m3","No","Undetermined","Montana","Not in a city","Rural","CR KENDALL-N TOWNSITE #3, HILGER","No","Arsenic","","","","","","","","","","","","","",""
"30-027-0005","Arsenic Pm10 Lc","47.273589","-109.456573","HILGER","","INDUSTRIAL","","CR KENDALL-BSA SITE #4, HILGER","meanRos_ug_m3","No","Undetermined","Montana","Not in a city","Rural","CR KENDALL-BSA SITE #4, HILGER","No","Arsenic","","","","","","","","","","","","","",""
"30-043-0011","Arsenic Pm10 Lc","45.888816","-112.014713","NOT IN A CITY","","INDUSTRIAL","","","meanRos_ug_m3","No","Undetermined","Montana","Not in a city","Rural","","No","Arsenic","","","","","","","","","","","","","",""
"30-043-0012","Arsenic Pm10 Lc","45.916594","-111.99249","NOT IN A CITY","","INDUSTRIAL","","","meanRos_ug_m3","No","Undetermined","Montana","Not in a city","Rural","","No","Arsenic","","","","","","","","","","","","","",""
"30-043-0019","Arsenic Pm10 Lc","46.356319","-112.070554","NOT IN A CITY","","INDUSTRIAL","","MT Tunnels - Ranch # 1A","meanRos_ug_m3","No","Undetermined","Montana","Not in a city","Rural","MT Tunnels - Ranch # 1A","No","Arsenic","","","","","","","","","","","","","",""
"30-043-0024","Arsenic Pm10 Lc","46.191039","-111.961657","NOT IN A CITY","","FOREST","","","meanRos_ug_m3","No","Undetermined","Montana","Not in a city","Rural","","No","Arsenic","","","","","","","","","","","","","",""
"30-043-0025","Arsenic Pm10 Lc","46.272984","-111.947491","NOT IN A CITY","","FOREST","","","meanRos_ug_m3","No","Undetermined","Montana","Not in a city","Rural","","No","Arsenic","","","","","","","","","","","","","",""
"30-043-0026","Arsenic Pm10 Lc","46.286873","-111.953602","NOT IN A CITY","","FOREST","","","meanRos_ug_m3","No","Undetermined","Montana","Not in a city","Rural","","No","Arsenic","","","","","","","","","","","","","",""
"30-067-0001","Arsenic Pm10 Lc","45.074658","-110.632153","GARDIN","","INDUSTRIAL","","","meanRos_ug_m3","No","Undetermined","Montana","Not in a city","Rural","","No","Arsenic","","","","","","","","","","","","","",""
"30-067-0002","Arsenic Pm10 Lc","45.070492","-110.636042","NOT IN A CITY","","UNKNOWN","","","meanRos_ug_m3","No","Undetermined","Montana","Not in a city","Unknown","","No","Arsenic","","","","","","","","","","","","","",""
"30-067-0003","Arsenic Pm10 Lc","45.056047","-110.642708","JARDINE","","UNKNOWN","","","meanRos_ug_m3","No","Undetermined","Montana","Not in a city","Unknown","","No","Arsenic","","","","","","","","","","","","","",""
"30-071-0002","Arsenic Pm10 Lc","47.898327","-108.624597","NOT IN A CITY","","RESIDENTIAL","","","meanRos_ug_m3","No","Undetermined","Montana","Not in a city","Rural","","No","Arsenic","","","","","","","","","","","","","",""
"30-071-0003","Arsenic Pm10 Lc","47.917217","-108.588762","NOT IN A CITY","","INDUSTRIAL","","","meanRos_ug_m3","No","Undetermined","Montana","Not in a city","Rural","","No","Arsenic","","","","","","","","","","","","","",""
"30-071-0007","Arsenic Pm10 Lc","47.883327","-108.625152","NOT IN A CITY","","AGRICULTURAL","","","meanRos_ug_m3","No","Undetermined","Montana","Not in a city","Rural","","No","Arsenic","","","","","","","","","","","","","",""
"30-071-0008","Arsenic Pm10 Lc","47.883607","-108.498201","Zortman","","AGRICULTURAL","","","meanRos_ug_m3","No","Undetermined","Montana","Not in a city","Rural","","No","Arsenic","","","","","","","","","","","","","",""
"30-095-0002","Arsenic Pm10 Lc","45.388274","-109.867678","NOT IN A CITY","","INDUSTRIAL","","","meanRos_ug_m3","No","Undetermined","Montana","Not in a city","Rural","","No","Arsenic","","","","","","","","","","","","","",""
"33-011-0020","Arsenic Pm10 Lc","42.995778","-71.462528","Manchester","","COMMERCIAL","","PEARL ST MUNICIPAL PARKING LOT","meanRos_ug_m3","No","Undetermined","New Hampshire","Manchester","Urban And Center City","PEARL ST MUNICIPAL PARKING LOT","No","Arsenic","0.00192086296595274","0.00189639890177747","","","","","","","","","","","",""
"33-013-1003","Arsenic Pm10 Lc","43.177304","-71.462014","Pembroke","","RESIDENTIAL","","","meanRos_ug_m3","No","Undetermined","New Hampshire","Pembroke","Rural","","No","Arsenic","0.00191433259195869","","","","","","","","","","","","",""
"33-013-1006","Arsenic Pm10 Lc","43.13246","-71.458246","Pembroke","","RESIDENTIAL","","PEMBROKE HIGHWAY DEPARTMENT","meanRos_ug_m3","No","Undetermined","New Hampshire","Suncook","Suburban","PEMBROKE HIGHWAY DEPARTMENT","No","Arsenic","0.00237289491624941","","","","","","","","","","","","",""
"33-015-0014","Arsenic Pm10 Lc","43.075371","-70.748017","Portsmouth","","RESIDENTIAL","","PORTSMOUTH - PEIRCE ISLAND","meanRos_ug_m3","No","Undetermined","New Hampshire","Portsmouth","Urban And Center City","PORTSMOUTH - PEIRCE ISLAND","No","Arsenic","0.00227381242501752","0.00221514731066365","","","","","","","","","","","",""
"33-019-0003","Arsenic Pm10 Lc","43.364518","-72.337867","Claremont","","RESIDENTIAL","","","meanRos_ug_m3","No","Undetermined","New Hampshire","Claremont","Urban And Center City","","No","Arsenic","0.00192483629454224","","","","","","","","","","","","",""
"36-061-0062","Arsenic Pm10 Lc","40.720622","-74.003674","New York City","","COMMERCIAL","","CANAL STREET","meanRos_ug_m3","No","Undetermined","New York","New York","Urban And Center City","CANAL STREET","No","Arsenic","","","0.00182388765163311","","","","","","","","","","",""
"36-063-2008","Arsenic Pm10 Lc","43.08218","-79.00106","Niagara Falls","","INDUSTRIAL","","NIAGARA FALLS","meanRos_ug_m3","No","Undetermined","New York","Niagara Falls","Suburban","NIAGARA FALLS","No","Arsenic","","","0.00179504450122743","","","","","","","","","","",""
"36-085-0106","Arsenic Pm10 Lc","40.57811","-74.1843","New York City","","INDUSTRIAL","","UNLOADING ZONE FRESHKILLLS LANDFILL","meanRos_ug_m3","No","Undetermined","New York","New York","Urban And Center City","UNLOADING ZONE FRESHKILLLS LANDFILL","No","Arsenic","0.00106961091149561","","","","","","","","","","","","",""
"36-085-0111","Arsenic Pm10 Lc","40.58027","-74.19832","New York City","","COMMERCIAL","","FRESHKILLS WEST","meanRos_ug_m3","No","Undetermined","New York","New York","Suburban","FRESHKILLS WEST","No","Arsenic","0.00106253580495619","","","","","","","","","","","","",""
"36-085-0131","Arsenic Pm10 Lc","40.58806","-74.16882","New York City","","INDUSTRIAL","","FRESHKILLS EAST","meanRos_ug_m3","No","Undetermined","New York","New York","Urban And Center City","FRESHKILLS EAST","No","Arsenic","0.00158518822339688","","","","","","","","","","","","",""
"36-085-0132","Arsenic Pm10 Lc","40.58056","-74.15178","New York City","","COMMERCIAL","","LATOURETTE GOLF COURSE","meanRos_ug_m3","No","Undetermined","New York","New York","Suburban","LATOURETTE GOLF COURSE","No","Arsenic","0.00111904243597436","","","","","","","","","","","","",""
"39-029-0020","Arsenic Pm10 Lc","40.639595","-80.524019","EAST LIVERPOOL","","INDUSTRIAL","","East Elementary (Water Plant)","meanRos_ug_m3","No","No Trend","Ohio","East Liverpool","Suburban","WATER PLANT","No","Arsenic","","","","","","","0.00310583333333333","0.00307833333333333","0.0018516183077523","0.00363825","0.00313508474576271","0.00308016666666667","0.00413101869795114","0.00324834985408603"
"41-009-0004","Arsenic Pm10 Lc","45.768531","-122.7721","NOT IN A CITY","","AGRICULTURAL","","SAUVIE ISLAND-SIS","meanRos_ug_m3","No","Undetermined","Oregon","Not in a city","Rural","SAUVIE ISLAND-SIS","No","Arsenic","","","","","0.000881401283791734","","","","","","","","",""
"41-029-0133","Arsenic Pm10 Lc","42.31411","-122.87923","MEDFORD","","RESIDENTIAL","","Medford - Grant & Belmont Sts. (MGB)","meanRos_ug_m3","No","Undetermined","Oregon","Medford","Urban And Center City","Medford - Grant & Belmont Sts. (MGB)","No","Arsenic","","","","","","0.000545376301782849","0.000589430221218803","0.000372802498418313","","","","","",""
"41-029-2129","Arsenic Pm10 Lc","42.33155","-122.880266","Medford","","RESIDENTIAL","","","meanRos_ug_m3","No","Undetermined","Oregon","Medford","Urban And Center City","","No","Arsenic","","","","","","","","","","0.00045464406779661","","","",""
"41-035-0004","Arsenic Pm10 Lc","42.190296","-121.731369","Klamath Falls","","RESIDENTIAL","","PETERSON ELEM","meanRos_ug_m3","No","Undetermined","Oregon","Altamont","Suburban","Klamath Falls - Peterson School","No","Arsenic","","","","","","","","","0.000225777451214192","","","","",""
"41-039-0060","Arsenic Pm10 Lc","44.026312","-123.083737","Eugene","","RESIDENTIAL","","Eugene - AMAZON PARK (EAP)","meanRos_ug_m3","No","No Trend","Oregon","Eugene","Urban And Center City","Eugene - AMAZON PARK (EAP)","No","Arsenic","","0.000680805098773054","0.000724815704981824","0.000660137216191184","","0.000544169733267973","","0.000738572936506571","","","","","",""
"41-039-0062","Arsenic Pm10 Lc","44.0729","-123.1615","EUGENE","","RESIDENTIAL","","","meanRos_ug_m3","No","Undetermined","Oregon","Eugene","Urban And Center City","","No","Arsenic","","","","","","","","0.0005563536129498","","","","","",""
"41-047-0041","Arsenic Pm10 Lc","44.943114","-123.005934","SALEM","","RESIDENTIAL","","Salem - State Hospital","meanRos_ug_m3","No","Undetermined","Oregon","Salem","Urban And Center City","Salem - State Hospital","No","Arsenic","","","","","","","0.000812951485090009","","","","","","",""
"41-051-0030","Arsenic Pm10 Lc","45.49742","-122.67467","PORTLAND","","RESIDENTIAL","","","meanRos_ug_m3","No","Undetermined","Oregon","Portland","Suburban","","No","Arsenic","","","0.00106114543713292","","","","","","","","","","",""
"41-051-0080","Arsenic Pm10 Lc","45.496641","-122.602877","Portland","","RESIDENTIAL","","Portland - SE Lafayette","meanRos_ug_m3","No","Undetermined","Oregon","Portland","Suburban","Portland - SE Lafayette","No","Arsenic","","0.00164222738767808","0.00132601922998189","","","","","","","","","","",""
"41-051-0100","Arsenic Pm10 Lc","45.49711","-122.64231","Portland","","","","Portland Powell and twenty second","meanRos_ug_m3","No","Undetermined","Oregon","Portland","Urban And Center City","Portland Powell and twenty second","No","Arsenic","","","","","","","","","","","","","","0.00070377865460197"
"41-051-0101","Arsenic Pm10 Lc","45.49395","-122.64282","Portland","","","","Portland Day Care","meanRos_ug_m3","No","Undetermined","Oregon","Portland","Urban And Center City","Portland Day Care","No","Arsenic","","","","","","","","","","","","","","0.000965501946987809"
"41-051-0244","Arsenic Pm10 Lc","45.535","-122.698889","Portland","","COMMERCIAL","","UATMP: PNW","meanRos_ug_m3","No","Undetermined","Oregon","Portland","Urban And Center City","SE CORNER OF P.O. PARKING LOT AND SW CORNER OF NEIGHBORING BUILDING","No","Arsenic","","0.00103925741503699","0.000933047971021132","","","","","","","","","","",""
"41-051-2001","Arsenic Pm10 Lc","45.577175","-122.71775","Portland","","RESIDENTIAL","","PNS","meanRos_ug_m3","No","Undetermined","Oregon","Portland","Urban And Center City","PNS","No","Arsenic","","","","","","","","","","","","","0.000738333333333333",""
"41-051-2007","Arsenic Pm10 Lc","45.599907","-122.758362","Portland","","RESIDENTIAL","","Sitton Elementary","meanRos_ug_m3","No","Undetermined","Oregon","Portland","Urban And Center City","Sitton Elementary","No","Arsenic","","","","","","","","","","","","","0.00080315",""
"41-067-0004","Arsenic Pm10 Lc","45.528501","-122.972398","Hillsboro","","RESIDENTIAL","","Hillsboro - Hare Field","meanRos_ug_m3","No","Undetermined","Oregon","Hillsboro","Suburban","Hillsboro - Hare Field","No","Arsenic","","","","","","","","","","","0.000983428571428572","0.000819016393442623","",""
"41-067-0111","Arsenic Pm10 Lc","45.470191","-122.816411","BEAVERTON","","RESIDENTIAL","","Beaverton - Highland Park","meanRos_ug_m3","No","Undetermined","Oregon","Beaverton","Urban And Center City","Beaverton - Highland Park","No","Arsenic","","","0.0010202307352664","","","","","","","","","","",""
"44-007-0029","Arsenic Pm10 Lc","41.816535","-71.437401","PROVIDENCE","","RESIDENTIAL","","Bridgham School site","meanRos_ug_m3","No","Undetermined","Rhode Island","Providence","Urban And Center City","Bridgham School site","No","Arsenic","","","","","","","","","","","","","",""
"47-145-1001","Arsenic Pm10 Lc","35.916761","-84.503624","Kingston","","AGRICULTURAL","","TVA Fly ash spill site","meanRos_ug_m3","No","Undetermined","Tennessee","Not in a city","Rural","TVA Fly ash spill site","No","Arsenic","","","","","","","0.000659246918488327","0.000909227679270015","","","","","",""
"48-139-0017","Arsenic Pm10 Lc","32.473611","-97.0425","Midlothian","","RESIDENTIAL","","WEST OF WARD & WYATT RD. INTERSECTION","meanRos_ug_m3","No","Undetermined","Texas","Midlothian","Rural","WEST OF WARD & WYATT RD. INTERSECTION","No","Arsenic","0.0119497326443822","","","","","","","","","","","","",""
"48-141-0041","Arsenic Pm10 Lc","31.760538","-106.500449","El Paso","","RESIDENTIAL","","NE OF LAWTON & W. MISSOURI INTERSECTION","meanRos_ug_m3","No","Undetermined","Texas","El Paso","Suburban","NE OF LAWTON & W. MISSOURI INTERSECTION","No","Arsenic","0.00309928645714239","","","","","","","","","","","","",""
"48-201-1035","Arsenic Pm10 Lc","29.733726","-95.257593","Houston","","INDUSTRIAL","","Clinton","meanRos_ug_m3","Yes","Decreasing","Texas","Houston","Urban And Center City","Clinton","No","Arsenic","0.0118076289026911","0.010310907763482","0.00800774662753508","0.00807622312408768","0.00807226587706969","0.00809238949859489","0.00813973787400969","0.00407239982810851","0.00303259461268145","0.00143927368776886","0.0016073796720782","0.00123942031655811","0.00163733699773676","0.00168134270527068"
"53-011-0030","Arsenic Pm10 Lc","45.641683","-122.681233","VANCOUVER","","RESIDENTIAL","","","meanRos_ug_m3","No","Undetermined","Washington","Vancouver","Suburban","","No","Arsenic","","","0.0010291435651027","","","","","","","","","","",""
"53-063-0016","Arsenic Pm10 Lc","47.660743","-117.358121","SPOKANE","","COMMERCIAL","","SPOKANE - FERRY ST; CROWN ZELLERBACH","meanRos_ug_m3","No","Undetermined","Washington","Spokane","Suburban","SPOKANE - FERRY ST","No","Arsenic","","","0.00139246442615555","","","","","","","","","","",""
"53-063-0050","Arsenic Pm10 Lc","47.695447","-117.370303","SPOKANE","","COMMERCIAL","","SCHOOL DISTRICT 81","meanRos_ug_m3","No","Undetermined","Washington","Spokane","Urban And Center City","DISTRICT 81","No","Arsenic","","","0.000916555436761053","","","","","","","","","","",""
"53-063-0052","Arsenic Pm10 Lc","47.665122","-117.429093","SPOKANE","","COMMERCIAL","","HEALTH DISTRICT","meanRos_ug_m3","No","Undetermined","Washington","Spokane","Urban And Center City","HEALTH DISTRICT","No","Arsenic","","","0.000521348893195835","","","","","","","","","","",""
"53-063-0053","Arsenic Pm10 Lc","47.6822","-117.3048","SPOKANE","","RESIDENTIAL","","FELTS FIELD AIRPORT","meanRos_ug_m3","No","Undetermined","Washington","Not in a city","Urban And Center City","FELTS FIELD AIRPORT","No","Arsenic","","","0.000752837049661307","","","","","","","","","","",""
"55-079-0010","Arsenic Pm10 Lc","43.016667","-87.933333","MILWAUKEE","","COMMERCIAL","","HEALTH CENTER","meanRos_ug_m3","No","No Trend","Wisconsin","Milwaukee","Urban And Center City","MILWAUKEE - SIXTEENTH ST. HEALTH CENTER","No","Arsenic","","","","","","0.000927291007214758","0.000772907238118428","0.00112239410567458","0.000802532145983226","","0.0007656360039568","0.000966260418689488","0.000927430472052085","0.00107494948050562"
"04-013-9997","Arsenic Pm10 Lc","33.503833","-112.095767","Phoenix","Phoenix, AZ","RESIDENTIAL","Urban","UATMP: PXSS; NATTS: Phoenix, AZ; IMPROVE: PHOE1","meanRos_ug_m3","No","No Trend","Arizona","Phoenix","Urban And Center City","JLG SUPERSITE","Yes","Arsenic","","","","0.000620527158978776","0.00071238853742512","0.000683618812033686","0.000566564231773305","0.000494099131930521","0.00074724105658043","0.000669587271837276","0.000485573770491803","0.000546166666666667","0.000568813559322034","0.000712852459016393"
"06-037-1103","Arsenic Pm10 Lc","34.06659","-118.22688","Los Angeles","Los Angeles, CA","RESIDENTIAL","Urban","UATMP: CELA; NATTS: Los Angeles, CA; MATES: Central Los Angeles","meanRos_ug_m3","No","No Trend","California","Los Angeles","Urban And Center City","Los Angeles-North Main Street","Yes","Arsenic","","","","","0.00462240945127217","","0.000841276219930927","0.000475178571428571","0.000695737147785287","0.00106433333333333","0.000488333333333333","0.000481281720959392","0.00050551724137931","0.00043275"
"06-065-8001","Arsenic Pm10 Lc","33.99958","-117.41601","Rubidoux","Rubidoux, CA","RESIDENTIAL","Urban","UATMP: RUCA; NATTS: Rubidoux, CA; MATES: Rubidoux","meanRos_ug_m3","No","No Trend","California","Rubidoux","Suburban","Rubidoux","Yes","Arsenic","","","","","0.00817633816740772","0.000859895549167416","0.000633798027576322","0.000559045400465107","0.000535438105645173","0.000579692307692308","0.00049125","0.00050448275862069","0.000499259259259259","0.000645877192982456"
"06-085-0005","Arsenic Pm10 Lc","37.348497","-121.894898","San Jose","San Jose, CA","COMMERCIAL","Urban","UATMP: SJCA; NATTS: San Jose, CA","meanRos_ug_m3","No","Increasing","California","San Jose","Urban And Center City","San Jose - Jackson","Yes","Arsenic","","","","","","0.000421024066704645","0.000327138265631123","0.000378799166713789","0.000392216416058603","0.000394134067699996","0.000522216067134881","0.000448731183826896","0.000515016949152542","0.000453929824561404"
"08-077-0017","Arsenic Pm10 Lc","39.063798","-108.561173","Grand Junction","Grand Junction, CO-17","COMMERCIAL","Urban","UATMP: GPCO; NATTS: Grand Junction, CO","meanRos_ug_m3","No","Decreasing","Colorado","Grand Junction","Urban And Center City","GRAND JUNCTION - POWELL BLDG","Yes","Arsenic","","","","","","","","0.00123932203389831","0.000599771514175718","0.000523333333333333","0.000354096217486009","0.000287320690003522","0.000278622807017544","0.000316433333333333"
"11-001-0043","Arsenic Pm10 Lc","38.921847","-77.013178","Washington","Washington, DC","COMMERCIAL","Urban","UATMP: WADC; NATTS: Washington, D.C.","meanRos_ug_m3","Yes","Increasing","District Of Columbia","Washington","Urban And Center City","MCMILLAN  NCore-PAMS","Yes","Arsenic","","0.000681092085012675","0.000665296465095034","0.000560374009544389","0.000710959697293686","0.000675532949058754","0.000792511855399667","0.000714944838093229","0.000672450894688609","0.000808680748808677","0.000719537748699867","0.000678091047393238","0.000802229474539984","0.000775714999715655"
"12-057-3002","Arsenic Pm10 Lc","27.96565","-82.2304","Plant City","Tampa, FL","RESIDENTIAL","Urban","UATMP: SYFL; NATTS: Tampa, FL","meanRos_ug_m3","Yes","No Trend","Florida","Valrico","Rural","SYDNEY","Yes","Arsenic","","0.00133551433758337","0.00164341086324407","0.00101296655697157","0.00111615072402389","0.00128212170598057","0.00120536491294875","0.000937749311761666","0.000971460946346675","0.00123770786039695","0.000938243353603979","0.00131022727492535","0.00118433333333333","0.00127536885245902"
"12-103-0026","Arsenic Pm10 Lc","27.850348","-82.714465","Pinellas Park","Pinellas County, FL","RESIDENTIAL","Urban","UATMP: SKFL; NATTS: Pinellas County, FL","meanRos_ug_m3","Yes","No Trend","Florida","Pinellas Park","Suburban","Skyview","Yes","Arsenic","","","0.0014882129431921","0.00125826534482535","0.00109687853159651","0.0015050980651386","0.00190983874619636","0.0019652015707307","0.001403940966631","0.00271399459480535","0.00141870907395521","0.00188670986486129","0.0015670420688275","0.00178822998614587"
"13-089-0002","Arsenic Pm10 Lc","33.68808","-84.29018","Decatur","Atlanta, GA","RESIDENTIAL","Urban","UATMP: SDGA; NATTS: South DeKalb, GA; PAMS: South DeKalb; IMPROVE: ATLA1","meanRos_ug_m3","Yes","No Trend","Georgia","Not in a city","Suburban","South DeKalb","Yes","Arsenic","","0.000545242391074116","0.000715610029952668","0.000842344407638881","0.000681237558525687","0.000517814513590817","0.000532181228706098","0.000591202308449986","0.00057874944891727","0.000505308044147487","","0.000963774259887553","0.000752457661378326","0.00058078620927635"
"17-031-4201","Arsenic Pm10 Lc","42.139996","-87.799227","Northbrook","Chicago, IL","RESIDENTIAL","Urban","UATMP: NBIL; NATTS: Chicago, IL","meanRos_ug_m3","Yes","No Trend","Illinois","Northbrook","Suburban","NORTHBROOK WATER PLANT","Yes","Arsenic","","","0.000715186514689043","0.000872278017502267","0.000876232991388534","0.000762600248921474","0.000749910761577917","0.000772101186517829","0.000742259251872299","0.000740025253081387","0.000632121142668284","0.000679026385567041","0.000954410297513048","0.000886682710546597"
"21-193-0003","Arsenic Pm10 Lc","37.28329","-83.20932","Hazard/Grayson, KY","Hazard/Grayson, KY","RESIDENTIAL","Rural","UATMP: HAKY; NATTS: Hazard, KY","meanRos_ug_m3","Yes","Decreasing","Kentucky","Hazard/Grayson, KY","Suburban","Hazard/Grayson, KY","Yes","Arsenic","0.00169165982185048","0.00114688087511435","0.00162499642501048","0.0013213168702429","0.00145179365339758","","0.000485691912262707","0.00063617888972691","0.000499187498707622","0.000594179616347648","0.00049254969376853","0.000399098759261449","0.000557961714510578","0.000537492892304571"
"25-025-0042","Arsenic Pm10 Lc","42.3295","-71.0826","Boston","Roxbury, MA","COMMERCIAL","Urban","UATMP: BOMA; NATTS: Roxbury, MA","meanRos_ug_m3","Yes","No Trend","Massachusetts","Boston","Urban And Center City","DUDLEY SQUARE ROXBURY","Yes","Arsenic","","","0.000521027760529007","0.000572311479877197","0.00048335132422404","0.000635063838979388","0.000500761033694632","0.000369264623731583","0.000445586545927212","0.000529898145887132","0.000475024590163934","0.000392163068153593","0.0005121","0.000482741379310345"
"26-163-0033","Arsenic Pm10 Lc","42.306674","-83.148754","Dearborn","Detroit, MI","INDUSTRIAL","Urban","UATMP: DEMI; NATTS: Detroit, MI; PILOT CITY: Dearborn","meanRos_ug_m3","Yes","Decreasing","Michigan","Dearborn","Suburban","PROPERTY OWNED BY DEARBORN PUBLIC SCHOOLS","Yes","Arsenic","0.0025371103975916","0.00299501516638976","0.00212735924230696","0.00197412130688892","0.00191322055504911","0.00167850545095447","0.00138316999261839","0.00159910279824449","0.00129814807422115","0.00146905905817125","0.00139564378222353","0.00172248056680729","0.00188963430776119","0.0016328405426418"
"29-510-0085","Arsenic Pm10 Lc","38.656429","-90.198348","SAINT LOUIS","St. Louis, MO","RESIDENTIAL","Urban","UATMP: S4MO; NATTS: St. Louis, MO","meanRos_ug_m3","Yes","Decreasing","Missouri","St. Louis","Urban And Center City","Blair Street","Yes","Arsenic","","0.00170375990140403","0.00233551102090243","0.00107379071120868","0.00188817646444694","0.000977118630111053","0.00160691304509091","0.00104171257235401","0.00088450202429672","0.00108024590163934","0.000726065573770492","0.000909590163934426","0.0008864","0.000898811475409836"
"36-005-0110","Arsenic Pm10 Lc","40.816","-73.902","Bronx, NY","Bronx, NY","RESIDENTIAL","Urban","UATMP: BXNY; NATTS: Bronx (#1), NY; PM Supersite: Bronx; IMPROVE: NEYO1","meanRos_ug_m3","No","No Trend","New York","Bronx, NY","Urban And Center City","Bronx, NY","Yes","Arsenic","","","","","0.000593511480992613","0.000861428333333333","0.000790769754098361","","0.000712248965517241","","0.000632264754098361","0.000418436129032258","0.00059683637075","0.00050035078125"
"36-055-1007","Arsenic Pm10 Lc","43.14618","-77.54817","Rochester","Rochester, NY","RESIDENTIAL","Urban","UATMP: ROCH; NATTS: Rochester, NY; NADP: NY43","meanRos_ug_m3","No","No Trend","New York","Rochester","Urban And Center City","ROCHESTER 2","Yes","Arsenic","","","","","0.000639415494707681","0.000857762745098039","0.000714551754385965","0.000759227413793103","0.000684988703703704","0.000665113958333333","0.000757048214285714","0.000479452203389831","0.000710048882321429","0.000553746296296296"
"41-051-0246","Arsenic Pm10 Lc","45.56137","-122.6679","Portland","Portland, OR","RESIDENTIAL","Urban","UATMP: PLOR; NATTS: Portland, OR","meanRos_ug_m3","Yes","Decreasing","Oregon","Portland","Urban And Center City","WEST END OF ATHLETIC FIELD WITH N EMERSON N, N ROSELAWN S, N WILLIAM","Yes","Arsenic","","0.00178138223500581","0.00174953479864949","0.00145574866792118","0.0014709830323466","0.00105538045054112","0.000920430384408689","0.000781295850971821","0.000934897429812878","0.00100081896551724","0.0010309435483871","0.0007189","0.000912076271186441",""
"41-061-0119","Arsenic Pm10 Lc","45.339","-118.095206","La Grande","La Grande, OR","RESIDENTIAL","Rural","UATMP: LAOR; NATTS: La Grande, OR","meanRos_ug_m3","Yes","No Trend","Oregon","La Grande","Urban And Center City","LA GRANDE ASH STREET","Yes","Arsenic","","0.000350574177349091","0.000336249247739992","0.000235489902459965","0.000197495749450523","0.000212185285564294","0.000145278236687578","0.000137634826974765","0.00016605234631683","0.000186810344827586","0.000220693548387097","0.000249833333333333","0.000214283333333333","0.000158416666666667"
"44-007-0022","Arsenic Pm10 Lc","41.807776","-71.415105","Providence","Providence, RI","RESIDENTIAL","Urban","UATMP: PRRI; NATTS: Providence, RI; PILOT CITY: Urban League","meanRos_ug_m3","No","No Trend","Rhode Island","Providence","Urban And Center City","Urban League BUILDING ROOFTOP","Yes","Arsenic","","","","","","0.000536487288494827","0.00125124133521777","0.000482581160575316","0.000370698856663371","0.00044500673097271","0.00051050444938502","0.000498675105890777","0.000575616092142728","0.000408923128350777"
"45-025-0001","Arsenic Pm10 Lc","34.615367","-80.198789","MCBEE","Chesterfield, SC","FOREST","Rural","UATMP: CHSC; NATTS: Chesterfield, SC","meanRos_ug_m3","Yes","No Trend","South Carolina","Not in a city","Rural","CHESTERFIELD","Yes","Arsenic","","0.000640433109571642","0.000654118372740312","0.000635494063312793","0.000665583413303924","0.000713161016949153","0.00077950213137632","0.00171621282750443","0.000380483333333333","0.000371853448275862","0.000849449152862622","0.000491705357142857","0.000331660714285714","0.000493075"
"48-201-1039","Arsenic Pm10 Lc","29.670025","-95.128508","Deer Park","Houston, TX","RESIDENTIAL","Urban","UATMP: CAMS 35; NATTS: Houston, TX; IMPROVE: HOUS1","meanRos_ug_m3","Yes","No Trend","Texas","Deer Park","Urban And Center City","Houston Deer Park #2","Yes","Arsenic","0.0115679725534782","0.00548780648119461","0.00134010119472763","0.00128987791522862","0.00173290983062279","0.00143788867001271","0.00116958224559566","0.0011519345963825","0.000977146752772203","0.00130719294121899","0.00139162429353077","0.0014824902692006","0.00143651141854165","0.00124371842307553"
"48-203-0002","Arsenic Pm10 Lc","32.668987","-94.167457","Not In A City","Karnack, TX","AGRICULTURAL","Rural","UATMP: CAMS 85; NATTS: Karnack, TX","meanRos_ug_m3","Yes","No Trend","Texas","Not in a city","Rural","Karnack","Yes","Arsenic","","0.000591267239710339","0.000551418063030498","0.000627505037017741","0.000581922990597429","0.000596019360735896","0.000723751311821142","0.000586500105755999","0.000506386901156032","0.000674142773331323","0.000411422976180693","0.000503209485710467","0.000593143647087775","0.000487363883996654"
"49-011-0004","Arsenic Pm10 Lc","40.902967","-111.884467","Bountiful","Bountiful, UT","RESIDENTIAL","Urban","UATMP: BTUT; NATTS: Bountiful, UT","meanRos_ug_m3","Yes","No Trend","Utah","Bountiful","Suburban","Bountiful Viewmont","Yes","Arsenic","","0.00257465422939557","0.000870551367968572","0.000648424802601183","0.000969464938220678","0.000606095900030477","0.00104085819855798","0.000555795173850443","0.000539775074496891","0.000429299053929326","0.000913795725291749","0.000708645697182075","0.000632099421583797","0.000701032292574935"
"50-007-0007","Arsenic Pm10 Lc","44.52839","-72.86884","Underhill","Underhill, VT","FOREST","Rural","UATMP: UNVT; NATTS: Underhill, VT; IMPROVE:PMRF1; NADP: VT99","meanRos_ug_m3","Yes","No Trend","Vermont","Underhill (Town of)","Rural","PROCTOR MAPLE RESEARCH CTR","Yes","Arsenic","","0.00033398275862069","0.000279932203389831","0.000239293103448276","0.00026487037037037","0.000244661016949153","0.000237833333333333","0.000212086802004986","0.000253971533954249","0.00025155485361511","0.000286858757511787","0.000214426636403187","0.000303440476190476","0.000252532786885246"
"51-087-0014","Arsenic Pm10 Lc","37.55652","-77.40027","NOT IN A CITY","Richmond, VA","RESIDENTIAL","Urban","UATMP: RIVA; NATTS: Richmond, VA","meanRos_ug_m3","No","No Trend","Virginia","East Highland Park","Suburban","MathScience Innovation Center","Yes","Arsenic","","","","","","","0.000730183333333333","0.000744426229508197","0.000715540847457627","0.000843666666666667","0.000739166666666667","0.000647966101694915","0.000836440677966102","0.000829406779661017"
"53-033-0080","Arsenic Pm10 Lc","47.568236","-122.308628","Seattle","Seattle, WA","RESIDENTIAL","Urban","UATMP: SEWA; NATTS: Seattle, WA; IMPROVE: PUSO1; PILOT CITY: Beacon Hill","meanRos_ug_m3","Yes","Decreasing","Washington","Seattle","Urban And Center City","SEATTLE - BEACON HILL","Yes","Arsenic","0.000737762667400111","0.00104971848806493","0.0010692079588324","","0.000796449446457093","0.000728413402745002","0.000743594880768769","0.000608316464118515","0.000696912035447051","0.000702423872673588","0.000786333333333333","0.0005988","0.000771431034482759","0.000596068965517241"
"55-027-0001","Arsenic Pm10 Lc","43.466111","-88.621111","Mayville/Horicon, WI","Mayville/Horicon, WI","AGRICULTURAL","Rural","UATMP: HOWI; NATTS: Horicon, Wi; Horicon Wildlife Area; NADP: WI07","meanRos_ug_m3","Yes","No Trend","Wisconsin","Mayville/Horicon, WI","Rural","Mayville/Horicon, WI","Yes","Arsenic","","","0.000828258111288198","0.000774365930528478","0.000651939103027407","0.00061073122155444","0.000550230866411915","0.000587201949801657","0.000590091136813413","0.000546644876087621","0.000598287575378605","0.000563168922161248","0.000682556605115298","0.000601622836909355"
