"site_id","parameter_desc","latitude","longitude","city_name","location","land_use_type","setting","site_name","stat","used_in_nat_agg","trend","state_name","city_name","location_setting","local_site_name","natts","toxic_name_alias","2003","2004","2005","2006","2007","2008","2009","2010","2011","2012","2013","2014","2015","2016","2017","2018","2019","2020"
"01-073-5502","Chloroform","33.5447998046875","-86.8238983154297","BIRMINGHAM","","COMMERCIAL","","Lewis Elementary School","meanRos_ug_m3","No","Undetermined","Alabama","Birmingham","Urban And Center City","Lewis Elementary School","No","Chloroform","","","","","","","","","","0.122118915318139","","","","","","","",""
"01-073-5503","Chloroform","33.5684013366699","-86.8029022216797","BIRMINGHAM","","COMMERCIAL","","Riggins School","meanRos_ug_m3","No","Undetermined","Alabama","Birmingham","Urban And Center City","Riggins School","No","Chloroform","","","","","","","","","","0.115480334725194","","","","","","","",""
"01-073-5505","Chloroform","33.5566329956055","-86.8054656982422","Birmingham","","RESIDENTIAL","","Hudson K-8","meanRos_ug_m3","No","Undetermined","Alabama","Birmingham","Urban And Center City","Hudson K-8","No","Chloroform","","","","","","","","","","0.125859155691422","","","","","","","",""
"01-073-6004","Chloroform","33.5652770996094","-86.79638671875","BIRMINGHAM","","RESIDENTIAL","","UATMP: SIAL; Sloss Industries","meanRos_ug_m3","No","Undetermined","Alabama","Birmingham","Urban And Center City","Sloss Shuttlesworth","No","Chloroform","","","","","","","","","","0.149208084242255","","","","","","","",""
"02-020-0018","Chloroform","61.2058601379395","-149.824600219727","ANCHORAGE","","RESIDENTIAL","","UATMP: ANAK","meanRos_ug_m3","No","Undetermined","Alaska","Anchorage","Suburban","GARDEN/TRINITY CHRISTIAN CHURCH","No","Chloroform","","","","","","","0.127414056658745","","","","0.108166692209248","","","","","","",""
"04-013-4003","Chloroform","33.4031600952148","-112.075332641602","Phoenix","","RESIDENTIAL","","UATMP: SPAZ","meanRos_ug_m3","Yes","No Trend","Arizona","Phoenix","Urban And Center City","SOUTH PHOENIX","No","Chloroform","0.114253530824148","0.294524894660223","0.312513875829348","","","0.250140618918271","0.25288279230396","0.235983560224526","0.186312613582007","0.166609844001432","0.188496022423102","0.174069190273682","0.1812557594385","0.205093983921313","0.214563083545915","0.2104250762997","0.193974851071835","0.258319762204924"
"04-013-4009","Chloroform","33.406421661377","-112.144340515137","Phoenix","","INDUSTRIAL","","UATMP: MCAZ","meanRos_ug_m3","No","Undetermined","Arizona","Phoenix","Urban And Center City","WEST 43RD AVENUE","No","Chloroform","0.0948088016207891","","","","","","","","","","","","","","","","",""
"04-021-8001","Chloroform","33.2934646606445","-111.285591125488","QUEEN VALLEY","","DESERT","","UATMP: QVAZ, IMPROVE: QUVA1","meanRos_ug_m3","No","Undetermined","Arizona","Queen Valley","Rural","QUEEN VALLEY","No","Chloroform","","0.132233376495233","0.0297412747516376","","","","","","","","","","","","","","",""
"06-001-0006","Chloroform","37.7102279663086","-122.116897583008","San Leandro","","RESIDENTIAL","","San Leandro","meanRos_ug_m3","No","No Trend","California","Castro Valley","Suburban","San Leandro","No","Chloroform","0.44228066907058","0.239590964802209","0.105546365475648","0.115825613626606","0.080734800588758","","","","","","","","","","","","",""
"06-001-0007","Chloroform","37.6875267028809","-121.784217834473","LIVERMORE","","COMMERCIAL","","REPLACES OLD SITE 06-001-0003 THAT WAS LOCATED AT 2614 OLD 1ST. ST.","meanRos_ug_m3","Yes","No Trend","California","Livermore","Urban And Center City","Livermore","No","Chloroform","0.112412213100617","0.0863783184708112","0.100681810390139","0.101017679529933","0.0668208231400811","0.0847140925434889","0.10682870263256","0.0942403814745582","0.0990430828183889","0.158302998824723","0.186770900127549","0.158757571680135","0.14587745046198","0.129607742480827","0.138198553774371","","0.0710461551928185","0.116480474284696"
"06-001-0008","Chloroform","37.8171195983887","-122.280456542969","OAKLAND","","RESIDENTIAL","","OAKLAND FILBERT ST","meanRos_ug_m3","No","No Trend","California","Oakland","Urban And Center City","Oakland - Filbert St.","No","Chloroform","0.139969855895948","0.106771919306355","0.107430321973572","0.114326620172425","","0.0823194168097354","","","","","","","","","","","",""
"06-001-0009","Chloroform","37.7430648803711","-122.169937133789","Oakland","","RESIDENTIAL","","Oakland East","meanRos_ug_m3","No","No Trend","California","Oakland","Urban And Center City","Oakland","No","Chloroform","","","","","","0.0714605505102572","0.0781641083607393","0.0905767178483912","0.114949656229827","0.249885250700925","0.238791250323388","0.170011433563027","0.209743598600229","0.158081921619792","0.159979116060254","0.114188307418628","0.0920933068527981","0.124007484909223"
"06-001-0011","Chloroform","37.8147811889648","-122.282348632813","OAKLAND","","RESIDENTIAL","","Oakland-West","meanRos_ug_m3","No","No Trend","California","Oakland","Urban And Center City","Oakland West","No","Chloroform","","","","","","","","0.0908207573814855","0.108598467270481","0.222016728682493","0.207508139614577","0.155276313640667","0.179102115084728","0.154621273667631","0.16063820987144","0.0890425226254327","0.0820583393574979","0.0906078584862979"
"06-001-0012","Chloroform","37.7936248779297","-122.263374328613","Oakland","","COMMERCIAL","","Laney College","meanRos_ug_m3","No","No Trend","California","Oakland","Urban And Center City","Laney College","No","Chloroform","","","","","","","","","","","","0.123465305566678","0.140620990683931","0.129247354122915","0.137390258270375","0.0774409441730037","0.0956197166208381","0.0872235401507247"
"06-001-0013","Chloroform","37.8647651672363","-122.302742004395","Not in a City","","COMMERCIAL","","Berkeley Aquatic Park","meanRos_ug_m3","No","Undetermined","California","Not in a city","Urban And Center City","Berkeley- Aquatic Park","No","Chloroform","","","","","","","","","","","","","","","0.120240333334714","0.0871806372636039","0.0686333825821776","0.077202355709146"
"06-001-0015","Chloroform","37.7012214660645","-121.903022766113","Pleasanton","","RESIDENTIAL","","Pleasanton - Owens Ct","meanRos_ug_m3","No","Undetermined","California","Pleasanton","Suburban","Pleasanton - Owens Ct","No","Chloroform","","","","","","","","","","","","","","","","","0.0987803967025493","0.0952943086681946"
"06-001-1001","Chloroform","37.535831451416","-121.961822509766","Fremont","","RESIDENTIAL","","Fremont - Chapel Way","meanRos_ug_m3","No","No Trend","California","Fremont","Suburban","Fremont - Chapel Way","No","Chloroform","0.165916260626635","0.116693202965058","0.138806990232717","0.127699874482497","0.122282750025171","0.138223652132118","0.106553680078378","","","","","","","","","","",""
"06-001-2004","Chloroform","37.8777923583984","-122.301292419434","Berkeley","","COMMERCIAL","","Berkeley 6th and Camelia","meanRos_ug_m3","No","Undetermined","California","Berkeley","Urban And Center City","Berkeley","No","Chloroform","","","","","","0.0846299218400105","0.100718596644732","0.0957598468206684","","","","","","","","","",""
"06-007-0002","Chloroform","39.7573699951172","-121.843284606934","Chico","","COMMERCIAL","","468 MANZANITA AVE, CHICO","meanRos_ug_m3","No","No Trend","California","Not in a city","Suburban","Chico-Manzanita Ave.","No","Chloroform","0.134828492344268","0.14594579274695","0.127888889234402","0.114642528081146","0.129458268703172","0.131915168683174","0.12489407039587","0.134499912022005","0.142803669890049","","","","","","","","",""
"06-007-0008","Chloroform","39.7615394592285","-121.841621398926","Chico","","COMMERCIAL","","Chico - East Avenue","meanRos_ug_m3","No","No Trend","California","Chico","Suburban","Chico-East Avenue","No","Chloroform","","","","","","","","","","","0.133810495400188","0.150194169894201","0.181496724734704","0.172974992821832","","0.15639635047551","0.158679381658158",""
"06-013-0002","Chloroform","37.9360122680664","-122.026153564453","CONCORD","","RESIDENTIAL","","Concord","meanRos_ug_m3","Yes","Increasing","California","Concord","Suburban","Concord","No","Chloroform","0.156902637542947","0.0975883306222998","0.152501924981801","0.100256988371114","0.0717893123856188","0.0932706675385718","0.103784473324616","0.097797250457926","0.104202295503309","0.161917502680788","0.219241336376132","0.174345504742371","0.183098745594422","0.145708761804621","0.168459591946376","0.10395960987505","0.201038864798421","0.152778493695384"
"06-013-0006","Chloroform","37.9481735229492","-122.364852905273","Richmond","","INDUSTRIAL","","Richmond - 7th St","meanRos_ug_m3","Yes","No Trend","California","Richmond","Urban And Center City","Richmond - 7th St.","No","Chloroform","0.117778244615078","0.0774297237727919","0.106187475455525","0.239946322018024","","0.0729132190729644","0.0935827024994205","0.0921685757569991","0.105740017268037","0.185465847109926","0.202150615320636","0.140006028843557","0.148460637667265","0.109795728354346","0.109461846316115","","0.0780569024377283",""
"06-013-1001","Chloroform","38.0549201965332","-122.23323059082","CROCKETT","","INDUSTRIAL","","Crockett - Kendall Ave","meanRos_ug_m3","Yes","No Trend","California","Crockett","Suburban","Crockett - Kendall Ave","No","Chloroform","0.103239966056935","0.0673429941573728","","0.0881072955286869","","0.0724984916884008","0.0915507223514428","0.0954326797674076","0.116199891533582","0.138816716604026","0.143696652417513","0.0957556388802378","0.114422430728182","0.212568404845827","0.128339670552312","","0.0734486640481153",""
"06-013-1002","Chloroform","38.0063095092773","-121.641914367676","BETHEL ISLAND","","AGRICULTURAL","","Bethel Island","meanRos_ug_m3","No","Increasing","California","Bethel Island","Rural","Bethel Island","No","Chloroform","0.0915735100912294","","0.0881510418287166","0.0840080902211474","","0.076538095283407","0.105362470417539","0.0873826966208374","0.0846474819536741","0.119626119489379","","0.119420880745847","0.127522103822687","0.109556196788194","0.0979080884030109","","",""
"06-013-1004","Chloroform","37.9603996276855","-122.356811523438","SAN PABLO","","COMMERCIAL","","SAN PABLO RUMRILL","meanRos_ug_m3","Yes","No Trend","California","San Pablo","Urban And Center City","San Pablo","No","Chloroform","0.117952416231308","0.0940563892793615","0.0986172512663412","0.095190919360822","0.0629342464949267","0.0735405132687572","","","0.0952532332776773","0.171837618683505","0.170588333727866","0.133938721925613","0.134251651845205","0.121390038495972","0.114840761290295","","0.0918253326956753",""
"06-013-2001","Chloroform","38.0128173828125","-122.134468078613","MARTINEZ","","RESIDENTIAL","","Martinez - Jones St.","meanRos_ug_m3","Yes","No Trend","California","Martinez","Urban And Center City","Martinez - Jones St.","No","Chloroform","0.0999093756766871","","0.0951658216056674","0.0894152894655631","","0.0813821463695627","0.108082606424025","0.0634446711514798","0.0827393148400193","0.13947687672704","0.117760914327642","0.100627105759329","0.117535415135826","0.0992556125571072","0.0993381682717633","","0.066411842148266",""
"06-013-3001","Chloroform","38.0292587280273","-121.896865844727","PITTSBURG","","RESIDENTIAL","","Pittsburg - W 10th St.","meanRos_ug_m3","No","Undetermined","California","Pittsburg","Urban And Center City","Pittsburg - W 10th St.","No","Chloroform","0.126892405197622","0.0981678856084918","0.138073909432155","0.0990103071926867","","","","","","","","","","","","","",""
"06-019-0008","Chloroform","36.7813339233398","-119.773193359375","Fresno","","RESIDENTIAL","","PM Supersite: Fresno","meanRos_ug_m3","No","No Trend","California","Fresno","Suburban","3425 N FIRST ST, FRESNO","No","Chloroform","0.163968079209844","0.125425526872797","0.141199574791711","0.135649850468404","0.133709363154576","0.155276138813682","0.135965805182626","0.140588670739059","0.148908512682226","","","","","","","","",""
"06-019-0011","Chloroform","36.7853202819824","-119.77417755127","Fresno","","COMMERCIAL","","Fresno - Garland","meanRos_ug_m3","No","No Trend","California","Fresno","Urban And Center City","Fresno - Garland","No","Chloroform","","","","","","","","","","0.14408635845657","0.168773535583187","0.179322950411272","0.190730941295624","0.19813281144113","0.187893725030626","0.173392284858988","0.164516140518163",""
"06-019-3002","Chloroform","36.6071701049805","-119.540679931641","PARLIER","","AGRICULTURAL","","PARLIER","meanRos_ug_m3","No","Undetermined","California","Parlier","Urban And Center City","PARLIER","No","Chloroform","","","","0.0920237896518928","","","","","","","","","","","","","",""
"06-025-0005","Chloroform","32.6761856079102","-115.484146118164","Calexico","","RESIDENTIAL","","CALEXICO HIGH SCHOOL  ARB (#1300698)","meanRos_ug_m3","Yes","No Trend","California","Calexico","Suburban","Calexico-Ethel Street","No","Chloroform","0.184493292902788","0.130558578430317","0.157235041454359","0.121757644411404","0.172372773005953","0.145479099672741","0.135105101539454","0.142424859620441","0.155509063571198","0.159395548412333","0.152207825215545","0.182481733951208","0.160439422593393","0.224196142842379","0.165157789744588","0.162203495076546","0.146957354651288",""
"06-029-0014","Chloroform","35.3566017150879","-119.063545227051","Bakersfield","","MOBILE","","Bakersfield-California Avenue","meanRos_ug_m3","Yes","Increasing","California","Bakersfield","Urban And Center City","Bakersfield-California","No","Chloroform","0.174555284177768","0.138922520506323","0.164159193766919","0.162721880667497","0.14719213850488","0.178348240960763","0.165638181575028","0.18770914538616","0.186432550161038","0.199181414237528","0.173452410361041","","0.211132104198138","0.262911958920379","0.242870645777833","0.202516063989731","0.199292387249534",""
"06-037-0002","Chloroform","34.1365013122559","-117.92391204834","Azusa","","RESIDENTIAL","","Azusa","meanRos_ug_m3","Yes","No Trend","California","Azusa","Suburban","Azusa","No","Chloroform","0.232041398029001","0.244654659748279","0.18618797205277","0.134111867912095","0.426913701930224","0.435818562236922","0.130452093792693","0.173712140005539","0.154436798258519","0.151329756166652","0.147762279356991","0.170254611332295","0.191743387736912","0.247166199549552","0.159151418755452","0.159649521502253","0.13180673855598",""
"06-037-1002","Chloroform","34.1760482788086","-118.317123413086","BURBANK","","COMMERCIAL","","MATES: Burbank","meanRos_ug_m3","No","No Trend","California","Burbank","Urban And Center City","Burbank","No","Chloroform","0.331357639359571","0.217412479154903","0.229379255530352","0.246261427463969","0.270129922251255","0.269009395688772","0.269656475132164","0.242168857876597","0.250842344429758","0.254178263393103","0.219350022786274","","","","","","",""
"06-037-1302","Chloroform","33.9013900756836","-118.205001831055","COMPTON","","RESIDENTIAL","","MATES: Compton","meanRos_ug_m3","No","Undetermined","California","Compton","Urban And Center City","Compton","No","Chloroform","","0.149275700799948","0.152660387449116","","","","","","","","","","","","","","",""
"06-037-1601","Chloroform","34.0140686035156","-118.060562133789","Pico Rivera","","COMMERCIAL","","MATES: Pico Rivera","meanRos_ug_m3","No","Undetermined","California","Pico Rivera","Suburban","MATES: Pico Rivera","No","Chloroform","","0.199371062066953","0.22647561755329","","","","","","","","","","","","","","",""
"06-037-4002","Chloroform","33.8237609863281","-118.189208984375","Long Beach","","RESIDENTIAL","","UATMP: LBHCA; MATES: North Long Beach","meanRos_ug_m3","No","No Trend","California","Long Beach","Suburban","Long Beach (North)","No","Chloroform","0.2547549975594","0.158528229227543","0.134601664131311","0.353564781517746","0.322640308766526","0.234226793795824","0.48449322283268","0.301466099217718","0.203900163124005","0.174840811809356","0.140745254861804","","","","","","",""
"06-037-L0HP","Chloroform","33.9832496643066","-118.230697631836","Huntington Park","","","","MATES: Huntington Park","meanRos_ug_m3","No","Undetermined","","Huntington Park","","MATES: Huntington Park","No","Chloroform","","0.156408889762586","","","","","","","","","","","","","","","",""
"06-037-LWLB","Chloroform","33.7924194335938","-118.215896606445","Long Beach","","","","MATES: West Long Beach","meanRos_ug_m3","No","Undetermined","","Long Beach","","MATES: West Long Beach","No","Chloroform","","0.135601735320066","0.136088043196827","0.171581742394794","","","","","","","","","","","","","",""
"06-041-0001","Chloroform","37.9723091125488","-122.520004272461","SAN RAFAEL","","COMMERCIAL","","San Rafael","meanRos_ug_m3","Yes","No Trend","California","San Rafael","Urban And Center City","San Rafael","No","Chloroform","0.0975810530782091","0.0845948404485307","0.0994411483663445","0.0976620167419485","0.101160735285953","0.0949885925748029","0.115508358995844","0.0847286723414332","0.0861200940562412","0.187876860797405","0.160403602218443","0.122607877070202","0.120612231822177","0.121158825685418","0.102809282307612","0.0813592417613246","",""
"06-041-0004","Chloroform","37.8327255249023","-122.527656555176","NOT IN A CITY","","FOREST","","FORT CRONKHITE","meanRos_ug_m3","No","No Trend","California","Not in a city","Rural","Ft. Cronkhite","No","Chloroform","","","","0.101570614631599","","0.0650718271536995","0.094309653780907","0.0860022610017292","0.0744459102771943","0.0920015793418035","0.102416161032185","0.0857598662475516","0.0753649368026797","0.0688956806109423","0.0740112407977467","","",""
"06-055-0003","Chloroform","38.3109436035156","-122.296188354492","NAPA","","COMMERCIAL","","Napa - Jefferson St.","meanRos_ug_m3","No","Increasing","California","Napa","Urban And Center City","Napa","No","Chloroform","0.162269817491555","0.114044261326961","0.132648208345277","0.116813238720141","0.0992784673962278","0.105982030471486","0.159763844699756","0.137997471517132","0.131581996477419","0.294874877269779","0.258689729764715","0.206344164961275","0.181321915758798","0.160939844388063","0.160651085207639","","",""
"06-055-0004","Chloroform","38.2788505554199","-122.275024414063","Napa","","RESIDENTIAL","","Napa Valley College","meanRos_ug_m3","No","Undetermined","California","Napa","Suburban","Napa Valley College","No","Chloroform","","","","","","","","","","","","","","","","","0.0941891130127189","0.0638169853974331"
"06-059-0001","Chloroform","33.8213539123535","-117.914268493652","Anaheim","","RESIDENTIAL","","MATES: Anaheim","meanRos_ug_m3","No","Undetermined","California","Anaheim","Suburban","Anaheim (1010 Harbor Blvd)","No","Chloroform","","0.141301956351571","0.136897447860054","","","","","","","","","","","","","","",""
"06-061-0006","Chloroform","38.7457275390625","-121.266311645508","Roseville","","MOBILE","","Roseville-N Sunrise Blvd","meanRos_ug_m3","Yes","No Trend","California","Roseville","Suburban","Roseville-N Sunrise Ave","No","Chloroform","0.209811647796833","0.160202249179776","0.188968254003693","0.179881108214427","0.171400766074657","0.155655872172033","0.159508156511945","0.16912939711896","0.178786092227505","0.167970509390876","0.189460700240588","0.204310328761737","0.293368755280972","0.26329451847461","0.223388678580523","0.259251364296482","0.178334408253431",""
"06-071-2002","Chloroform","34.1000213623047","-117.492012023926","Fontana","","INDUSTRIAL","","MATES: Inland Valley San Bernardino","meanRos_ug_m3","No","Undetermined","California","Fontana","Suburban","Fontana","No","Chloroform","","0.131088281752564","0.127741217132959","","","","","","","","","","","","","","",""
"06-073-0001","Chloroform","32.6312294006348","-117.059074401855","Chula Vista","","RESIDENTIAL","","Chula Vista","meanRos_ug_m3","Yes","No Trend","California","Chula Vista","Suburban","Chula Vista","No","Chloroform","0.157646459755339","0.141883476185068","0.139086601088894","0.124941067944893","0.12414568060326","0.180744360034549","0.173537893531353","0.137585374681413","0.112616592597042","0.125774595815326","0.117306000350355","0.164670876807231","0.192231491913218","0.199700983610853","0.16308734043561","0.146269516417094","0.124133017073431",""
"06-073-0003","Chloroform","32.7911949157715","-116.942092895508","El Cajon","","COMMERCIAL","","El Cajon","meanRos_ug_m3","No","No Trend","California","El Cajon","Suburban","El Cajon","No","Chloroform","0.208387881409709","0.168973741263819","0.160563364294085","0.159111821021993","0.14399465737859","0.171873219774074","0.167214240486442","0.182350734123586","0.154256793226076","0.166618030808603","0.15919960895158","","","","","","",""
"06-073-1002","Chloroform","33.1277122497559","-117.075325012207","ESCONDIDO","","COMMERCIAL","","Escondido","meanRos_ug_m3","No","No Trend","California","Escondido","Urban And Center City","Escondido","No","Chloroform","","","","","","","0.167503784181642","0.159487783479567","0.155201630294323","0.167894115112722","0.179543214621114","0.179893219935112","0.15564189851284","","","","",""
"06-073-1010","Chloroform","32.7014923095703","-117.14965057373","SAN DIEGO","","COMMERCIAL","","Downtown","meanRos_ug_m3","No","No Trend","California","San Diego","Urban And Center City","San Diego - Beardsley Street","No","Chloroform","","","","","","","0.134809429236388","0.101792783586105","0.112230469995397","0.110923881165058","0.123649435528254","0.121951684355736","0.111371791328896","","","","",""
"06-073-1014","Chloroform","32.5793609619141","-116.929489135742","Otay Mesa","","COMMERCIAL","","Donovan","meanRos_ug_m3","No","Undetermined","California","Otay Mesa","Rural","Donovan","No","Chloroform","","","","","","","","","","","","","0.0993305203759403","","","0.122409993774878","0.117737157029971","0.126611606396259"
"06-073-1018","Chloroform","32.8179779052734","-116.968132019043","El Cajon","","COMMERCIAL","","El Cajon - Floyd Smith Drive","meanRos_ug_m3","No","Undetermined","California","El Cajon","Suburban","El Cajon - Floyd Smith Dr.","No","Chloroform","","","","","","","","","","","","","0.229940659133717","","","","",""
"06-073-1022","Chloroform","32.7895622253418","-116.944221496582","El Cajon","","COMMERCIAL","","El Cajon - Lexington Elementary School","meanRos_ug_m3","No","Undetermined","California","El Cajon","Suburban","El Cajon - Lexington Elementary School","No","Chloroform","","","","","","","","","","","","","","","0.188135187824567","0.177118465304375","0.160518561380359",""
"06-073-1026","Chloroform","32.7101783752441","-117.14266204834","SAN DIEGO","","COMMERCIAL","","San Diego - Sherman Elementary School","meanRos_ug_m3","No","Undetermined","California","San Diego","Urban And Center City","San Diego - Sherman Elementary School","No","Chloroform","","","","","","","","","","","","","","","","","","0.147098633440885"
"06-073-2007","Chloroform","32.5521621704102","-116.937774658203","SAN DIEGO","","MOBILE","","Otay Mesa","meanRos_ug_m3","No","No Trend","California","San Diego","Rural","Otay Mesa","No","Chloroform","","","","","","","0.11454161494726","0.0951308648449346","0.115074473982758","0.107742315084438","0.136310219031865","0.126986638475687","","","","","",""
"06-075-0005","Chloroform","37.7659454345703","-122.399040222168","San Francisco","","INDUSTRIAL","","San Francisco - Arkansas St.","meanRos_ug_m3","Yes","No Trend","California","San Francisco","Urban And Center City","San Francisco","No","Chloroform","0.162371953356688","0.112633787348753","0.119442095360441","0.111720339819273","0.0961219741033261","0.076907300423689","0.122499261648281","0.108750311107146","0.110839898414846","0.152387962801408","0.151578681960121","0.134077829816992","0.149878174687425","0.133484284844716","0.138509323970558","0.109629857162323","0.0859974266296105",""
"06-077-1002","Chloroform","37.950740814209","-121.268524169922","Stockton","","RESIDENTIAL","","HAZELTON-HD, STOCKTON","meanRos_ug_m3","Yes","No Trend","California","Stockton","Urban And Center City","Stockton-Hazelton","No","Chloroform","0.145313604569687","0.13690754434044","0.138184290789906","0.117930710682013","0.139867074650898","0.114743980082886","0.125219992308351","0.132270078140577","0.159979466363467","0.143630797662992","0.236217299911036","0.145702499542456","0.169443869590759","0.212945149069832","0.168965753570876","0.136118020434892","0.121175506863631",""
"06-081-1001","Chloroform","37.4829330444336","-122.203369140625","REDWOOD CITY","","INDUSTRIAL","","Redwood City","meanRos_ug_m3","Yes","Increasing","California","Redwood City","Suburban","Redwood City","No","Chloroform","0.1955423541283","0.11401800894207","0.114862750874423","0.124396433666002","0.0860421508668515","0.0942113805657425","0.146004208517489","0.115223461754413","0.123347103388413","0.239119268696884","0.227075121408383","0.247346498519619","0.230085243199608","0.193709152110702","0.185788394666827","0.161871205579756","0.19482012619313","0.259837461972052"
"06-085-0006","Chloroform","37.338134765625","-121.849784851074","San Jose","","MOBILE","","San Jose Knox Ave.","meanRos_ug_m3","No","Undetermined","California","San Jose","Urban And Center City","San Jose - Knox Avenue","No","Chloroform","","","","","","","","","","","","","0.147977012916317","0.130682827198517","0.127881403230789","","0.103394556392241",""
"06-085-2007","Chloroform","37.3554763793945","-122.050842285156","SUNNYVALE","","RESIDENTIAL","","LOCATED NEAR TICONDEROGA & MARY STREETS IN SUNNAYVALE.","meanRos_ug_m3","No","No Trend","California","Sunnyvale","Urban And Center City","Sunnyvale - Ticonderoga","No","Chloroform","0.159522969066605","0.102136575221246","0.114887290148769","0.110482219832943","0.0892815393888614","0.0819270302135434","","","","","","","","","","","",""
"06-085-2008","Chloroform","37.4022445678711","-122.066596984863","MOUNTAIN VIEW","","RESIDENTIAL","","MT VIEW-WHISMAN PARK","meanRos_ug_m3","No","Undetermined","California","Mountain View","Suburban","MT VIEW-WHISMAN PARK","No","Chloroform","","","0.11968096289442","","","","","","","","","","","","","","",""
"06-085-2009","Chloroform","37.3184356689453","-122.069702148438","CUPERTINO","","RESIDENTIAL","","Cupertino Monta Vista","meanRos_ug_m3","No","Undetermined","California","Cupertino","Suburban","Cupertino Monta Vista","No","Chloroform","","","","","","","","","0.0965636659279424","0.179984522755731","0.171811313328755","","","","","","",""
"06-095-0004","Chloroform","38.1025085449219","-122.237976074219","VALLEJO","","COMMERCIAL","","Vallejo - Tuolumne St.","meanRos_ug_m3","Yes","No Trend","California","Vallejo","Urban And Center City","Vallejo","No","Chloroform","0.145350324034703","0.0957818022181572","0.123522671905038","0.0998386602646132","0.0727750245580984","0.0787824768489965","0.100196019266398","0.0910136079550629","0.110203800079092","0.139818247368804","0.20101434036897","0.137231149953358","0.134278950840235","0.117918955555229","0.122053473533663","","0.0993917888375867","0.0856599369660318"
"06-095-0006","Chloroform","38.065601348877","-122.150703430176","Benicia","","RESIDENTIAL","","Benicia - VIP","meanRos_ug_m3","No","Undetermined","California","Benicia","Suburban","Benicia - VIP","No","Chloroform","","","","","","0.060247316054374","","","","","","","","","","","",""
"06-097-0003","Chloroform","38.4435043334961","-122.710166931152","SANTA ROSA","","COMMERCIAL","","Santa Rosa - 5th St","meanRos_ug_m3","No","No Trend","California","Santa Rosa","Urban And Center City","Santa Rosa - 5th St","No","Chloroform","0.103406438794461","0.079198711455026","0.0930026548543148","0.154336319645833","","0.0760989366146496","0.100302949286299","0.0739225757420831","0.0759267426333065","0.160354681293122","0.15030891118176","","","","","","",""
"06-097-0004","Chloroform","38.4037666320801","-122.818290710449","Sebastopol","","COMMERCIAL","","Sebastopol","meanRos_ug_m3","No","Undetermined","California","Sebastopol","Urban And Center City","Sebastopol","No","Chloroform","","","","","","","","","","","","0.113530457765917","0.10522980490581","0.0993764270458617","0.0882778472011238","","",""
"06-111-2002","Chloroform","34.2763633728027","-118.683753967285","Simi Valley","","RESIDENTIAL","","SIMI VALLEY","meanRos_ug_m3","Yes","No Trend","California","Simi Valley","Suburban","Simi Valley-Cochran Street","No","Chloroform","0.226705068897586","0.214157670974277","0.22255368747585","0.175804967913185","0.192181481311149","0.175025217243535","0.15759342700248","0.161214488619142","0.164116347123591","","0.178547592810439","0.194792374251629","0.19489514633027","0.236297720755109","0.18515655555772","0.174951576657834","0.155332472681017",""
"10-001-0002","Chloroform","38.9866714477539","-75.5568008422852","NOT IN A CITY","","AGRICULTURAL","","PROPERTY OF KILLENS POND STATE PARK; BEHIND FARM BUILDINGS","meanRos_ug_m3","No","Undetermined","Delaware","Not in a city","Rural","PROPERTY OF KILLENS POND STATE PARK; BEHIND FARM BUILDINGS","No","Chloroform","0.0848568687373299","0.0699809479698806","0.0713537832234519","","","","","","","","","","","","","","",""
"10-003-1007","Chloroform","39.5513000488281","-75.7320022583008","NOT IN A CITY","","AGRICULTURAL","","PAMS: Lums Pond; NADP: DE99","meanRos_ug_m3","No","Undetermined","Delaware","Not in a city","Rural","Lums Pond","No","Chloroform","0.0913896470105854","0.0853827673364018","0.0914488029242917","","","","","","","","","","","","","","",""
"10-003-1008","Chloroform","39.5776786804199","-75.6035995483398","DELAWARE CITY","","AGRICULTURAL","","Route 9 Delaware City","meanRos_ug_m3","No","No Trend","Delaware","Delaware City","Rural","Route 9 Delaware City","No","Chloroform","0.0995135145192897","0.0892955598288349","0.087809434545965","0.0874487980619637","0.104363059365069","0.105559473942874","0.111696620126927","0.112421647407288","0.0943418471608789","0.0755265607752583","0.0854041925283477","0.072215873439409","0.118829366829466","","","","",""
"10-003-2004","Chloroform","39.739444732666","-75.5580596923828","Wilmington","","COMMERCIAL","","CORNER OF MLK BLVD AND JUSTISON ST, NO TRAFFIC DATA AVAILABLE","meanRos_ug_m3","Yes","No Trend","Delaware","Wilmington","Urban And Center City","MLK  CORNER OF MLK BLVD AND JUSTISON ST","No","Chloroform","0.136840984996023","0.110353223490345","0.120147095779415","0.119757217708333","0.124606296839081","0.122652173036649","0.130667687851494","0.128393335789442","0.0985610401818967","0.100367379340309","0.370255011176037","0.126872441019104","0.140246717190301","","0.133902412373573","0.116830594978806","0.0848070565822129","0.105576150314938"
"10-005-1002","Chloroform","38.6539001464844","-75.6106033325195","Seaford","","RESIDENTIAL","","Seaford Shipley State Service Center","meanRos_ug_m3","No","Undetermined","Delaware","Seaford","Suburban","Seaford Shipley State Service Center","No","Chloroform","0.0916186621445313","0.07697740833839","0.0913041809270548","","","","","","","","","","","","","","",""
"12-011-0010","Chloroform","26.1286106109619","-80.1672210693359","FORT LAUDERDALE","","RESIDENTIAL","","SITE # 28","meanRos_ug_m3","No","No Trend","Florida","Fort Lauderdale","Suburban","Lincoln Park Elementary","No","Chloroform","","","","","","","","0.230079348069353","0.207496044052354","0.192460691098307","0.258068068963883","","0.276505599281302","","","","",""
"12-011-0033","Chloroform","26.0735359191895","-80.3384475708008","Davie","","RESIDENTIAL","","Vista View Park","meanRos_ug_m3","No","Undetermined","Florida","Davie","Suburban","Vista View Park","No","Chloroform","","","","","","","","","","","","","0.239670137672321","","","","",""
"12-011-0034","Chloroform","26.0538883209229","-80.2569427490234","DAVIE","","RESIDENTIAL","","Daniela Banu NCORE","meanRos_ug_m3","No","Undetermined","Florida","Davie","Suburban","Daniela Banu NCORE","No","Chloroform","","","","","","","","","","","","","","","0.18041996809901","0.191221356838942","0.149370274864092","0.161192549234709"
"12-011-1002","Chloroform","26.0831432342529","-80.2375869750977","Davie","","COMMERCIAL","","UATMP: FLFL","meanRos_ug_m3","No","No Trend","Florida","Davie","Suburban","U of F Ag Research Center","No","Chloroform","","0.216769463525952","0.430152495186412","0.0793761372145711","0.239932027986969","0.256455081208231","0.207131070191743","0.147411144646318","0.205102028914047","0.172144078217867","0.247165105104586","","","","","","",""
"12-011-2004","Chloroform","26.2175827026367","-80.1275482177734","Pompano Beach","","COMMERCIAL","","UATMP: FLFL(2)","meanRos_ug_m3","No","No Trend","Florida","Pompano Beach","Suburban","UATMP: FLFL(2)","No","Chloroform","0.404910157088387","0.478917775118601","0.518453328155198","0.0952786446578713","0.297917764245846","","","","","","","","","","","","",""
"12-011-3002","Chloroform","26.0012016296387","-80.1603240966797","Holleywood","","COMMERCIAL","","SITE #18","meanRos_ug_m3","No","Undetermined","Florida","Hollywood","Suburban","SITE #18","No","Chloroform","","0.283805576735086","0.626412843197021","0.12470189317604","0.241342407768123","","","","","","","","","","","","",""
"12-011-5005","Chloroform","26.2941665649414","-80.1763916015625","Coconut Creek","","RESIDENTIAL","","UATMP: CCFL; SITE #30","meanRos_ug_m3","No","No Trend","Florida","Coconut Creek","Suburban","Coconut Creek","No","Chloroform","0.351697253697468","0.312121931596339","0.553836026787301","0.176424467311198","0.312218760838092","0.310847198777153","0.23632509727031","0.193649251685344","0.239009510477384","","","","","","","","",""
"12-011-8002","Chloroform","26.0884208679199","-80.1111907958984","J.U.Lloyd State Park","","RESIDENTIAL","","SITE # 25","meanRos_ug_m3","No","No Trend","Florida","Hollywood","Suburban","Dr. Von Mizell-Eula Johnson State Park (prev. John U Lloyd State Park)","No","Chloroform","","","","","","","","0.201460449703144","0.150766340148213","0.121144170433788","0.171329644893622","","0.1560588009814","","","","",""
"12-057-1065","Chloroform","27.8925228118896","-82.5384292602539","Tampa","","COMMERCIAL","","UATMP: GAFL; NADP: FL18; PILOT CITY: Gandy","meanRos_ug_m3","No","No Trend","Florida","Tampa","Suburban","USMC Reserve Center (Gandy)","No","Chloroform","0.160542645600335","0.141713983947184","0.113669202827905","0.127098363551495","0.117589772662573","0.138371206021735","","","","","","","","","","","",""
"12-057-1075","Chloroform","28.0502967834473","-82.3778686523438","Tampa","","RESIDENTIAL","","UATMP: LEFL; PILOT CITY: Lewis","meanRos_ug_m3","No","Undetermined","Florida","Tampa","Urban And Center City","WHITEWAY DRIVE TAMPA","No","Chloroform","0.200259058337126","","","","","","","","","","","","","","","","",""
"12-073-0012","Chloroform","30.4397220611572","-84.3463897705078","TALLAHASSEE","","COMMERCIAL","","Tallahassee Community College","meanRos_ug_m3","No","No Trend","Florida","Tallahassee","Suburban","Tallahassee Community College","No","Chloroform","","","","","0.0799309990484364","0.0939607610012074","0.233730051567425","0.141532849154638","0.102099788958444","","","","","","","","",""
"12-086-0029","Chloroform","25.5873260498047","-80.3259201049805","CUTLER BAY","","FOREST","","Perdue","meanRos_ug_m3","No","Undetermined","Florida","Cutler Ridge","Rural","Perdue","No","Chloroform","0.219456975331765","0.306896284786153","","","","","","","","","","","","","","","",""
"12-086-0032","Chloroform","25.8758296966553","-80.25830078125","MIAMI","","COMMERCIAL","","","meanRos_ug_m3","No","Undetermined","Florida","Not in a city","Urban And Center City","","No","Chloroform","","0.237868551707542","","","","","","","","","","","","","","","",""
"12-095-2002","Chloroform","28.5963897705078","-81.3625030517578","Winter Park","","COMMERCIAL","","UATMP: ORFL","meanRos_ug_m3","No","No Trend","Florida","Winter Park","Urban And Center City","WINTER PARK","No","Chloroform","","","0.143200122158202","0.229693354646094","0.179256606073874","0.158501207687945","","0.127756057704081","0.128622167667405","0.133769667123334","0.133179520828682","0.148451134954628","","0.137035956978798","","","",""
"12-103-0004","Chloroform","27.9466876983643","-82.7317657470703","Clearwater","","COMMERCIAL","","UATMP: CWFL","meanRos_ug_m3","No","Undetermined","Florida","Clearwater","Suburban","St. Petersburg College","No","Chloroform","0.201022746956955","","","","","","","","","","","","","","","","",""
"12-103-0018","Chloroform","27.7858657836914","-82.739875793457","SAINT PETERSBURG","","RESIDENTIAL","","UATMP: AZFL; PILOT CITY: Azalea Park","meanRos_ug_m3","Yes","No Trend","Florida","Saint Petersburg","Suburban","Azalea Park","No","Chloroform","0.195839276864786","0.145844325545381","0.187606604899932","0.145551670377135","0.129515677562048","0.140157940202072","0.132529092311371","0.130860922321425","0.143125753971885","0.154775177112274","0.274834178117189","0.148473018420893","0.122278845537517","0.154173573387451","0.143159991006056","0.131250763098236","0.12670822466006","0.14556244843536"
"13-021-0012","Chloroform","32.805362701416","-83.5435180664063","Macon","","INDUSTRIAL","","Macon SE","meanRos_ug_m3","No","Undetermined","Georgia","Macon","Rural","Macon-Forestry","No","Chloroform","","","","","","","","","","","","","","0.109682762602338","0.111957113033739","0.172353575749996","",""
"13-051-0021","Chloroform","32.0691833496094","-81.0487442016602","Savannah","","COMMERCIAL","","Savannah-E. President Street","meanRos_ug_m3","No","Increasing","Georgia","Savannah","Suburban","Savannah-E. President","No","Chloroform","","","","","0.0708428850603469","0.0854563448094702","0.0759636358772849","","","","","","","0.103480802338016","0.122363571077585","0.143580582439899","",""
"13-069-0002","Chloroform","31.513126373291","-82.7500076293945","Douglas","","AGRICULTURAL","","General Coffee","meanRos_ug_m3","No","No Trend","Georgia","Not in a city","Rural","General Coffee","No","Chloroform","","0.167873660973663","","","0.149925332775862","0.153128534851857","0.145015006537885","0.140019600902955","","0.254777109355164","0.153531367371168","","","","0.209063808123271","0.198231701339994","",""
"13-089-0003","Chloroform","33.6985511779785","-84.2726669311523","ATLANTA","","COMMERCIAL","","DMRC","meanRos_ug_m3","No","No Trend","Georgia","Atlanta","Suburban","NR-285","No","Chloroform","","","","","","","","","","","","","","0.086317264666976","0.125449401459524","0.140671221470391","0.113205631463561","0.0995814911539481"
"13-115-0004","Chloroform","34.263313293457","-85.1787261962891","Rome","","COMMERCIAL","","","meanRos_ug_m3","No","Undetermined","Georgia","Rome","Urban And Center City","","No","Chloroform","","","","","0.068515847268968","0.0647714885690833","","","","","","","","","","","",""
"13-121-0020","Chloroform","33.7412528991699","-84.5526962280273","Utoy Creek","","INDUSTRIAL","","Utoy Creek","meanRos_ug_m3","No","No Trend","Georgia","Not in a city","Suburban","Utoy Creek","No","Chloroform","","0.282304981064359","0.414802401402345","0.307654477896478","0.27048672980273","0.23213201765165","","","","","","","","","","","",""
"13-139-0003","Chloroform","34.2993316650391","-83.8134078979492","GAINESVILLE","","RESIDENTIAL","","MONITOR LOCATED ON TOP OF SCHOOL","meanRos_ug_m3","No","Undetermined","Georgia","Gainesville","Suburban","Gainesville","No","Chloroform","","","","","","0.0597642650663944","","","","","","","","","","","",""
"13-185-0003","Chloroform","30.8480567932129","-83.2944412231445","VALDOSTA","","COMMERCIAL","","S.L. MASON ELEMENTARY SCHOOL","meanRos_ug_m3","No","Undetermined","Georgia","Valdosta","Suburban","Valdosta","No","Chloroform","","","","","0.0576048203146188","0.070003635754886","","","","","","","","","","","",""
"13-215-5000","Chloroform","32.5032730102539","-84.9420318603516","Columbus","","COMMERCIAL","","","meanRos_ug_m3","No","Undetermined","Georgia","Columbus (Remainder)","Suburban","","No","Chloroform","","","","","","0.0831384523237315","","","","","","","","","","","",""
"13-223-0003","Chloroform","33.9285011291504","-85.0453414916992","Yorkville","","AGRICULTURAL","","PAMS: Yorkville (Near Rockmart)","meanRos_ug_m3","No","Undetermined","Georgia","Not in a city","Rural","Yorkville, King Farm","No","Chloroform","","","","","","","","","","","","","","0.0849533418861726","","","",""
"13-245-0092","Chloroform","33.4323539733887","-81.9913711547852","Augusta","","INDUSTRIAL","","","meanRos_ug_m3","No","Undetermined","Georgia","Augusta-Richmond County (Remainder)","Suburban","","No","Chloroform","","","","","0.0793243026348948","","","","","","","","","","","","",""
"16-069-0006","Chloroform","46.4295616149902","-116.99242401123","Lewiston","","INDUSTRIAL","","","meanRos_ug_m3","No","Undetermined","Idaho","Lewiston","Suburban","","No","Chloroform","","","","0.34359037102415","","","","","","","","","","","","","",""
"16-069-0009","Chloroform","46.4177780151367","-117.018608093262","Lewiston","","COMMERCIAL","","","meanRos_ug_m3","No","Undetermined","Idaho","Lewiston","Urban And Center City","","No","Chloroform","","","","0.225098363629409","","","","","","","","","","","","","",""
"16-069-0012","Chloroform","46.4083518981934","-116.992530822754","Lewiston","","RESIDENTIAL","","SUNSET PARK LOCATION, BETWEEN CITY CENTER AND POTLACH CORP.,","meanRos_ug_m3","No","Undetermined","Idaho","Lewiston","Suburban","Lewiston","No","Chloroform","","","","0.20682031661272","","","","","","","","","","","","","",""
"16-069-0013","Chloroform","46.3972015380859","-116.806198120117","Lapwei","","RESIDENTIAL","","","meanRos_ug_m3","No","Undetermined","Idaho","Not in a city","Rural","","No","Chloroform","","","","0.0948205901996085","","","","","","","","","","","","","",""
"16-069-0222","Chloroform","46.4380874633789","-116.905181884766","NOT IN A CITY","","COMMERCIAL","","","meanRos_ug_m3","No","Undetermined","Idaho","Not in a city","Rural","","No","Chloroform","","","","0.123666616352765","","","","","","","","","","","","","",""
"17-031-3103","Chloroform","41.9651947021484","-87.8762664794922","Schiller Park","","MOBILE","","UATMP: SPIL","meanRos_ug_m3","Yes","No Trend","Illinois","Schiller Park","Suburban","IEPA TRAILER","No","Chloroform","0.210079039821513","","0.10334714952911","0.121922383034349","0.115374777724236","0.153592426721987","0.141437860746487","0.110823328086543","0.0956314730759786","0.101691844043287","0.120806952573287","0.13859163898517","0.123835413510335","0.139612808695127","0.128224117140616","0.142238913154247","0.27510655659144","0.218545764423253"
"17-119-9010","Chloroform","38.8483810424805","-90.076416015625","Roxana","","INDUSTRIAL","","UATMP: ROIL; Phillips 66 Wood River Refinery","meanRos_ug_m3","No","Undetermined","Illinois","Roxana","Suburban","Phillips 66 Wood River Refinery","No","Chloroform","","","","","","","","","","","0.120547823416542","0.120252290734049","","","","","",""
"18-003-0004","Chloroform","41.0949668884277","-85.1018142700195","Fort Wayne","","COMMERCIAL","","Ft. Wayne- Beacon St.","meanRos_ug_m3","No","Undetermined","Indiana","Fort Wayne","Suburban","Ft. Wayne- Beacon St.","No","Chloroform","","","0.0428868837493402","0.0447854933616012","0.0460920149321392","","","","","","","","","","","","",""
"18-019-0009","Chloroform","38.276683807373","-85.7637634277344","CLARKSVILLE","","RESIDENTIAL","","Clarksville","meanRos_ug_m3","No","No Trend","Indiana","Clarksville","Urban And Center City","Clarksville","No","Chloroform","","","","","","0.115452937839759","0.124797457693453","0.293790598069625","0.177040976456931","0.230886374714605","0.173700982906085","0.145306460232588","0.47389807451206","0.147389266007351","0.156790416026788","0.172891720624293","0.157082724937443","0.241825056909505"
"18-039-0003","Chloroform","41.6678276062012","-85.9694442749023","Elkhart","","COMMERCIAL","","SAMPLERS ARE ON THE ROOF ON THE WEST SIDE OF THE SCHOOL","meanRos_ug_m3","No","No Trend","Indiana","Elkhart","Urban And Center City","SAMPLERS ARE ON THE ROOF ON THE WEST SIDE OF THE SCHOOL","No","Chloroform","0.0404981301539612","0.0455164941237697","0.033717357932137","0.0443227773844799","0.0386072166437118","","","","","","","","","","","","",""
"18-081-0003","Chloroform","39.484073638916","-86.0531768798828","Franklin","","RESIDENTIAL","","Franklin- Active Adult Center","meanRos_ug_m3","No","Undetermined","Indiana","Franklin","Suburban","Franklin- Active Adult Center","No","Chloroform","","","","","","","","","","","","","","","","","0.0780201526148404",""
"18-089-0022","Chloroform","41.6066818237305","-87.3047256469727","Gary","","INDUSTRIAL","","UATMP: INDEM","meanRos_ug_m3","Yes","Increasing","Indiana","Gary","Urban And Center City","Gary-IITRI/ 1219.5 meters east of Tennessee St.- old ammuntion bunker","No","Chloroform","0.0429743031847007","","0.0365737297520983","0.0500000331990271","0.0307590359537053","","0.0327831578590189","0.0627148451188261","0.0753109011185079","0.0579641596869432","0.065447009081222","0.0635872995129435","0.0906081003693205","0.0876651138812304","0.0856150607739029","0.0691028071298061","0.0564430439079901","0.0912922401530821"
"18-089-0023","Chloroform","41.6527404785156","-87.4395523071289","East Chicago","","INDUSTRIAL","","East Chicago Water Flitration Plant","meanRos_ug_m3","No","Increasing","Indiana","East Chicago","Urban And Center City","SITE MOVED FROM EAST CHICAGO FIELD SCHOOL","No","Chloroform","0.0463644214488852","0.0354277388558086","0.0383944564254597","0.0474381557732757","0.0512604244844767","0.0304909091726093","0.107231688445114","0.110341942008075","0.142679597671451","0.106113368564326","","","","","","","",""
"18-089-0030","Chloroform","41.6814002990723","-87.4947357177734","WHITING","","RESIDENTIAL","","Whiting- Whiting HS","meanRos_ug_m3","No","Increasing","Indiana","Whiting","Urban And Center City","Whiting- Whiting HS","No","Chloroform","","0.0408844366752407","0.0563271955050269","0.0561892816733426","0.0600666584357445","0.040135152505653","0.0473056493986964","0.0934632557016724","0.104295621904195","0.097095604185615","0.168034225667204","0.154512648888189","0.140475513068614","","","","",""
"18-089-0034","Chloroform","41.6534805297852","-87.4355850219727","East Chicago","","COMMERCIAL","","East Chicago-Marina","meanRos_ug_m3","No","No Trend","Indiana","East Chicago","Urban And Center City","East Chicago-Marina","No","Chloroform","","","","","","","","","","","0.143141835927963","0.109413204747334","0.137554195868533","0.129332749572183","0.129412852227688","0.10686858478239","0.0896481691549222","0.128461836034368"
"18-089-0035","Chloroform","41.6813926696777","-87.490234375","Whiting","","RESIDENTIAL","","Whiting- Center St.","meanRos_ug_m3","No","No Trend","Indiana","Whiting","Urban And Center City","Whiting- Center St.","No","Chloroform","","","","","","","","","","","","","","0.109378290673097","0.119806255933466","0.0894581460851734","0.0736686759313942","0.0864928502846381"
"18-089-2008","Chloroform","41.639461517334","-87.4936218261719","Hammond","","COMMERCIAL","","HAMMOND CAAP- Hammond- 141st St.","meanRos_ug_m3","Yes","Increasing","Indiana","Hammond","Suburban","HAMMOND CAAP- Hammond- 141st St.","No","Chloroform","0.0405269341235933","0.0474951470618141","0.0391960547329619","0.0468970277935836","0.0786133828268091","0.029656434870493","0.0512185021953934","0.095813585909388","0.0956504728325829","0.0856388918584234","0.124671058149123","0.0915207204044565","0.116692953144333","0.0937620219774544","0.101551538712204","0.0896191597616268","0.0912141858962543","0.0990232205239393"
"18-097-0057","Chloroform","39.7490196228027","-86.1863174438477","INDIANAPOLIS","","RESIDENTIAL","","UATMP: ININ","meanRos_ug_m3","No","Undetermined","Indiana","Indianapolis (Remainder)","Urban And Center City","Indpls- Harding St.","No","Chloroform","","","","","0.0813107168769387","0.0781273716276525","","","","","","","","","","","",""
"18-097-0078","Chloroform","39.8110961914063","-86.1144714355469","Indianapolis","","RESIDENTIAL","","UATMP: WPIN","meanRos_ug_m3","Yes","Increasing","Indiana","Indianapolis (Remainder)","Suburban","Indpls- Washington Park/  in parking lot next to police station","No","Chloroform","0.0469860110821161","0.0404885707628418","0.0317082836037532","0.0460919325678218","0.0536035676553973","0.0319132169904879","0.0749179837556031","0.122281300608107","0.115918836817145","0.10798448461539","0.121022381695608","0.110204067940895","0.136919642553518","0.10046790526421","0.106852141132609","0.0934274925804529","0.0872344729180137","0.0997470615367437"
"18-097-0084","Chloroform","39.7588539123535","-86.1154174804688","Indianapolis","","RESIDENTIAL","","Indpls-  School 21/ Florence Fay School 21","meanRos_ug_m3","No","Undetermined","Indiana","Indianapolis (Remainder)","Urban And Center City","Indpls-  School 21/ Florence Fay School 21","No","Chloroform","0.049397551951042","0.0467640721638547","","","","","","","","","","","","","","","",""
"18-097-0085","Chloroform","39.7403831481934","-86.2259521484375","INDIANAPOLIS","","MILITARY RESERVATION","","UATMP: IDIN","meanRos_ug_m3","No","Undetermined","Indiana","Indianapolis (Remainder)","Urban And Center City","Stout Field 2","No","Chloroform","","","","","0.0500682378644787","0.0325948919911727","","","","","","","","","","","",""
"18-097-0087","Chloroform","39.7879333496094","-86.1308822631836","Indianapolis (Remainder)","","RESIDENTIAL","","Indpls.- I 70","meanRos_ug_m3","No","No Trend","Indiana","Indianapolis (Remainder)","Urban And Center City","Indpls.- I 70","No","Chloroform","","","","","","","","","","","","","","0.112562660265852","0.125807349017616","0.0973955141380429","0.0907549494114078","0.0916830462924505"
"18-127-0024","Chloroform","41.6175575256348","-87.1992492675781","NOT IN A CITY","","RESIDENTIAL","","Ogden Dunes- Water Treatment Plant","meanRos_ug_m3","Yes","Increasing","Indiana","Ogden Dunes (Wickliffe)","Suburban","Ogden Dunes- Water Treatment Plant","No","Chloroform","0.0464925322523947","0.0379342408676361","0.037768291000271","0.0505206618052025","0.0485824262587086","0.0401527857601314","0.0910728141052957","0.101338484690531","0.117881625879899","0.102657687279895","0.147522784583271","0.112735558028093","0.139207013537202","0.123983620738561","0.126008199224794","0.135496536666741","0.103298497418391","0.122129583334337"
"18-157-0008","Chloroform","40.431640625","-86.8525009155273","LAFAYETTE","","INDUSTRIAL","","Lafayette- Greenbush St./ Cinergy Substation","meanRos_ug_m3","No","Increasing","Indiana","Lafayette","Suburban","Lafayette- Greenbush St./ Cinergy Substation","No","Chloroform","","","","","","0.0274357466221229","0.0385521770818769","0.0818103908827043","0.0853414897112836","0.0868090509954403","","","","","","","",""
"18-163-0016","Chloroform","37.974437713623","-87.5322875976563","Evansville","","COMMERCIAL","","Evansville- U of E/  University of Evansville-Carson Center","meanRos_ug_m3","Yes","Increasing","Indiana","Evansville","Urban And Center City","Evansville- U of E/  University of Evansville-Carson Center","No","Chloroform","0.0449244881650428","0.0418704559042182","0.0342487059524949","0.0822541568677134","0.0613036524434842","0.0960418843837264","0.104312825148865","0.173724028331693","0.161451378837228","0.148487256326038","0.145853597235359","0.119236612692475","0.188172743051198","0.151765572293749","0.16652605316091","0.141092632723562","0.139031466655433","0.157939084195371"
"18-167-0025","Chloroform","39.5076866149902","-87.3744430541992","Terre Haute","","COMMERCIAL","","Terre Haute-Fort Harrison Rd.","meanRos_ug_m3","No","No Trend","Indiana","Terre Haute","Urban And Center City","Terre Haute-Fort Harrison Rd.","No","Chloroform","","","","","","","","","","","","0.0918741199264647","0.12342594747122","0.115120392706659","0.129841670890649","0.0699721554205049","0.10857478010117","0.0831286157998774"
"19-113-0040","Chloroform","41.9767684936523","-91.6876602172852","CEDAR RAPIDS","","RESIDENTIAL","","Public Health","meanRos_ug_m3","No","Undetermined","Iowa","Cedar Rapids","Urban And Center City","Public Health","No","Chloroform","","","","","","","","","","","","0.18733348736849","0.0877595807693471","","","","",""
"19-153-0030","Chloroform","41.6031608581543","-93.6431198120117","Des Moines","","COMMERCIAL","","UATMP: DMIA","meanRos_ug_m3","No","Undetermined","Iowa","Des Moines","Urban And Center City","CARPENTER","No","Chloroform","","","","","","","","","","","","0.148853582328867","0.0764706138858435","","","","",""
"19-163-0015","Chloroform","41.5300102233887","-90.5876083374023","Davenport","","RESIDENTIAL","","UATMP: DAIA","meanRos_ug_m3","No","Undetermined","Iowa","Davenport","Urban And Center City","DAVENPORT, JEFFERSON SCH.","No","Chloroform","","","","","","","","","","","","0.122695262796932","0.104531395240612","","","","",""
"21-019-0017","Chloroform","38.4593391418457","-82.6404113769531","ASHLAND","","RESIDENTIAL","","UATMP: ASKY","meanRos_ug_m3","No","No Trend","Kentucky","Ashland","Suburban","ASHLAND PRIMARY (FIVCO)","No","Chloroform","","","","","","","","","","0.105153792352421","0.139742630313555","0.144354449662231","0.155998602385322","0.154563750699162","0.150290272744565","0.140337980769832","",""
"21-067-0012","Chloroform","38.0650291442871","-84.4976119995117","LEXINGTON-FAYETTE","","RESIDENTIAL","","UATMP: LEKY","meanRos_ug_m3","No","Undetermined","Kentucky","Lexington-Fayette (corporate name for Lexington)","Suburban","LEXINGTON PRIMARY","No","Chloroform","","","","","","","","","","0.080441087463276","0.108200217701466","0.119569412539191","0.123462865816111","","","","",""
"21-139-0004","Chloroform","37.0715103149414","-88.3338928222656","NOT IN A CITY","","AGRICULTURAL","","UATMP: BLKY","meanRos_ug_m3","No","No Trend","Kentucky","Smithland","Rural","BLOODWORTH","No","Chloroform","","","","","","","","","","0.10372561723661","0.639072575945202","0.200620720741952","0.131004712227947","0.187025454267859","0.198395692760294","0.171227280295359","",""
"21-157-0014","Chloroform","37.0452003479004","-88.3308715820313","GRAND RIVERS","","INDUSTRIAL","","UATMP: TVKY; TVA SUBSTATION","meanRos_ug_m3","No","No Trend","Kentucky","Calvert City (RR name Calvert)","Suburban","TVA SUBSTATION","No","Chloroform","","","","","","","","","","0.555564957001066","0.229433998513379","0.357014993907975","0.278179241344333","0.239914562553167","0.304384201636602","0.65042132687168","",""
"21-157-0016","Chloroform","37.0417594909668","-88.3540725708008","GRAND RIVERS","","INDUSTRIAL","","UATMP: ATKY; ATMOS ENERGY","meanRos_ug_m3","No","No Trend","Kentucky","Calvert City (RR name Calvert)","Suburban","ATMOS ENERGY","No","Chloroform","","","","","","","","","","0.0813698047890154","0.118514057768146","0.147813140029869","0.132893666373682","0.155980038960449","","","",""
"21-157-0018","Chloroform","37.0270195007324","-88.3438720703125","CALVERT CITY","","RESIDENTIAL","","UATMP: CCKY; CALVERT CITY ELEMENTARY","meanRos_ug_m3","No","Undetermined","Kentucky","Calvert City (RR name Calvert)","Suburban","Calvert City Elementary","No","Chloroform","","","","","","","","","","0.083805793446727","0.111543214804515","0.127932175717244","","","","","",""
"21-157-0019","Chloroform","37.037181854248","-88.3341064453125","Calvert City","","RESIDENTIAL","","UATMP: LAKY; Lazy Daz","meanRos_ug_m3","No","Undetermined","Kentucky","Not in a city","Suburban","LAZY DAZ","No","Chloroform","","","","","","","","","","0.110071989264012","0.124839923740911","0.157200406528441","","","","","",""
"22-051-1001","Chloroform","30.04123878479","-90.2728271484375","KENNER","","RESIDENTIAL","","Katrina: KELA","meanRos_ug_m3","No","Undetermined","Louisiana","Kenner","Suburban","Kenner","No","Chloroform","","","","0.0925816728218598","","","","","","","","","","","","","",""
"23-001-0011","Chloroform","44.0894050598145","-70.2142181396484","LEWISTON","","COMMERCIAL","","LEWISTON","meanRos_ug_m3","Yes","Increasing","Maine","Lewiston","Urban And Center City","COUNTRY KITCHEN BAKERY PARKING LOT","No","Chloroform","","","0.113369513415929","","0.0750281453732549","0.0844353271318625","0.110463436619908","0.111034529669018","0.132283452977525","0.118839356277523","0.136419205447584","0.153313427343404","0.142543590002798","0.130727994745061","0.146205696259059","0.155982013608589","0.134818366542459","0.139469748712278"
"23-003-1011","Chloroform","46.682300567627","-68.0161972045898","PRESQUE ISLE","","COMMERCIAL","","RIVERSIDE STREET MONITORING SHELTER","meanRos_ug_m3","No","Increasing","Maine","Presque Isle","Urban And Center City","RIVERSIDE","No","Chloroform","","","","","0.0701452461680675","0.0728480586951429","0.0923429260513297","0.123724590233307","0.184111288771397","0.155460323542357","0.265984079172445","","","0.157212561700079","0.175025224472795","0.190903591678331","0.166098913370535","0.166880252741255"
"23-005-0029","Chloroform","43.6602478027344","-70.2689666748047","PORTLAND","","COMMERCIAL","","PDO - Portland Deering Oaks","meanRos_ug_m3","No","Increasing","Maine","Portland","Urban And Center City","PDO - Portland Deering Oaks","No","Chloroform","","","","","","","0.1095713615576","0.0968053683895489","0.112031019767936","0.116052259784546","0.145457632595398","0.198801360666294","0.143707544984002","0.129158883829389","0.149462556823137","0.160207477382949","0.139237517094026","0.143291228815766"
"23-005-2003","Chloroform","43.5610427856445","-70.2073211669922","Cape Elizabeth","","RESIDENTIAL","","CETL - Cape Elizabeth Two Lights (State Park)","meanRos_ug_m3","No","No Trend","Maine","Not in a city","Rural","CETL - Cape Elizabeth Two Lights (State Park)","No","Chloroform","","","","","","","","","","","","0.139940171812971","0.136153834651817","0.154881710448756","0.147837738550845","0.155042569670412","",""
"23-005-5501","Chloroform","43.6366653442383","-70.2519454956055","","","COMMERCIAL","","","meanRos_ug_m3","No","Undetermined","Maine","South Portland","Urban And Center City","","No","Chloroform","","","","","","","","","","","","","","","","","","0.137993579967455"
"23-005-5502","Chloroform","43.6530570983887","-70.2347259521484","","","COMMERCIAL","","","meanRos_ug_m3","No","Undetermined","Maine","South Portland","Urban And Center City","","No","Chloroform","","","","","","","","","","","","","","","","","","0.129396801620315"
"23-005-5503","Chloroform","43.6227760314941","-70.2683334350586","","","RESIDENTIAL","","","meanRos_ug_m3","No","Undetermined","Maine","South Portland","Suburban","","No","Chloroform","","","","","","","","","","","","","","","","","","0.146686636826448"
"23-005-5504","Chloroform","43.6261100769043","-70.303337097168","","","RESIDENTIAL","","","meanRos_ug_m3","No","Undetermined","Maine","South Portland","Suburban","","No","Chloroform","","","","","","","","","","","","","","","","","","0.145441881187682"
"23-005-5505","Chloroform","43.6377792358398","-70.3180541992188","","","RESIDENTIAL","","","meanRos_ug_m3","No","Undetermined","Maine","South Portland","Suburban","","No","Chloroform","","","","","","","","","","","","","","","","","","0.156827284827355"
"23-005-6606","Chloroform","43.6605567932129","-70.2455520629883","","","COMMERCIAL","","","meanRos_ug_m3","No","Undetermined","Maine","Portland","Urban And Center City","","No","Chloroform","","","","","","","","","","","","","","","","","","0.145644215866923"
"23-005-6607","Chloroform","43.6455574035645","-70.2622222900391","","","COMMERCIAL","","","meanRos_ug_m3","No","Undetermined","Maine","Portland","Urban And Center City","","No","Chloroform","","","","","","","","","","","","","","","","","","0.148449946051607"
"23-017-2011","Chloroform","44.5514183044434","-70.5463180541992","RUMFORD","","INDUSTRIAL","","IN 8 X 8 ECTO SHELTER LOCATED IN PARKING LOT EAST OF RUMFORD AVENUE.","meanRos_ug_m3","Yes","Increasing","Maine","Rumford (census name for Rumford Compact)","Rural","Rumford Avenue Parking Lot (RAP)","No","Chloroform","","0.215356402546167","0.146391715416137","","0.101778431467642","0.12382859816234","0.131306136605041","0.135114011953452","0.156122664394586","0.14093432265007","0.169398874436554","0.184379617635937","0.162184127502971","0.161458939313889","0.184457722393905","0.190269717916113","0.183225388904767","0.184040104039013"
"23-019-0002","Chloroform","44.7988586425781","-68.7696762084961","BANGOR","","COMMERCIAL","","BANGOR","meanRos_ug_m3","No","Increasing","Maine","Bangor","Urban And Center City","KENDUSKEAG PUMP STATION (BUILDING ROOF)","No","Chloroform","","","","","0.0813034821101994","0.0722136165053392","","0.100017748074606","0.121778589052459","0.115809880719896","0.148949455193899","0.134984107050456","0.14658143195239","0.132089226625182","0.146083850251592","0.180900483917106","",""
"23-019-0017","Chloroform","44.8173980712891","-68.7727584838867","Bangor","","RESIDENTIAL","","Mary Snow School","meanRos_ug_m3","No","Undetermined","Maine","Bangor","Urban And Center City","Mary Snow School","No","Chloroform","","","","","","","","","","","","","","","","0.156039346619086","0.128675950249833","0.142223649081533"
"24-003-0019","Chloroform","39.1011123657227","-76.7294464111328","Fort Meade","","COMMERCIAL","","PAMS: Fort Meade","meanRos_ug_m3","No","Undetermined","Maryland","Fort Meade (U.S. Army)","Suburban","FT MEADE LAT/LONG POINT IS OF THE SAMPLING INLET","No","Chloroform","0.117453976877426","0.0955241737376534","","","","","","","","","","","","","","","",""
"24-005-3001","Chloroform","39.3108329772949","-76.4744415283203","Essex","","RESIDENTIAL","","PAMS: Essex","meanRos_ug_m3","Yes","No Trend","Maryland","Essex","Suburban","Essex","No","Chloroform","0.179814735862116","0.167696099348214","0.195755072793023","0.170717347040772","0.177984414185077","0.208421423558398","0.198611133472353","0.185153917262429","0.129389086055161","0.151526692521865","0.143693430960945","0.134551453916582","0.223305299753944","0.245073502425288","0.189685980804631","0.166368014772808","0.200767963685472","0.282265272792423"
"24-027-0006","Chloroform","39.1431312561035","-76.8461074829102","North Laurel","","RESIDENTIAL","","Howard County Near Road","meanRos_ug_m3","No","No Trend","Maryland","North Laurel","Suburban","Howard County Near Road","No","Chloroform","","","","","","","","","","","","0.0739316954899875","0.139039099866638","0.208171591295728","0.157934895147268","0.091642044315849","0.112655449061043","0.0880192501480997"
"24-033-0030","Chloroform","39.0552787780762","-76.8783340454102","BELTSVILLE","","RESIDENTIAL","","HU-Beltsville","meanRos_ug_m3","Yes","No Trend","Maryland","Beltsville","Suburban","HU-Beltsville","No","Chloroform","","","0.112574669077064","0.100309083877471","0.113074849554185","0.116811898291892","0.114254595711827","0.123576823488942","0.0898884244218437","0.0916718296085795","0.0855245358218553","0.0608897462297243","0.136166029688665","0.166959041977989","0.14425334432086","0.109052100841583","0.150233485481135","0.11551615372783"
"24-510-0006","Chloroform","39.3405570983887","-76.5822219848633","Baltimore","","RESIDENTIAL","","Northeast Police","meanRos_ug_m3","No","No Trend","Maryland","Baltimore","Suburban","Northeast Police","No","Chloroform","0.185419570592542","0.154670971011122","0.180428118541323","0.184082774292739","0.192049059633404","0.208720910802202","0.204173141352411","0.168320978470778","0.124415765725619","","","","","","","","",""
"24-510-0040","Chloroform","39.2977333068848","-76.604606628418","Baltimore","","RESIDENTIAL","","Oldtown","meanRos_ug_m3","Yes","No Trend","Maryland","Baltimore","Urban And Center City","Oldtown","No","Chloroform","0.189556767778664","0.158205779243031","0.167397757000099","0.197962478121387","0.187185732556273","0.193889602285917","0.201739767976737","0.179668485108068","0.133639859429302","0.154322602754009","0.15416801546742","0.158449797294114","0.219867758874623","0.275326785086688","0.241616452366791","0.133650819760445","0.148810909127127","0.148819659482674"
"25-009-2006","Chloroform","42.4746437072754","-70.970817565918","Lynn","","COMMERCIAL","","LYNN WATER TREATMENT PLANT","meanRos_ug_m3","Yes","No Trend","Massachusetts","Lynn","Urban And Center City","LYNN WATER TREATMENT PLANT","No","Chloroform","0.103017827116505","0.0981716016928355","0.0917744366784713","0.079021924746965","0.0889874452062077","0.109755899243314","0.100290556667281","0.0811556268971963","0.0922319141262379","0.0894844692821304","0.0932353650219739","0.102841201610863","0.119255239049257","0.115128731385606","0.11269370218118","0.10585413791113","0.0965933678350572","0.100098875335983"
"25-021-2004","Chloroform","42.2458648681641","-70.9627685546875","North Weymouth","","INDUSTRIAL","","","meanRos_ug_m3","No","Undetermined","Massachusetts","Not in a city","Suburban","Weymouth","No","Chloroform","","","","","","","","","","","","","","","","","","0.0944648659696766"
"26-033-0901","Chloroform","46.4936332702637","-84.3642044067383","SAULT STE MARIE","","RESIDENTIAL","","UATMP: ITCMI","meanRos_ug_m3","No","Undetermined","Michigan","Sault Ste. Marie","Rural","NORTH OF EASTERDAY AVE LK SUPERIOR STATE UNIV","No","Chloroform","","","","","","0.0920293160851282","","","","","","","","","","","",""
"26-077-0901","Chloroform","42.2164306640625","-85.5525054931641","Kalamazoo","","INDUSTRIAL","","","meanRos_ug_m3","No","Undetermined","Michigan","Kalamazoo","Suburban","","No","Chloroform","0.113877797999907","","","","","","","","","","","","","","","","",""
"26-081-0020","Chloroform","42.9841728210449","-85.6713409423828","Grand Rapids","","INDUSTRIAL","","Grand Rapids","meanRos_ug_m3","No","Undetermined","Michigan","Grand Rapids","Urban And Center City","GR-MONROE","No","Chloroform","","","","0.636406129804151","","","","","","","","","","","","","",""
"26-111-0953","Chloroform","43.5914154052734","-84.2094345092773","Midland","","INDUSTRIAL","","WOOD PLATFORM","meanRos_ug_m3","No","Undetermined","Michigan","Midland","Rural","WOOD PLATFORM","No","Chloroform","","","","","","","","","","","","","0.110167990636322","0.261530836602666","","","",""
"26-111-0955","Chloroform","43.589469909668","-84.2210998535156","Midland","","INDUSTRIAL","","WOOD PLATFORM","meanRos_ug_m3","No","Decreasing","Michigan","Midland","Rural","WOOD PLATFORM","No","Chloroform","1.40762513590057","","1.31727382198776","","0.924615490067488","","0.869253537468728","1.4649503840113","1.18550352923988","","","1.07439980251334","0.155304282140113","0.418227196390139","0.743106420285907","","",""
"26-111-0959","Chloroform","43.5762138366699","-84.3216094970703","MIDLAND","","AGRICULTURAL","","","meanRos_ug_m3","No","Undetermined","Michigan","Midland","Rural","","No","Chloroform","","","","","","","","","","","","","0.0704809799433125","0.0932370924358676","","","",""
"26-111-0960","Chloroform","43.6000213623047","-84.2001419067383","Midland","","COMMERCIAL","","","meanRos_ug_m3","No","Undetermined","Michigan","Midland","Rural","","No","Chloroform","","","","","","","","","","","","","0.102076576545576","0.138680889068172","","","",""
"26-113-0001","Chloroform","44.3105545043945","-84.8918685913086","NOT IN A CITY","","FOREST","","UATMP: HOMI; PILOT CITY: Houghton Lake","meanRos_ug_m3","No","Undetermined","Michigan","Not in a city","Rural","LOCATED ABOUT 1/4 MILE WEST OF SITE","No","Chloroform","","","0.780265840960691","0.845945484892559","","","","","","","","","","","","","",""
"26-163-0001","Chloroform","42.2286186218262","-83.2081985473633","Allen Park","","COMMERCIAL","","UATMP: APMI; IMPROVE: DETR1; PILOT CITY: Allen Park","meanRos_ug_m3","No","Undetermined","Michigan","Allen Park","Suburban","Allen Park","No","Chloroform","","","0.222328087547154","","","","","","","","","","","","","","",""
"26-163-0015","Chloroform","42.3027877807617","-83.1065292358398","Detroit","","COMMERCIAL","","UATMP: SWMI; PILOT CITY: Southwest HS","meanRos_ug_m3","No","Decreasing","Michigan","Detroit","Urban And Center City","Southwestern H.S.","No","Chloroform","","","","","2.48733347731655","2.6585584406195","1.56354802515772","1.18443796171318","0.733847518911252","0.539346220028731","0.426418482941561","0.518860398736798","0.689097570671355","0.701975768317525","0.5413444202668","0.357721007668508","",""
"26-163-0027","Chloroform","42.2922325134277","-83.106803894043","Detroit","","INDUSTRIAL","","UATMP: YFMI; PILOT CITY: Yellow Freight","meanRos_ug_m3","No","Undetermined","Michigan","Detroit","Urban And Center City","Yellow Freight","No","Chloroform","","","0.224995466484341","","","","","","","","","","","","","","",""
"27-003-1002","Chloroform","45.1376800537109","-93.2076187133789","Blaine","","COMMERCIAL","","Anoka Airport6010","meanRos_ug_m3","No","No Trend","Minnesota","Blaine","Suburban","Anoka County Airport","No","Chloroform","","","","","","","","","","0.0800018616020679","0.0818944402988284","0.127838626854546","0.120165156685907","0.115248382809438","0.121385318760463","","",""
"27-007-2303","Chloroform","47.8772201538086","-95.0122222900391","Red Lake","","RESIDENTIAL","","Red Lake","meanRos_ug_m3","No","Undetermined","Minnesota","Red Lake","Rural","Red Lake District","No","Chloroform","","","","","","","","","0.1040506120338","","","","","","","","",""
"27-017-7416","Chloroform","46.7052688598633","-92.5237731933594","CLOQUET","","FOREST","","Cloquet","meanRos_ug_m3","No","Undetermined","Minnesota","Cloquet","Rural","Fond du Lac Band 7416","No","Chloroform","","","","","","","","0.0635975486806512","","","","","","","","","",""
"27-019-0052","Chloroform","44.8506546020508","-93.5918121337891","Chaska","","RESIDENTIAL","","CHASKA","meanRos_ug_m3","No","No Trend","Minnesota","Chaska","Rural","Chaska","No","Chloroform","0.0590689621329986","0.0737248381664013","0.0736069804507083","0.0694254839069074","0.0749381081097656","","","","","","","","","","","","",""
"27-021-0001","Chloroform","47.1599426269531","-94.1509857177734","NOT IN A CITY","","RESIDENTIAL","","Leech Lake","meanRos_ug_m3","No","Undetermined","Minnesota","Not in a city","Rural","Leech Lake Nation: Chatfield","No","Chloroform","","","","","","","","","0.102229589738114","","","","","","","","",""
"27-037-0020","Chloroform","44.7632293701172","-93.0325469970703","NOT IN A CITY","","INDUSTRIAL","","FHR 420","meanRos_ug_m3","No","No Trend","Minnesota","Rosemount","Rural","Flint Hills Refinery 420","No","Chloroform","0.0715215431678236","0.0808551061715259","0.0827625674485672","0.0790594333627572","0.094278992990316","0.0849680379595645","0.0832310915658517","0.0858004261450521","0.142551390390259","0.0725003888364881","0.0787776184140467","0.0723540967435279","0.177436866435612","0.104547178413105","0.124446022248169","","",""
"27-037-0423","Chloroform","44.7755317687988","-93.06298828125","Rosemount","","INDUSTRIAL","","FHR 423","meanRos_ug_m3","No","Increasing","Minnesota","Inver Grove Heights (RR name Inver Grove)","Rural","Flint Hills Refinery 423","No","Chloroform","0.063647635087362","0.0774267210935553","0.0787207164491216","0.0725065476508699","0.0801204541890786","0.0760259592422733","0.0816826917609926","0.0752450647474877","0.132667932969828","0.079671368598938","0.078169549042359","0.110652455919031","0.117807965587044","0.124490095284539","0.115640646843893","","",""
"27-037-0441","Chloroform","44.7467994689941","-93.0261077880859","Rosemount","","INDUSTRIAL","","FHR 441","meanRos_ug_m3","No","No Trend","Minnesota","Rosemount","Rural","Flint Hills Refinery 441","No","Chloroform","0.0645054499187961","0.0767918916310351","0.0763492642856035","0.0733612066165346","0.0751291396943006","","","","","","","","","","","","",""
"27-037-0442","Chloroform","44.7385711669922","-93.0049591064453","Rosemount","","AGRICULTURAL","","FHR 442","meanRos_ug_m3","No","No Trend","Minnesota","Rosemount","Rural","Flint Hills Refinery 442","No","Chloroform","0.058320968647331","0.0720555119947481","0.0798294657872895","0.0715789459645748","0.0890809116885066","0.0771765532935488","0.0853960433248746","0.0754157316527869","0.128752859644592","0.0719210857525468","0.0905038615389955","","","","","","",""
"27-037-0443","Chloroform","44.745662689209","-93.0554122924805","ROSEMOUNT","","INDUSTRIAL","","FHR 443","meanRos_ug_m3","No","Increasing","Minnesota","Rosemount","Rural","Flint Hills Refinery 443","No","Chloroform","","","","","","0.0731533833646349","0.0762453549032118","0.0741639915984451","0.141412029387301","0.0851843817641083","0.0803532277778635","0.109909415674062","0.118199274897946","0.139490564387853","0.117756680701154","","",""
"27-037-0470","Chloroform","44.7384605407715","-93.2372512817383","Apple Valley","","RESIDENTIAL","","Apple Valley","meanRos_ug_m3","No","Increasing","Minnesota","Apple Valley","Suburban","Apple Valley","No","Chloroform","0.068747619311556","0.0819681956240072","0.0876772254705429","0.0784487904437636","0.0832609918307174","0.06516999816522","0.0791178622861559","0.0779557907311567","0.152514083981514","0.0740832136943936","0.083088477124583","0.171113814255226","0.166932924800652","0.124776709162635","0.137774511667514","","",""
"27-053-0050","Chloroform","45.0012283325195","-93.2671203613281","Minneapolis","","COMMERCIAL","","NE Fire Station","meanRos_ug_m3","No","Undetermined","Minnesota","Minneapolis","Urban And Center City","Minneapolis Fire Station 2","No","Chloroform","0.0833837003224128","0.101224396377802","0.100178359573086","0.0939814412342866","","","","","","","","","","","","","",""
"27-053-0909","Chloroform","45.0121002197266","-93.2766952514648","Minneapolis","","INDUSTRIAL","","Lowry Ave","meanRos_ug_m3","No","Undetermined","Minnesota","Minneapolis","Urban And Center City","Lowry Avenue","No","Chloroform","","","","","","","","","","","","","0.115854667240059","0.111617123913191","0.117168934073538","","",""
"27-053-0961","Chloroform","44.8755111694336","-93.258918762207","RICHFIELD","","RESIDENTIAL","","RICHFIELD INTERMEDIATE SCHOOL","meanRos_ug_m3","No","No Trend","Minnesota","Richfield","Suburban","Richfield Intermediate School","No","Chloroform","","","","0.101045587515221","0.10457220553662","0.090720721334219","0.0818033369221524","0.0789406078734568","0.104989207384211","0.07908933518349","0.0848694586769698","0.168248569600002","0.217166892937386","0.119387783849623","0.104257633888071","","",""
"27-053-0962","Chloroform","44.9652404785156","-93.2547607421875","Minneapolis","","RESIDENTIAL","","Minneapolis Near Roadway NOx","meanRos_ug_m3","No","Undetermined","Minnesota","Minneapolis","Urban And Center City","Near Road I-35/I-94","No","Chloroform","","","","","","","","","","","","0.182355895780573","0.118360845506321","0.108013698831512","0.123203027038459","","",""
"27-053-0963","Chloroform","44.9536590576172","-93.2582092285156","Minneapolis","","RESIDENTIAL","","HC Anderson School","meanRos_ug_m3","No","No Trend","Minnesota","Minneapolis","Urban And Center City","Andersen School","No","Chloroform","0.0841887355640507","0.10073208275797","0.106677732689947","0.10184403646961","0.0955836462029303","0.078888586247867","0.150288609040903","0.0942998465340016","0.168180212900043","0.0862539929982561","0.0919143175154576","0.206769775149053","0.124835428251613","0.113914453970288","0.160601638158336","","",""
"27-053-0964","Chloroform","44.8885498046875","-93.1953735351563","NOT IN A CITY","","COMMERCIAL","","MSP AIRPORT","meanRos_ug_m3","No","Undetermined","Minnesota","Not in a city","Suburban","MSP Airport","No","Chloroform","0.0617632731462033","","","","","","","","","","","","","","","","",""
"27-053-0965","Chloroform","45.0044784545898","-93.2400436401367","Minneapolis","","RESIDENTIAL","","Putnam School","meanRos_ug_m3","No","Undetermined","Minnesota","Minneapolis","Urban And Center City","Putnam Elementary School","No","Chloroform","0.089885818482852","0.117851519522568","0.102071529178956","0.0913767472898048","","","","","","","","","","","","","",""
"27-053-0966","Chloroform","44.9794387817383","-93.2661285400391","Minneapolis","","COMMERCIAL","","UATMP: MIMN; City of Lakes Bldg","meanRos_ug_m3","No","No Trend","Minnesota","Minneapolis","Urban And Center City","City of Lakes Building","No","Chloroform","0.0979157215244383","0.118100233514","0.101075484517338","0.0963823117552417","0.105741945458418","0.0811964045831207","0.0968809544860402","0.0988037079432101","0.177757093646363","0.0928381993793524","0.0984800187688248","0.157013900077318","0.137177982450445","0.128522568473325","0.13008494301696","","",""
"27-053-0968","Chloroform","44.8930053710938","-93.2332305908203","MINNEAPOLIS","","COMMERCIAL","","MSP Airport 968","meanRos_ug_m3","No","Undetermined","Minnesota","Minneapolis","Urban And Center City","Metropolitan Airports Commission","No","Chloroform","","","0.0787160291949778","0.0787006176855313","","","","","","","","","","","","","",""
"27-053-0969","Chloroform","44.9005699157715","-93.23828125","MINNEAPOLIS","","RESIDENTIAL","","WENONAH SCHOOL","meanRos_ug_m3","No","No Trend","Minnesota","Minneapolis","Suburban","Wenonah Elementary School","No","Chloroform","","","0.0893269731175332","0.0861666776464493","0.0845434920767606","0.0763337214787801","0.0935114580871803","","","","","","","","","","",""
"27-053-1007","Chloroform","45.0397186279297","-93.2987365722656","Minneapolis","","RESIDENTIAL","","Humboldt Ave","meanRos_ug_m3","No","Increasing","Minnesota","Minneapolis","Suburban","Humboldt Avenue","No","Chloroform","0.0826593171748578","0.0931938972067216","0.0922883854278165","0.0915092529682515","0.0876064357670167","0.0761145641180602","0.151235844667551","0.0981086754195747","0.151861100950662","0.0968788627464816","0.106653651960616","0.153305511527745","0.115678904936891","0.11859778827621","0.112938574222421","","",""
"27-053-1909","Chloroform","45.0136108398438","-93.2720489501953","Minneapolis","","COMMERCIAL","","Bottineau / Marshall Terrace","meanRos_ug_m3","No","Undetermined","Minnesota","Minneapolis","Urban And Center City","Bottineau / Marshall Terrace","No","Chloroform","","","","","","","","","","","","","","","0.213735461960829","","",""
"27-053-2006","Chloroform","44.9480514526367","-93.343147277832","ST LOUIS PARK","","RESIDENTIAL","","St. Louis Park","meanRos_ug_m3","No","No Trend","Minnesota","St. Louis Park","Suburban","St. Louis Park City Hall","No","Chloroform","","","","","","0.0738683111684502","0.0885156672757517","0.09233148092473","0.246197548389087","0.0796667448445862","0.0875720494198349","0.0971643567052236","0.120731057608937","0.108269279259083","0.11345318042264","","",""
"27-075-0005","Chloroform","47.9486236572266","-91.4955749511719","NOT IN A CITY","","UNKNOWN","","Fernberg Road","meanRos_ug_m3","No","Undetermined","Minnesota","Not in a city","Rural","Boundary Waters","No","Chloroform","","","","","","","","0.066262351896833","","","","","","","","","",""
"27-095-3051","Chloroform","46.2052993774414","-93.7594528198242","ONAMIA","","FOREST","","Mille Lacs","meanRos_ug_m3","No","Undetermined","Minnesota","Onamia","Rural","Mille Lacs Band","No","Chloroform","","","","","","","","","","0.0616433528207597","","","","","","","",""
"27-123-0017","Chloroform","44.9441337585449","-93.0651245117188","SAINT PAUL","","INDUSTRIAL","","Holman Field","meanRos_ug_m3","No","Undetermined","Minnesota","St. Paul","Suburban","Holman Field","No","Chloroform","0.0881408493652314","0.100169275377719","0.100800091237353","0.0955762867568861","","","","","","","","","","","","","",""
"27-123-0021","Chloroform","44.9655494689941","-93.0568389892578","SAINT PAUL","","COMMERCIAL","","Ross Avenue","meanRos_ug_m3","No","No Trend","Minnesota","St. Paul","Urban And Center City","Ross Avenue","No","Chloroform","0.113087822580637","0.568585311683516","0.149237081072614","0.141525689997237","0.118546875662989","","","","","","","","","","","","",""
"27-123-0868","Chloroform","44.9507217407227","-93.0982666015625","SAINT PAUL","","COMMERCIAL","","Ramsey Health Center","meanRos_ug_m3","No","No Trend","Minnesota","St. Paul","Urban And Center City","Ramsey Health Center","No","Chloroform","","","","","0.103449781608509","0.0831703074529009","0.104945707185702","0.0972613901165979","0.201137592386308","0.097279442614823","0.103747960953218","0.292498950284083","0.165823144614294","0.132841997348921","0.108156594047328","","",""
"27-123-0871","Chloroform","44.9593887329102","-93.0358734130859","SAINT PAUL","","RESIDENTIAL","","Harding High School","meanRos_ug_m3","No","No Trend","Minnesota","St. Paul","Suburban","Harding High School","No","Chloroform","","","","","","0.0747140379199789","0.165670718376526","0.0930606017786044","0.24617897842054","0.0948677741059283","0.0991942183329509","0.0783631262718605","0.140890265199119","0.134670945487375","0.206337664604653","","",""
"27-123-1908","Chloroform","44.9730949401855","-93.1998825073242","SAINT PAUL","","RESIDENTIAL","","South St. Anthony Park","meanRos_ug_m3","No","Undetermined","Minnesota","St. Paul","Urban And Center City","South St. Anthony Park","No","Chloroform","","","","","","","","","","","","","","0.113692260527674","","","",""
"27-137-7549","Chloroform","46.771068572998","-92.117317199707","Duluth","","INDUSTRIAL","","Michigan St.","meanRos_ug_m3","No","Increasing","Minnesota","Duluth","Urban And Center City","Michigan Street","No","Chloroform","0.06888444265686","0.0795008400816141","0.0744887239553712","0.0776568109628744","0.0814574922798044","0.0675993524216309","0.0666154707331063","0.0781664268400234","0.156930121271649","0.0715834700653738","0.116391690149903","0.198611094907642","0.122492634864431","0.1010398786949","0.107004866026256","","",""
"27-163-0436","Chloroform","44.8473701477051","-92.9953994750977","SAINT PAUL","","INDUSTRIAL","","MPC 436","meanRos_ug_m3","No","Increasing","Minnesota","St. Paul Park","Suburban","Saint Paul Park Refinery 436","No","Chloroform","0.0796385834191242","0.0833243462802323","0.088230712309284","0.0905004500976351","0.0930626002787533","0.0872762045064556","0.140880962877123","0.0803576942416839","0.17450572808607","0.0809565176484439","0.0841940661641554","0.283385424204952","0.213719471128291","0.107396814515489","0.122728574386683","","",""
"27-163-0438","Chloroform","44.8571090698242","-93.0035171508789","Newport","","INDUSTRIAL","","MPC 438","meanRos_ug_m3","No","Increasing","Minnesota","Newport","Suburban","Saint Paul Park Refinery 438","No","Chloroform","0.0748004328455397","0.0897259184574449","0.093945390045902","0.0898433589532989","0.100301818536787","0.0836774102227768","0.0941921562690001","0.0860631840141725","0.194017092565993","0.0866524139770641","0.0872399269674833","0.125569800143572","0.120393043154264","0.0959147557166478","0.146773365602088","","",""
"27-163-0445","Chloroform","45.0187606811523","-92.7802734375","BAYPORT","","RESIDENTIAL","","Anderson School","meanRos_ug_m3","No","Undetermined","Minnesota","Bayport","Suburban","Anderson School","No","Chloroform","","","","","0.0928509376943111","","","","","","","","","","","","",""
"27-163-0446","Chloroform","45.0279808044434","-92.7741470336914","Bayport","","INDUSTRIAL","","Point Rd.","meanRos_ug_m3","No","No Trend","Minnesota","Bayport","Suburban","Point Road","No","Chloroform","","","","","","0.0674114871834373","0.0816205504150795","0.0851471677422524","0.20926670254545","0.0737639581257442","0.0755751123575623","0.149155952401988","0.111120896514662","0.122108825475238","0.135599542793406","","",""
"28-047-0008","Chloroform","30.3903694152832","-89.0497817993164","Gulfport","","COMMERCIAL","","UATMP: GPMS; Katrina: GPMS; BP Oil site GPMS","meanRos_ug_m3","No","Undetermined","Mississippi","Gulfport","Rural","Gulfport Youth Court","No","Chloroform","0.0624256456577797","","","0.101320267017257","0.122460716469312","","","","","","","","","","","","",""
"28-049-0010","Chloroform","32.3857307434082","-90.1411972045898","Jackson","","COMMERCIAL","","UATMP: JAMS","meanRos_ug_m3","No","Undetermined","Mississippi","Jackson","Suburban","Jackson FS19","No","Chloroform","0.0749476299588352","0.166456320121497","","","","","","","","","","","","","","","",""
"28-081-0005","Chloroform","34.2649154663086","-88.7662200927734","Tupelo","","COMMERCIAL","","UATMP: TUMS; Katrina: TUMS","meanRos_ug_m3","No","Undetermined","Mississippi","Tupelo","Suburban","TUPELO AIRPORT NEAR OLD NWS OFFICE","No","Chloroform","","","0.0554126426938471","0.0817062284099317","0.113267355888927","","","","","","","","","","","","",""
"28-087-0002","Chloroform","33.5095863342285","-88.4089279174805","Columbus","","RESIDENTIAL","","UATMP: KMMS","meanRos_ug_m3","No","Undetermined","Mississippi","Columbus","Urban And Center City","UATMP: KMMS","No","Chloroform","","","","","","","","","","","0.0953791571474905","","","","","","",""
"28-087-0003","Chloroform","33.4995880126953","-88.4036483764648","Columbus","","RESIDENTIAL","","UATMP: SSMS","meanRos_ug_m3","No","Undetermined","Mississippi","Columbus","Urban And Center City","UATMP: SSMS","No","Chloroform","","","","","","","","","","","0.0920941846259071","","","","","","",""
"33-011-0020","Chloroform","42.995777130127","-71.4625244140625","Manchester","","COMMERCIAL","","PEARL ST MUNICIPAL PARKING LOT","meanRos_ug_m3","No","No Trend","New Hampshire","Manchester","Urban And Center City","PEARL ST MUNICIPAL PARKING LOT","No","Chloroform","","0.109803003187363","0.113346360071942","0.0982872312172101","0.103865886428233","0.697634081840515","","","","","","","","","","","",""
"33-013-1003","Chloroform","43.177303314209","-71.4620132446289","Pembroke","","RESIDENTIAL","","","meanRos_ug_m3","No","Undetermined","New Hampshire","Pembroke","Rural","","No","Chloroform","0.191869410718309","","","","","","","","","","","","","","","","",""
"33-013-1006","Chloroform","43.1324615478516","-71.4582443237305","Pembroke","","RESIDENTIAL","","PEMBROKE HIGHWAY DEPARTMENT","meanRos_ug_m3","No","Undetermined","New Hampshire","Suncook","Suburban","PEMBROKE HIGHWAY DEPARTMENT","No","Chloroform","0.176351276359388","","","","","","","","","","","","","","","","",""
"33-015-0014","Chloroform","43.0753707885742","-70.7480163574219","Portsmouth","","RESIDENTIAL","","PORTSMOUTH - PEIRCE ISLAND","meanRos_ug_m3","No","Undetermined","New Hampshire","Portsmouth","Urban And Center City","PORTSMOUTH - PEIRCE ISLAND","No","Chloroform","","0.127716018951365","0.162081015906457","0.106452314483543","0.0895925273001194","","","","","","","","","","","","",""
"33-019-0003","Chloroform","43.3645172119141","-72.3378677368164","Claremont","","RESIDENTIAL","","","meanRos_ug_m3","No","No Trend","New Hampshire","Claremont","Urban And Center City","","No","Chloroform","0.212717095315456","0.127035859972239","0.0890379009832596","0.0827515763541063","0.0773760712204071","0.769272749001781","","","","","","","","","","","",""
"34-007-0002","Chloroform","39.9344444274902","-75.1252899169922","Camden","","INDUSTRIAL","","UATMP: CSNJ; Camden Spruce Street","meanRos_ug_m3","No","No Trend","New Jersey","Camden","Urban And Center City","Camden Spruce Street","No","Chloroform","","","","","","","","","","","0.139132050391014","0.135588803618658","0.153490757722347","0.153867362168702","0.152634812863889","0.139794104656235","0.133241145120513","0.131452580222062"
"34-007-0003","Chloroform","39.9230422973633","-75.0976181030273","Camden","","RESIDENTIAL","","UATMP: CANJ","meanRos_ug_m3","No","Undetermined","New Jersey","Camden","Suburban","CAMDEN LAB","No","Chloroform","","","0.10240143395596","0.122715733414538","0.117581556164055","0.127413190906976","","","","","","","","","","","",""
"34-023-0006","Chloroform","40.4728240966797","-74.4224014282227","NOT IN A CITY","","AGRICULTURAL","","UATMP: NBNJ","meanRos_ug_m3","No","Increasing","New Jersey","North Brunswick Township","Rural","New Brunswick","No","Chloroform","0.0793643346269826","","0.105480697266587","0.129265896536929","0.132173985495505","0.17682687761972","0.155781668424606","0.132422367379221","0.13836191498698","0.136601942267161","0.13919947293891","0.473317404960593","0.142933789956368","","","","",""
"34-023-0011","Chloroform","40.4621810913086","-74.4294357299805","NOT IN A CITY","","AGRICULTURAL","","Rutgers University","meanRos_ug_m3","No","Decreasing","New Jersey","East Brunswick (Township of)","Rural","Rutgers University","No","Chloroform","","","","","","","","","","","","","","0.175332128380736","0.156530922278762","0.154738307541067","0.13821486049685","0.134802953029672"
"34-027-3001","Chloroform","40.7876281738281","-74.6763000488281","NOT IN A CITY","","AGRICULTURAL","","UATMP: CHNJ","meanRos_ug_m3","Yes","No Trend","New Jersey","Chester","Rural","Chester","No","Chloroform","","","0.0748774807594543","0.0847157766817668","0.0921291454211648","0.12000059127937","0.113599553093558","0.0920394714469849","0.112018595609097","0.0995774606221877","0.111914611612749","0.11798245459795","0.116221741925586","0.124580978833396","0.129708726624293","0.118750067429292","0.108887174432831","0.0966499063276475"
"34-031-0005","Chloroform","40.9183807373047","-74.1680908203125","PATERSON","","COMMERCIAL","","UATMP: PANJ; PATERSON","meanRos_ug_m3","No","Undetermined","New Jersey","Paterson","Urban And Center City","Paterson","No","Chloroform","","","","0.35166292776202","","","","","","","","","","","","","",""
"34-031-0006","Chloroform","40.9157485961914","-74.1767349243164","Paterson","","MOBILE","","Paterson Public School - PS2","meanRos_ug_m3","No","Undetermined","New Jersey","Paterson","Urban And Center City","Paterson Public School - PS2","No","Chloroform","","","","0.246293457026811","","","","","","","","","","","","","",""
"34-031-0007","Chloroform","40.9274597167969","-74.1606140136719","Paterson","","INDUSTRIAL","","Paterson Public School - PS10","meanRos_ug_m3","No","Undetermined","New Jersey","Paterson","Urban And Center City","Paterson Public School - PS10","No","Chloroform","","","","0.166281384827439","","","","","","","","","","","","","",""
"34-039-0004","Chloroform","40.6414413452148","-74.208366394043","Elizabeth","","INDUSTRIAL","","UATMP: ELNJ; NADP: NJ54","meanRos_ug_m3","Yes","No Trend","New Jersey","Elizabeth","Suburban","Elizabeth Lab","No","Chloroform","0.0876470654326051","","0.117548702989436","0.140471933685596","0.141748835304941","0.185007988716717","0.172111275337164","0.139823695711098","0.151558698172659","0.142739152738092","0.148474044899546","0.159558315256997","0.156595246245464","0.170171654596925","0.174089184427848","0.159783210108678","0.145588230404813","0.134981615841389"
"35-045-5501","Chloroform","36.736328125","-108.417373657227","Fruitland","","AGRICULTURAL","","Nenahnezad, NM school (Nenmsch)","meanRos_ug_m3","No","Undetermined","New Mexico","Not in a city","Rural","Nenahnezad, NM school (Nenmsch)","No","Chloroform","","","","","","","","","0.06042725026474","","","","","","","","",""
"36-001-0013","Chloroform","42.6409301757813","-73.7565078735352","Albany","","RESIDENTIAL","","S. Pearl Street","meanRos_ug_m3","No","Decreasing","New York","Not in a city","Urban And Center City","S. Pearl Street","No","Chloroform","","","","","","","","","","","","","0.159245875704548","0.157601107606443","0.143297196924686","0.129666535680493","0.123837574323018","0.12916373560826"
"36-005-0083","Chloroform","40.8658485412598","-73.8808288574219","New York City","","COMMERCIAL","","UATMP: BXNY","meanRos_ug_m3","No","Undetermined","New York","New York","Urban And Center City","BOTANICAL GARDEN","No","Chloroform","0.278646224710558","","","","","","","","","","","","","","","","",""
"36-005-0133","Chloroform","40.8679008483887","-73.8780899047852","NEW YORK CITY","","COMMERCIAL","","PFIZER LAB SITE; NADP: NY06","meanRos_ug_m3","No","No Trend","New York","New York","Urban And Center City","PFIZER LAB SITE","No","Chloroform","","","","","0.179726253201564","0.170952635258436","0.167386954714512","0.116636542746654","0.139931031548586","0.135238598842742","0.141883188828093","0.149792369265678","0.159052599718173","0.179777300748669","0.153502728790045","0.150470369700658","0.144100723291437","0.159294734098788"
"36-029-0005","Chloroform","42.8769073486328","-78.8095245361328","BUFFALO","","RESIDENTIAL","","BUFFALO","meanRos_ug_m3","No","Decreasing","New York","Buffalo","Urban And Center City","BUFFALO","No","Chloroform","","","","","","","","","","","","0.117170453237163","0.114494916424155","0.124005677247489","0.108825729042292","0.108373773635411","0.0898844100021083","0.100027916668835"
"36-029-1007","Chloroform","42.8273010253906","-78.8498382568359","Lackawanna","","INDUSTRIAL","","SIMON STREET","meanRos_ug_m3","No","Decreasing","New York","Lackawanna","Urban And Center City","SIMON STREET","No","Chloroform","0.173240268778689","","0.114811496436596","0.0952914271320422","0.118644571225894","0.104784336934487","0.0812396744364186","0.0751400035366697","","","","","","","","","",""
"36-029-1013","Chloroform","42.9884414672852","-78.918586730957","Tonawanda","","INDUSTRIAL","","UATMP: TONY; GRAND ISLE BOULDVARD","meanRos_ug_m3","No","No Trend","New York","Tonawanda","Urban And Center City","GRAND ISLE BOULDVARD","No","Chloroform","","","","","","0.120087862228868","0.111078384734405","0.100330664968953","0.08047229839888","0.087111803281672","0.22592366074617","0.121844275629726","0.109192071996372","0.12742545443928","0.10490253237986","0.109457749163821","0.0899361262304915",""
"36-029-1014","Chloroform","42.9981307983398","-78.8992614746094","Tonawanda","","RESIDENTIAL","","BROOKSIDE TERRACE","meanRos_ug_m3","No","No Trend","New York","Tonawanda","Suburban","BROOKSIDE TERRACE","No","Chloroform","","","","","","0.15292124239107","0.121460865235935","0.113060191135716","0.118962293727831","0.12426527382599","0.210136478695159","0.144660260338905","0.145002806559205","0.15830282777034","0.126053052729574","0.122625901684409","0.108770083511869","0.131191471467415"
"36-031-0003","Chloroform","44.3930816650391","-73.8589019775391","SUNY","","FOREST","","WHITEFACE BASE","meanRos_ug_m3","Yes","No Trend","New York","Not in a city","Rural","WHITEFACE BASE","No","Chloroform","0.103681976259765","0.0989898052446696","0.0920769177419131","0.0648502416622592","0.0872471503029435","0.0760941624143758","0.0598907307966759","0.0564012452229565","0.0574493950177029","0.0623648482954727","0.0726329642691493","0.0885456741920539","0.0794462618817176","0.0962576670572162","0.0880107988736459","0.0811159288100267","0.0716617680075815","0.0782002963125706"
"36-047-0118","Chloroform","40.6945381164551","-73.9276885986328","New York City","","RESIDENTIAL","","PS 274","meanRos_ug_m3","Yes","Decreasing","New York","New York","Suburban","PS 274","No","Chloroform","0.246314886774196","","0.211174938827753","","0.21814238073978","0.1926611961176","0.192944392392581","0.149137699753046","0.18587588345898","0.159237672023627","","0.171554211600154","0.17008086936731","0.21154553613119","0.154123872766892","0.152167868344257","0.143653252124732","0.171202887639855"
"36-061-0056","Chloroform","40.7591209411621","-73.9666137695313","New York","","COMMERCIAL","","PS 59","meanRos_ug_m3","No","No Trend","New York","New York","Urban And Center City","PS 59","No","Chloroform","0.216614987081841","0.300491204055456","0.264833790915353","0.220624141946987","0.251135982050185","","","","","","","","","","","","",""
"36-063-2008","Chloroform","43.0821800231934","-79.0010604858398","Niagara Falls","","INDUSTRIAL","","NIAGARA FALLS","meanRos_ug_m3","No","Decreasing","New York","Niagara Falls","Suburban","NIAGARA FALLS","No","Chloroform","0.180249715673512","0.152300422017773","0.155997383266182","0.124207183881716","0.12312409778436","0.122684779352155","0.0860168973720351","0.0886415294280239","","","","","","","","","",""
"36-063-7001","Chloroform","43.0963745117188","-79.0114440917969","Niagara Falls","","RESIDENTIAL","","Packard Court Community Center","meanRos_ug_m3","No","Undetermined","New York","Niagara Falls","Suburban","Packard Court Community Center","No","Chloroform","","","","","","","","","","","","","","","0.121992885513221","0.113863037135757","0.0996225730089818","0.104252927206658"
"36-081-0098","Chloroform","40.7841987609863","-73.8475723266602","New York City","","RESIDENTIAL","","COLLEGE POINT POST OFFICE","meanRos_ug_m3","No","Undetermined","New York","New York","Urban And Center City","COLLEGE POINT POST OFFICE","No","Chloroform","0.247021039123418","0.225690868417067","0.234286457931591","","","","","","","","","","","","","","",""
"36-081-0124","Chloroform","40.736141204834","-73.821533203125","New York City","","COMMERCIAL","","PM Supersite: Queensborough","meanRos_ug_m3","Yes","Decreasing","New York","New York","Urban And Center City","QUEENS COLLEGE 2","No","Chloroform","0.201765846080926","0.180713724141771","0.16980013678797","0.146814140135592","0.184488649124449","0.18075481363173","0.160479079868834","0.118693225858909","0.140327119224128","0.126551398262382","0.13672072875003","0.130885608494282","0.14306189198243","0.166459475533437","0.136281960217629","0.131961402120227","0.129920647891819","0.143026946595422"
"36-083-1003","Chloroform","42.7319412231445","-73.6890869140625","Troy","","COMMERCIAL","","TROY","meanRos_ug_m3","No","Decreasing","New York","Troy","Urban And Center City","TROY","No","Chloroform","0.185506013780832","0.173633743574222","0.172366842059261","0.149397055445998","0.164269224740565","0.165544093831589","0.129353222854692","0.117074707247041","","","","","","","","","",""
"36-085-0106","Chloroform","40.5781097412109","-74.1843032836914","New York City","","INDUSTRIAL","","UNLOADING ZONE FRESHKILLLS LANDFILL","meanRos_ug_m3","No","Undetermined","New York","New York","Urban And Center City","UNLOADING ZONE FRESHKILLLS LANDFILL","No","Chloroform","0.186430076802415","","","","","","","","","","","","","","","","",""
"36-085-0111","Chloroform","40.5802688598633","-74.1983184814453","New York City","","COMMERCIAL","","FRESHKILLS WEST","meanRos_ug_m3","Yes","Decreasing","New York","New York","Suburban","FRESHKILLS WEST","No","Chloroform","0.178620979024304","0.160545881323773","0.173428548594653","0.15101467199483","0.164977210052943","0.15296824364844","0.130321989466028","0.110488206076507","0.136624431535602","","0.125630535583284","","0.138651813592827","0.166377195912712","0.124519247888473","0.122089950740337","0.117920020595193","0.127471620744129"
"36-085-0131","Chloroform","40.5880584716797","-74.1688232421875","New York City","","INDUSTRIAL","","FRESHKILLS EAST","meanRos_ug_m3","No","Undetermined","New York","New York","Urban And Center City","FRESHKILLS EAST","No","Chloroform","0.296523361483164","0.198896736677351","","","","","","","","","","","","","","","",""
"36-085-0132","Chloroform","40.5805587768555","-74.1517791748047","New York City","","COMMERCIAL","","LATOURETTE GOLF COURSE","meanRos_ug_m3","No","Decreasing","New York","New York","Suburban","LATOURETTE GOLF COURSE","No","Chloroform","0.190709286265903","0.160708645422911","0.18262227355606","0.157994279904025","0.170664438356956","0.149477609246969","0.129831609331955","0.114317694350201","0.123267989131537","0.125760234626276","","","","","","","",""
"36-101-0003","Chloroform","42.0914192199707","-77.2097778320313","NOT IN A CITY","","FOREST","","PM Supersite: Pinnacle State Park","meanRos_ug_m3","No","No Trend","New York","Not in a city","Rural","PINNACLE STATE PARK","No","Chloroform","","","","","","","","","","","0.078086364547883","0.0971144918563231","","0.10925997364319","0.0946570758355114","0.0856076104996296","0.0804043150773006","0.0824861876797258"
"36-103-0009","Chloroform","40.8279914855957","-73.0575408935547","HOLTSVILLE","","RESIDENTIAL","","HOLTSVILLE","meanRos_ug_m3","No","No Trend","New York","Holtsville","Suburban","HOLTSVILLE","No","Chloroform","0.201162383465977","0.0643072091773444","0.0795254749069092","0.221807950274333","0.0729731265369992","","0.102901226508815","","","","","","","","","","",""
