"site_id","parameter_desc","latitude","longitude","city_name","location","land_use_type","setting","site_name","stat","used_in_nat_agg","trend","state_name","city_name","location_setting","local_site_name","natts","toxic_name_alias","2003","2004","2005","2006","2007","2008","2009","2010","2011","2012","2013","2014","2015","2016","2017","2018","2019","2020"
"01-097-3101","Formaldehyde","30.770299911499","-88.0875015258789","MOBILE","","RESIDENTIAL","","","meanRos_ug_m3","No","Undetermined","Alabama","Mobile","Suburban","","No","Formaldehyde","2.32035679134883","","","","","","","","","","","","","","","","",""
"01-097-3102","Formaldehyde","30.7089004516602","-88.0519027709961","MOBILE","","RESIDENTIAL","","","meanRos_ug_m3","No","Undetermined","Alabama","Mobile","Suburban","","No","Formaldehyde","2.8261733783616","","","","","","","","","","","","","","","","",""
"01-097-3103","Formaldehyde","30.9382991790771","-88.0250015258789","MOBILE","","RESIDENTIAL","","","meanRos_ug_m3","No","Undetermined","Alabama","Mobile","Rural","","No","Formaldehyde","1.03717948216945","","","","","","","","","","","","","","","","",""
"01-097-3104","Formaldehyde","30.6156005859375","-88.3443984985352","MOBILE","","RESIDENTIAL","","","meanRos_ug_m3","No","Undetermined","Alabama","Mobile","Rural","","No","Formaldehyde","2.27009818951289","","","","","","","","","","","","","","","","",""
"01-097-3105","Formaldehyde","30.5764007568359","-88.1402969360352","MOBILE","","COMMERCIAL","","","meanRos_ug_m3","No","Undetermined","Alabama","Mobile","Suburban","","No","Formaldehyde","2.30503841241201","","","","","","","","","","","","","","","","",""
"04-013-4003","Formaldehyde","33.4031600952148","-112.075332641602","Phoenix","","RESIDENTIAL","","UATMP: SPAZ","meanRos_ug_m3","No","Undetermined","Arizona","Phoenix","Urban And Center City","SOUTH PHOENIX","No","Formaldehyde","4.0695488795321","3.58672502407661","3.88614440957705","","","","","","","","","","","","","","",""
"06-001-1001","Formaldehyde","37.535831451416","-121.961822509766","Fremont","","RESIDENTIAL","","Fremont - Chapel Way","meanRos_ug_m3","No","No Trend","California","Fremont","Suburban","Fremont - Chapel Way","No","Formaldehyde","2.71837342554523","1.88399196236298","1.56976486021473","1.90169210632642","1.73809403592143","1.7190857010503","1.65030117333049","","","","","","","","","","",""
"06-001-2004","Formaldehyde","37.8777923583984","-122.301292419434","Berkeley","","COMMERCIAL","","Berkeley 6th and Camelia","meanRos_ug_m3","No","Undetermined","California","Berkeley","Urban And Center City","Berkeley","No","Formaldehyde","","","","","","1.68840807774028","1.57956571266299","1.47890607003243","","","","","","","","","",""
"06-007-0002","Formaldehyde","39.7573699951172","-121.843284606934","Chico","","COMMERCIAL","","468 MANZANITA AVE, CHICO","meanRos_ug_m3","No","Decreasing","California","Not in a city","Suburban","Chico-Manzanita Ave.","No","Formaldehyde","4.754507737775","4.16649726629257","4.07743495318197","3.2304108162721","3.61962489684423","3.76397494346865","3.09106426662014","3.19217686454455","3.73196192133811","","","","","","","","",""
"06-007-0008","Formaldehyde","39.7615394592285","-121.841621398926","Chico","","COMMERCIAL","","Chico - East Avenue","meanRos_ug_m3","No","No Trend","California","Chico","Suburban","Chico-East Avenue","No","Formaldehyde","","","","","","","","","","","3.80894800030708","3.50702149669329","3.80574463605881","3.58964485488832","3.34300281157096","4.84391715834218","3.27866725410734",""
"06-019-0008","Formaldehyde","36.7813339233398","-119.773193359375","Fresno","","RESIDENTIAL","","PM Supersite: Fresno","meanRos_ug_m3","No","No Trend","California","Fresno","Suburban","3425 N FIRST ST, FRESNO","No","Formaldehyde","4.77564343900392","3.16515572224894","3.68759277372649","4.1824565260641","3.68577261169751","3.80622491240501","3.09295826951807","3.75935447318801","4.13239575393738","","","","","","","","",""
"06-019-0011","Formaldehyde","36.7853202819824","-119.77417755127","Fresno","","COMMERCIAL","","Fresno - Garland","meanRos_ug_m3","No","No Trend","California","Fresno","Urban And Center City","Fresno - Garland","No","Formaldehyde","","","","","","","","","","4.20729993184408","4.74298056434183","4.38932458758354","4.4737074087406","4.23927940744342","4.69830566644669","4.65475031360984","3.7565527399381",""
"06-019-3002","Formaldehyde","36.6071701049805","-119.540679931641","PARLIER","","AGRICULTURAL","","PARLIER","meanRos_ug_m3","No","Undetermined","California","Parlier","Urban And Center City","PARLIER","No","Formaldehyde","","","","3.39656086105567","","","","","","","","","","","","","",""
"06-025-0005","Formaldehyde","32.6761856079102","-115.484146118164","Calexico","","RESIDENTIAL","","CALEXICO HIGH SCHOOL  ARB (#1300698)","meanRos_ug_m3","Yes","No Trend","California","Calexico","Suburban","Calexico-Ethel Street","No","Formaldehyde","4.39697197387958","3.3657617651183","4.23547750463088","3.70953473846118","3.97594829996427","2.99230751196543","3.50821492845012","5.78089089691639","4.54147248395852","4.00616436799367","3.63849014428354","3.3799060801665","3.85509337340632","4.48570573740992","3.94668344382276","4.61878487095237","",""
"06-029-0014","Formaldehyde","35.3566017150879","-119.063545227051","Bakersfield","","MOBILE","","Bakersfield-California Avenue","meanRos_ug_m3","Yes","Increasing","California","Bakersfield","Urban And Center City","Bakersfield-California","No","Formaldehyde","3.99126797914505","2.84930044412613","3.33792819082737","3.38979758322239","3.16820655988924","3.15445500810941","3.27277434449042","3.52039004502625","3.25483893975616","3.51132619742191","3.74091816941897","","4.05820871703327","4.99675811992751","4.77482668197516","5.71352450812564","4.10239120266017",""
"06-037-0002","Formaldehyde","34.1365013122559","-117.92391204834","Azusa","","RESIDENTIAL","","Azusa","meanRos_ug_m3","Yes","Increasing","California","Azusa","Suburban","Azusa","No","Formaldehyde","4.25196770191193","3.74065917442599","4.30367147539625","","3.641832447052","3.66469207604726","3.86401527960549","3.1410250743381","3.91844280489853","4.08845174312592","3.86424837958428","4.29535129865011","4.46533151865006","5.07318051399723","4.75500706036886","5.09273354609807","3.87089518001003",""
"06-037-1002","Formaldehyde","34.1760482788086","-118.317123413086","BURBANK","","COMMERCIAL","","MATES: Burbank","meanRos_ug_m3","No","No Trend","California","Burbank","Urban And Center City","Burbank","No","Formaldehyde","6.84252494816877","5.08780999116841","4.7510418171684","6.97734126375045","15.2029654594106","13.6944719121298","9.68269514420535","4.63405471779406","5.20605926448479","5.15929470658302","3.93669704257539","","","","","","",""
"06-037-1302","Formaldehyde","33.9013900756836","-118.205001831055","COMPTON","","RESIDENTIAL","","MATES: Compton","meanRos_ug_m3","No","Undetermined","California","Compton","Urban And Center City","Compton","No","Formaldehyde","","4.15919345736504","3.95076121070555","","","","","","","","","","","","","","",""
"06-037-1601","Formaldehyde","34.0140686035156","-118.060562133789","Pico Rivera","","COMMERCIAL","","MATES: Pico Rivera","meanRos_ug_m3","No","Undetermined","California","Pico Rivera","Suburban","MATES: Pico Rivera","No","Formaldehyde","6.11259620530265","4.73562405667863","5.03982414610415","","","","","","","","","","","","","","",""
"06-037-1602","Formaldehyde","34.0119400024414","-118.069946289063","PICO RIVERA","","COMMERCIAL","","Pico Rivera #2","meanRos_ug_m3","No","Decreasing","California","Pico Rivera","Suburban","Pico Rivera #2","No","Formaldehyde","","","","6.39176747263694","6.0943454300485","5.91921433458726","10.1061450941809","10.184739979647","4.43439010381699","4.77485231456594","","3.92798982754998","","","","4.26179653619017","",""
"06-037-4002","Formaldehyde","33.8237609863281","-118.189208984375","Long Beach","","RESIDENTIAL","","UATMP: LBHCA; MATES: North Long Beach","meanRos_ug_m3","No","Decreasing","California","Long Beach","Suburban","Long Beach (North)","No","Formaldehyde","3.5380717754364","4.57745673401015","4.28211967134085","4.23171104258961","3.23286583493738","2.97702476183573","2.71983882784843","","","2.53891240623262","2.45166290813201","","","","","","",""
"06-037-6012","Formaldehyde","34.3834381103516","-118.528396606445","Santa Clarita","","COMMERCIAL","","Santa Clarita","meanRos_ug_m3","Yes","Decreasing","California","Santa Clarita","Suburban","Santa Clarita","No","Formaldehyde","7.79345150981398","6.55965993234089","6.56135057643629","6.34513005340586","10.8676474809647","6.77369739890099","4.88138606579139","4.67107860137851","5.25785207849592","5.22369109029355","","4.095855174462","","3.92868239735539","3.50392778126776","4.21469299648264","",""
"06-037-LWLB","Formaldehyde","33.7924194335938","-118.215896606445","Long Beach","","","","MATES: West Long Beach","meanRos_ug_m3","No","Undetermined","","Long Beach","","MATES: West Long Beach","No","Formaldehyde","","4.09819899893355","4.2081740808881","3.89392963691387","","","","","","","","","","","","","",""
"06-059-0001","Formaldehyde","33.8213539123535","-117.914268493652","Anaheim","","RESIDENTIAL","","MATES: Anaheim","meanRos_ug_m3","No","Undetermined","California","Anaheim","Suburban","Anaheim (1010 Harbor Blvd)","No","Formaldehyde","","3.61011855940796","3.70902429350087","","","","","","","","","","","","","","",""
"06-061-0006","Formaldehyde","38.7457275390625","-121.266311645508","Roseville","","MOBILE","","Roseville-N Sunrise Blvd","meanRos_ug_m3","Yes","Increasing","California","Roseville","Suburban","Roseville-N Sunrise Ave","No","Formaldehyde","4.0493511115351","2.77258345176434","2.5067748049895","2.98353412644616","3.22218793836133","2.73638927394694","2.83557340701421","2.95671115815639","2.24421020669322","3.22283358375231","3.52944705563207","3.16576607823372","3.66989703013979","3.56598187069739","4.04669262568156","4.27612769603729","3.31463313897451",""
"06-065-0012","Formaldehyde","33.9208602905273","-116.858413696289","Banning","","COMMERCIAL","","Banning Airport","meanRos_ug_m3","No","No Trend","California","Banning","Suburban","Banning Airport","No","Formaldehyde","7.62765106514319","4.59952379847473","5.10287492154008","5.55363412464366","6.32581509371935","6.51398551642005","","","","","","","","","","","",""
"06-071-2002","Formaldehyde","34.1000213623047","-117.492012023926","Fontana","","INDUSTRIAL","","MATES: Inland Valley San Bernardino","meanRos_ug_m3","No","Undetermined","California","Fontana","Suburban","Fontana","No","Formaldehyde","","4.4314672003672","4.54485759603195","","","","","","","","","","","","","","",""
"06-073-0001","Formaldehyde","32.6312294006348","-117.059074401855","Chula Vista","","RESIDENTIAL","","Chula Vista","meanRos_ug_m3","Yes","No Trend","California","Chula Vista","Suburban","Chula Vista","No","Formaldehyde","2.88187771843326","2.43449971874555","2.61359343528748","2.36192452907562","2.28204966982206","2.35201773643494","2.17885412323859","1.91947468280792","2.25462331303528","2.44196846286456","2.07224288781484","2.26836230293397","2.58125592867533","3.01174733373854","2.80342011451721","2.96182435174142","2.6042613017148",""
"06-073-0003","Formaldehyde","32.7911949157715","-116.942092895508","El Cajon","","COMMERCIAL","","El Cajon","meanRos_ug_m3","No","No Trend","California","El Cajon","Suburban","El Cajon","No","Formaldehyde","3.85201870485888","3.43408484251371","3.24249589840571","3.83099724849065","3.56903491218885","3.30895496672019","3.17689447537545","3.14833536455708","3.33953410287698","3.50862449016727","3.21318041483561","","","","","","",""
"06-073-0006","Formaldehyde","32.8364601135254","-117.128753662109","San Diego","","COMMERCIAL","","Kearny Mesa","meanRos_ug_m3","No","No Trend","California","San Diego","Suburban","Kearny Mesa","No","Formaldehyde","3.33332905794183","2.68509323950167","2.78224205768715","3.69184523820877","3.48404551565718","3.05312272598004","2.87111731240007","3.114989470263","2.47820010999354","","","","","","","","",""
"06-073-1010","Formaldehyde","32.7014923095703","-117.14965057373","SAN DIEGO","","COMMERCIAL","","Downtown","meanRos_ug_m3","No","Undetermined","California","San Diego","Urban And Center City","San Diego - Beardsley Street","No","Formaldehyde","","","","","","","","","","","2.49584887050233","","3.08761333004903","","","","",""
"06-073-1018","Formaldehyde","32.8179779052734","-116.968132019043","El Cajon","","COMMERCIAL","","El Cajon - Floyd Smith Drive","meanRos_ug_m3","No","Undetermined","California","El Cajon","Suburban","El Cajon - Floyd Smith Dr.","No","Formaldehyde","","","","","","","","","","","","","3.55974781204914","","","","",""
"06-073-1022","Formaldehyde","32.7895622253418","-116.944221496582","El Cajon","","COMMERCIAL","","El Cajon - Lexington Elementary School","meanRos_ug_m3","No","Undetermined","California","El Cajon","Suburban","El Cajon - Lexington Elementary School","No","Formaldehyde","","","","","","","","","","","","","","","","4.02130796447877","3.40376925468445",""
"06-075-0005","Formaldehyde","37.7659454345703","-122.399040222168","San Francisco","","INDUSTRIAL","","San Francisco - Arkansas St.","meanRos_ug_m3","Yes","No Trend","California","San Francisco","Urban And Center City","San Francisco","No","Formaldehyde","2.08747624312134","1.91806243748796","1.35377165976003","1.75013013308189","1.57116622143778","1.27373475134373","1.41650776823617","1.65411296814747","1.67912634213765","1.30326410432657","1.78188218416706","1.63609815835953","1.87726203004519","1.93306582371394","2.04057001471519","2.14290695457623","1.61537231206894",""
"06-077-1002","Formaldehyde","37.950740814209","-121.268524169922","Stockton","","RESIDENTIAL","","HAZELTON-HD, STOCKTON","meanRos_ug_m3","Yes","Increasing","California","Stockton","Urban And Center City","Stockton-Hazelton","No","Formaldehyde","2.55387716075859","2.29161516251042","2.26535262746943","2.58621407324268","2.78034362848848","2.47859761841369","2.46810197253381","2.48555886128853","2.66457824874669","2.59566038747629","3.01776369847357","2.89890270848428","3.16734747925112","3.06242146994919","3.50647786163515","3.3115024799481","2.72700683275859",""
"06-085-2009","Formaldehyde","37.3184356689453","-122.069702148438","CUPERTINO","","RESIDENTIAL","","Cupertino Monta Vista","meanRos_ug_m3","No","Undetermined","California","Cupertino","Suburban","Cupertino Monta Vista","No","Formaldehyde","","","","","","","","","1.75907138625129","1.67526521155092","2.02465853730186","","","","","","",""
"06-095-0006","Formaldehyde","38.065601348877","-122.150703430176","Benicia","","RESIDENTIAL","","Benicia - VIP","meanRos_ug_m3","No","Undetermined","California","Benicia","Suburban","Benicia - VIP","No","Formaldehyde","","","","","","1.31104552354969","","","","","","","","","","","",""
"06-111-2002","Formaldehyde","34.2763633728027","-118.683753967285","Simi Valley","","RESIDENTIAL","","SIMI VALLEY","meanRos_ug_m3","Yes","No Trend","California","Simi Valley","Suburban","Simi Valley-Cochran Street","No","Formaldehyde","3.15870626429688","2.81533479823598","2.85413758919157","2.47394436796506","2.73074873387814","2.76986364722252","2.61801967505486","2.87170245762794","2.49290538218714","2.98528706388814","2.95316367745399","2.80053181846937","3.15805735190709","3.72533731213931","3.06783903241158","3.39154707616375","2.69269900396466",""
"08-013-7001","Formaldehyde","40.0137825012207","-105.254051208496","Boulder","","COMMERCIAL","","Boulder Fire Station","meanRos_ug_m3","No","Undetermined","Colorado","Boulder","Rural","Boulder Fire Station","No","Formaldehyde","","","","","2.39647584572441","","","","","","","","","","","","",""
"08-013-7002","Formaldehyde","40.1488990783691","-105.059234619141","NOT IN A CITY","","RESIDENTIAL","","Longmont","meanRos_ug_m3","No","Undetermined","Colorado","Not in a city","Suburban","Longmont","No","Formaldehyde","","","","","2.02485756273405","","","","","","","","","","","","",""
"08-013-7003","Formaldehyde","40.2041816711426","-105.248229980469","NOT IN A CITY","","RESIDENTIAL","","Lyons","meanRos_ug_m3","No","Undetermined","Colorado","Not in a city","Suburban","Lyons","No","Formaldehyde","","","","","2.1835740506649","","","","","","","","","","","","",""
"08-013-7004","Formaldehyde","40.0362510681152","-105.543380737305","NOT IN A CITY","","FOREST","","Niwot Ridge; NADP: CO90","meanRos_ug_m3","No","Undetermined","Colorado","Not in a city","Rural","Niwot Ridge","No","Formaldehyde","","","","","1.29254145466582","","","","","","","","","","","","",""
"08-013-7005","Formaldehyde","39.9571990966797","-105.238471984863","NOT IN A CITY","","AGRICULTURAL","","ALONG SOUTH BOULDER CREEK NEXT TO LAFAYETTE WATER TREATMENT PLANT","meanRos_ug_m3","No","Undetermined","Colorado","Not in a city","Rural","ALONG SOUTH BOULDER CREEK NEXT TO LAFAYETTE WATER TREATMENT PLANT","No","Formaldehyde","","","","","1.81850131140465","","","","","","","","","","","","",""
"08-045-0005","Formaldehyde","39.4536552429199","-108.053260803223","PARACHUTE","","RESIDENTIAL","","UATMP: PACO; PARACHUTE - HIGH SCHOOL","meanRos_ug_m3","No","No Trend","Colorado","Parachute","Urban And Center City","PARACHUTE - HIGH SCHOOL","No","Formaldehyde","","","","","","1.51545701561303","1.49531695644061","1.29522641428879","","1.02691968316557","1.10502230261381","0.980525642037392","","1.01618572568585","1.04914102317958","1.6426532335866","",""
"08-045-0007","Formaldehyde","39.5318145751953","-107.782295227051","RIFLE","","COMMERCIAL","","UATMP: RICO; RIFLE - HENRY BLDG","meanRos_ug_m3","No","Decreasing","Colorado","Rifle","Urban And Center City","RIFLE - HENRY BLDG","No","Formaldehyde","","","","","","1.63465299048731","1.45136271057458","1.51997659603755","","1.19067450639393","1.19632991343737","0.63878218539887","1.06815681778468","1.1377978404363","","","",""
"08-045-0009","Formaldehyde","39.4877548217773","-107.659683227539","SILT","","AGRICULTURAL","","UATMP: BRCO","meanRos_ug_m3","No","No Trend","Colorado","Silt","Rural","UATMP: BRCO","No","Formaldehyde","","","","","","0.869225366461662","1.19095394932307","","","0.868814189519201","0.747717816955768","","0.70194239515279","0.318640356381925","0.877012372016907","1.39891242017396","",""
"08-045-0018","Formaldehyde","39.4122772216797","-107.230400085449","NOT IN A CITY","","RESIDENTIAL","","UATMP: RFCO; CMC Boat House","meanRos_ug_m3","No","Undetermined","Colorado","Carbondale","Rural","Carbondale Rocky Mountain School (Boathouse)","No","Formaldehyde","","","","","","","","","","","0.600275005938278","0.651693806338769","","","","","",""
"08-045-0019","Formaldehyde","39.438060760498","-108.026107788086","Battlement Mesa","","COMMERCIAL","","Battlement Mesa","meanRos_ug_m3","No","No Trend","Colorado","Battlement Mesa","Suburban","Battlement Mesa","No","Formaldehyde","","","","","","","","","","0.784149685086539","0.701872975698539","0.649631057900411","","0.789975052078565","0.74075437883536","1.44060087093601","1.23837192662592",""
"08-045-0020","Formaldehyde","39.5463981628418","-107.328598022461","Glenwood Springs","","COMMERCIAL","","Vogelaar Park, Glenwood Springs","meanRos_ug_m3","No","Undetermined","Colorado","Glenwood Springs","Suburban","Vogelaar Park, Glenwood Springs","No","Formaldehyde","","","","","","","","","","","","","0.674275229756649","","","","",""
"08-045-0023","Formaldehyde","39.5306816101074","-107.782249450684","Rifle","","COMMERCIAL","","Garfield County Library","meanRos_ug_m3","No","Undetermined","Colorado","Rifle","Urban And Center City","Garfield County Library","No","Formaldehyde","","","","","","","","","","","","","","","1.24999406508037","1.40782010348307","1.21597257346191","1.74234349871504"
"10-001-0002","Formaldehyde","38.9866714477539","-75.5568008422852","NOT IN A CITY","","AGRICULTURAL","","PROPERTY OF KILLENS POND STATE PARK; BEHIND FARM BUILDINGS","meanRos_ug_m3","No","Undetermined","Delaware","Not in a city","Rural","PROPERTY OF KILLENS POND STATE PARK; BEHIND FARM BUILDINGS","No","Formaldehyde","1.26564101097749","1.53011829627835","","","","","","","","","","","","","","","",""
"10-003-1007","Formaldehyde","39.5513000488281","-75.7320022583008","NOT IN A CITY","","AGRICULTURAL","","PAMS: Lums Pond; NADP: DE99","meanRos_ug_m3","No","Undetermined","Delaware","Not in a city","Rural","Lums Pond","No","Formaldehyde","1.4566934996366","1.41284471103955","1.54153683940757","","","","","","","","","","","","","","",""
"10-003-1008","Formaldehyde","39.5776786804199","-75.6035995483398","DELAWARE CITY","","AGRICULTURAL","","Route 9 Delaware City","meanRos_ug_m3","No","Undetermined","Delaware","Delaware City","Rural","Route 9 Delaware City","No","Formaldehyde","1.26805448065738","1.29082714126153","1.7637064473679","","","","","","","","","","","","","","",""
"10-003-2004","Formaldehyde","39.739444732666","-75.5580596923828","Wilmington","","COMMERCIAL","","CORNER OF MLK BLVD AND JUSTISON ST, NO TRAFFIC DATA AVAILABLE","meanRos_ug_m3","No","No Trend","Delaware","Wilmington","Urban And Center City","MLK  CORNER OF MLK BLVD AND JUSTISON ST","No","Formaldehyde","2.41559469971779","2.2539384374853","2.46318789962995","2.20561517813899","2.66516874749129","2.4911994366151","1.91731761572725","3.42284065285362","","","","3.11184241891735","","","","","",""
"10-005-1002","Formaldehyde","38.6539001464844","-75.6106033325195","Seaford","","RESIDENTIAL","","Seaford Shipley State Service Center","meanRos_ug_m3","No","Undetermined","Delaware","Seaford","Suburban","Seaford Shipley State Service Center","No","Formaldehyde","","1.78341794310311","1.52263058429318","","","","","","","","","","","","","","",""
"12-011-1002","Formaldehyde","26.0831432342529","-80.2375869750977","Davie","","COMMERCIAL","","UATMP: FLFL","meanRos_ug_m3","No","Undetermined","Florida","Davie","Suburban","U of F Ag Research Center","No","Formaldehyde","","","","3.04361277318087","","","","","","","","","","","","","",""
"12-011-2004","Formaldehyde","26.2175827026367","-80.1275482177734","Pompano Beach","","COMMERCIAL","","UATMP: FLFL(2)","meanRos_ug_m3","No","Undetermined","Florida","Pompano Beach","Suburban","UATMP: FLFL(2)","No","Formaldehyde","1.23040822148323","","","","","","","","","","","","","","","","",""
"12-057-0081","Formaldehyde","27.7400321960449","-82.4651489257813","Tampa","","FOREST","","UATMP: SMFL; PILOT CITY:  Simmons Park","meanRos_ug_m3","No","Undetermined","Florida","Ruskin","Rural","Simmons Park","No","Formaldehyde","","","14.9222353867122","2.5862388962605","","","","","","","","","","","","","",""
"12-057-1065","Formaldehyde","27.8925228118896","-82.5384292602539","Tampa","","COMMERCIAL","","UATMP: GAFL; NADP: FL18; PILOT CITY: Gandy","meanRos_ug_m3","No","No Trend","Florida","Tampa","Suburban","USMC Reserve Center (Gandy)","No","Formaldehyde","2.39150826136271","2.12527194357755","10.7574217131263","4.46808195700411","2.46210758363207","1.66644301116467","","","","","","","","","","","",""
"12-057-1075","Formaldehyde","28.0502967834473","-82.3778686523438","Tampa","","RESIDENTIAL","","UATMP: LEFL; PILOT CITY: Lewis","meanRos_ug_m3","No","Undetermined","Florida","Tampa","Urban And Center City","WHITEWAY DRIVE TAMPA","No","Formaldehyde","2.36495431538286","","","","","","","","","","","","","","","","",""
"12-086-4002","Formaldehyde","25.7987098693848","-80.2100448608398","Miami","","COMMERCIAL","","UATMP: MDFL","meanRos_ug_m3","No","Undetermined","Florida","Miami","Urban And Center City","Lab Annex","No","Formaldehyde","0.633852661759765","","","","","","","","","","","","","","","","",""
"12-095-2002","Formaldehyde","28.5963897705078","-81.3625030517578","Winter Park","","COMMERCIAL","","UATMP: ORFL","meanRos_ug_m3","No","Decreasing","Florida","Winter Park","Urban And Center City","WINTER PARK","No","Formaldehyde","2.63229058980942","3.28510694091137","3.28121541213181","2.50025491929445","2.59177348531526","2.18745292798947","2.09524408813383","1.92996830791235","1.88525236050288","2.06008718639124","1.83681736715504","2.21021763682365","2.36740290604789","","","","",""
"12-099-0008","Formaldehyde","26.7247867584229","-80.6664505004883","Belle Glade","","INDUSTRIAL","","UATMP: BGFL","meanRos_ug_m3","No","Undetermined","Florida","Belle Glade","Rural","Belle Glade","No","Formaldehyde","0.359381155207239","","","","","","","","","","","","","","","","",""
"12-099-2005","Formaldehyde","26.4569435119629","-80.0927810668945","Delray Beach","","COMMERCIAL","","UATMP: DBFL","meanRos_ug_m3","No","Undetermined","Florida","Delray Beach","Urban And Center City","DELRAY BEACH","No","Formaldehyde","2.43272814154625","","","","","","","","","","","","","","","","",""
"12-103-0004","Formaldehyde","27.9466876983643","-82.7317657470703","Clearwater","","COMMERCIAL","","UATMP: CWFL","meanRos_ug_m3","No","Undetermined","Florida","Clearwater","Suburban","St. Petersburg College","No","Formaldehyde","3.03336545924346","","","","","","","","","","","","","","","","",""
"12-103-0018","Formaldehyde","27.7858657836914","-82.739875793457","SAINT PETERSBURG","","RESIDENTIAL","","UATMP: AZFL; PILOT CITY: Azalea Park","meanRos_ug_m3","No","No Trend","Florida","Saint Petersburg","Suburban","Azalea Park","No","Formaldehyde","2.26091440855447","1.795330859224","1.93171579900541","2.4661271376688","2.98490140239398","3.06215486956424","2.03918057183425","1.72213879569632","1.87571531149649","1.91840071900416","1.76760677765992","2.22697465760367","1.79078400854407","7.28055712873818","","","",""
"13-051-0021","Formaldehyde","32.0691833496094","-81.0487442016602","Savannah","","COMMERCIAL","","Savannah-E. President Street","meanRos_ug_m3","Yes","No Trend","Georgia","Savannah","Suburban","Savannah-E. President","No","Formaldehyde","2.40721145510561","3.11805380822702","3.18470673939177","3.09088538808614","2.68816087800848","1.77415350618835","2.5038310131862","10.0828344140734","9.89304152028314","4.97758609090992","2.19929461642679","","2.21841743015326","3.9322025458018","2.518936838095","0.256855655153015","",""
"13-085-0001","Formaldehyde","34.3763084411621","-84.0595550537109","DAWSONVILLE","","UNKNOWN","","Dawsonville, Georgia Forestry Commission","meanRos_ug_m3","No","No Trend","Georgia","Not in a city","Rural","Dawsonville","No","Formaldehyde","2.8928637713514","2.32589992177879","2.42133021205013","1.80275156625666","11.0387640881836","1.88919600959446","2.22273469908553","6.17047795744561","3.04862768641738","1.67589266277624","1.72192563538117","","4.06962994209018","","","","",""
"13-089-3001","Formaldehyde","33.8457412719727","-84.2134017944336","Tucker","","RESIDENTIAL","","PAMS: Tucker","meanRos_ug_m3","No","Undetermined","Georgia","Tucker","Rural","Tucker-Idlewood Road","No","Formaldehyde","16.9324546080717","25.4298697911698","17.657485264319","14.5109960238139","","","","","","","","","","","","","",""
"13-127-3001","Formaldehyde","31.1851863861084","-81.4851684570313","Brunswick","","RESIDENTIAL","","","meanRos_ug_m3","No","No Trend","Georgia","Brunswick","Suburban","","No","Formaldehyde","2.38741599319411","2.62262952327728","4.71550513109015","3.87252288092803","3.42757719039917","","","","","","","","","","","","",""
"13-223-0003","Formaldehyde","33.9285011291504","-85.0453414916992","Yorkville","","AGRICULTURAL","","PAMS: Yorkville (Near Rockmart)","meanRos_ug_m3","No","Undetermined","Georgia","Not in a city","Rural","Yorkville, King Farm","No","Formaldehyde","","","","","","","","","","","","","","4.64201707852383","","","",""
"15-003-2004","Formaldehyde","21.3928337097168","-157.969131469727","PEARL CITY","","RESIDENTIAL","","PEARL CITY","meanRos_ug_m3","No","No Trend","Hawaii","Pearl City","Urban And Center City","Pearl City","No","Formaldehyde","1.8563077147745","1.91709759623505","1.69084343707786","1.65057560509326","1.93455052600717","1.474538293268","1.58511579036713","1.59386961577369","","","","","","","","","",""
"16-001-0100","Formaldehyde","43.6012992858887","-116.347297668457","Meridian","","COMMERCIAL","","","meanRos_ug_m3","No","Undetermined","Idaho","Not in a city","Suburban","","No","Formaldehyde","","","","","3.74057891789605","","","","","","","","","","","","",""
"16-001-0200","Formaldehyde","43.5775985717773","-116.177696228027","Boise","","RESIDENTIAL","","White Pine Elementary School","meanRos_ug_m3","No","Undetermined","Idaho","Boise City (corporate name for Boise)","Urban And Center City","White Pine Elementary School","No","Formaldehyde","","","","","2.4752494467103","","","","","","","","","","","","",""
"16-001-0300","Formaldehyde","43.6366691589355","-116.270217895508","Boise","","RESIDENTIAL","","Mt. View","meanRos_ug_m3","No","Undetermined","Idaho","Boise City (corporate name for Boise)","Urban And Center City","Mt. View","No","Formaldehyde","","","","","1.88376537114382","","","","","","","","","","","","",""
"16-027-0004","Formaldehyde","43.5624008178711","-116.563232421875","Nampa","","RESIDENTIAL","","NORTHWEST NAZARENE COLLEGE SAMPLER ON ARTS BUILDING IN SUB. SETTING","meanRos_ug_m3","No","Undetermined","Idaho","Nampa","Suburban","NORTHWEST NAZARENE COLLEGE SAMPLER ON ARTS BUILDING IN SUB. SETTING","No","Formaldehyde","4.06026314125686","2.91433624008246","","","2.25525312425356","","","","","","","","","","","","",""
"16-027-0400","Formaldehyde","43.7872009277344","-116.959602355957","Parma","","AGRICULTURAL","","Parma","meanRos_ug_m3","No","Undetermined","Idaho","Not in a city","Rural","Parma","No","Formaldehyde","","","","","1.77651623033342","","","","","","","","","","","","",""
"16-069-0006","Formaldehyde","46.4295616149902","-116.99242401123","Lewiston","","INDUSTRIAL","","","meanRos_ug_m3","No","Undetermined","Idaho","Lewiston","Suburban","","No","Formaldehyde","","","","6.86720262616873","","","","","","","","","","","","","",""
"16-069-0009","Formaldehyde","46.4177780151367","-117.018608093262","Lewiston","","COMMERCIAL","","","meanRos_ug_m3","No","Undetermined","Idaho","Lewiston","Urban And Center City","","No","Formaldehyde","","","","7.58971241273378","","","","","","","","","","","","","",""
"16-069-0012","Formaldehyde","46.4083518981934","-116.992530822754","Lewiston","","RESIDENTIAL","","SUNSET PARK LOCATION, BETWEEN CITY CENTER AND POTLACH CORP.,","meanRos_ug_m3","No","Undetermined","Idaho","Lewiston","Suburban","Lewiston","No","Formaldehyde","","","","7.99960971948428","","","","","","","","","","","","","",""
"16-069-0013","Formaldehyde","46.3972015380859","-116.806198120117","Lapwei","","RESIDENTIAL","","","meanRos_ug_m3","No","Undetermined","Idaho","Not in a city","Rural","","No","Formaldehyde","","","","5.00173150041164","","","","","","","","","","","","","",""
"16-069-0222","Formaldehyde","46.4380874633789","-116.905181884766","NOT IN A CITY","","COMMERCIAL","","","meanRos_ug_m3","No","Undetermined","Idaho","Not in a city","Rural","","No","Formaldehyde","","","","5.19945243597031","","","","","","","","","","","","","",""
"17-031-3103","Formaldehyde","41.9651947021484","-87.8762664794922","Schiller Park","","MOBILE","","UATMP: SPIL","meanRos_ug_m3","Yes","Increasing","Illinois","Schiller Park","Suburban","IEPA TRAILER","No","Formaldehyde","2.37609826995615","1.77035364320793","23.7981078438461","13.7908288545922","2.47992212758425","2.32868781559474","1.89583380932862","2.59197698259491","3.35317434899269","3.08245235974671","3.44181932186799","3.25645709037781","3.91306123381755","3.6488004881039","5.82079676582533","4.93012831347888","6.82539335886637","6.41522681922243"
"17-119-9010","Formaldehyde","38.8483810424805","-90.076416015625","Roxana","","INDUSTRIAL","","UATMP: ROIL; Phillips 66 Wood River Refinery","meanRos_ug_m3","No","Undetermined","Illinois","Roxana","Suburban","Phillips 66 Wood River Refinery","No","Formaldehyde","","","","","","","","","","","3.19909414697866","3.07735693057378","","","","","",""
"18-089-0022","Formaldehyde","41.6066818237305","-87.3047256469727","Gary","","INDUSTRIAL","","UATMP: INDEM","meanRos_ug_m3","No","Decreasing","Indiana","Gary","Urban And Center City","Gary-IITRI/ 1219.5 meters east of Tennessee St.- old ammuntion bunker","No","Formaldehyde","","41.9270606344601","72.1938013495369","62.766501462018","36.2932076931","74.3408366593264","2.60933143304566","2.44423101378269","2.34253863598171","2.50794981091709","2.17799173026788","2.65056090815025","3.00104225774606","3.69070960303484","","","",""
"18-097-0057","Formaldehyde","39.7490196228027","-86.1863174438477","INDIANAPOLIS","","RESIDENTIAL","","UATMP: ININ","meanRos_ug_m3","No","Undetermined","Indiana","Indianapolis (Remainder)","Urban And Center City","Indpls- Harding St.","No","Formaldehyde","","","","","4.15449858261425","6.2311875138964","","","","","","","","","","","",""
"18-097-0078","Formaldehyde","39.8110961914063","-86.1144714355469","Indianapolis","","RESIDENTIAL","","UATMP: WPIN","meanRos_ug_m3","Yes","Decreasing","Indiana","Indianapolis (Remainder)","Suburban","Indpls- Washington Park/  in parking lot next to police station","No","Formaldehyde","8.49117278250364","","3.43692544277977","2.59718239942664","4.04826727722372","3.45785987781266","3.13925874829292","3.62055045472724","4.25961206941044","4.31504693113524","3.44487791225828","2.71427800920275","3.38414435972602","3.60795541813499","3.17813225847776","3.3808222717709","2.43959645221108","2.46879092759864"
"18-097-0085","Formaldehyde","39.7403831481934","-86.2259521484375","INDIANAPOLIS","","MILITARY RESERVATION","","UATMP: IDIN","meanRos_ug_m3","No","Undetermined","Indiana","Indianapolis (Remainder)","Urban And Center City","Stout Field 2","No","Formaldehyde","","","","","3.65849967704991","3.0858487664385","","","","","","","","","","","",""
"19-045-0019","Formaldehyde","41.8232841491699","-90.2119827270508","Clinton","","INDUSTRIAL","","CLINTON, CHANCY PARK","meanRos_ug_m3","No","Decreasing","Iowa","Clinton","Urban And Center City","CLINTON, CHANCY PARK","No","Formaldehyde","","","","","","","","","","","","2.36158464817291","2.47664629171292","2.38289962043153","1.90476418242735","1.73938267449943","1.59535963365845","1.33900714337826"
"19-113-0033","Formaldehyde","42.2810134887695","-91.5268783569336","COGGON","","RESIDENTIAL","","COGGON ELEMENTARY SCHOOL BLDG. NORTHERN LIMITS OF LINN COUNTY","meanRos_ug_m3","No","Undetermined","Iowa","Coggon","Urban And Center City","COGGON ELEMENTARY SCHOOL BLDG. NORTHERN LIMITS OF LINN COUNTY","No","Formaldehyde","","","","","","","1.59504334628582","2.20407566508731","","2.52620486591173","1.64854871133963","","","","","","",""
"19-113-0037","Formaldehyde","42.0050811767578","-91.6792984008789","Cedar Rapids","","RESIDENTIAL","","UATMP: C2IA; PILOT CITY: Army Reserve","meanRos_ug_m3","No","Undetermined","Iowa","Cedar Rapids","Urban And Center City","ARMY RESERVE CENTER ROOF- CORE MONITORING SITE","No","Formaldehyde","","2.34341544244024","2.95576086944463","2.87784088199789","2.79666377197612","","","","","","","","","","","","",""
"19-113-0040","Formaldehyde","41.9767684936523","-91.6876602172852","CEDAR RAPIDS","","RESIDENTIAL","","Public Health","meanRos_ug_m3","No","No Trend","Iowa","Cedar Rapids","Urban And Center City","Public Health","No","Formaldehyde","","","","","","2.15844172368879","1.82561438728352","2.06513997112832","2.650948804252","2.86405314380924","2.34374454070111","2.10771142929158","2.05733927386872","2.22127017254631","2.1361028026132","2.14029250339586","1.89327856606128","2.02450021341735"
"19-113-0050","Formaldehyde","41.9795570373535","-91.6805648803711","CEDAR RAPIDS","","INDUSTRIAL","","CR School","meanRos_ug_m3","No","Undetermined","Iowa","Cedar Rapids","Urban And Center City","CR School","No","Formaldehyde","","","","","","","","2.88270104253614","","3.85484983921051","2.77567102553997","","","","","","",""
"19-113-0060","Formaldehyde","41.9242515563965","-91.6780776977539","CEDAR RAPIDS","","COMMERCIAL","","HACAP","meanRos_ug_m3","No","Undetermined","Iowa","Cedar Rapids","Urban And Center City","HACAP","No","Formaldehyde","","","","","","","","2.57631162533889","","3.00123894685193","2.68855516073552","","","","","","",""
"19-113-0070","Formaldehyde","41.9812812805176","-91.6787338256836","Cedar Rapids","","RESIDENTIAL","","H Avenue","meanRos_ug_m3","No","Undetermined","Iowa","Cedar Rapids","Urban And Center City","H Avenue","No","Formaldehyde","","","","","","","","","","2.8518836163893","2.25776405453682","","","","","","",""
"19-139-0020","Formaldehyde","41.4068984985352","-91.0615997314453","Muscatine","","INDUSTRIAL","","UATMP: MUIA","meanRos_ug_m3","No","Increasing","Iowa","Muscatine","Suburban","MUSCATINE, MUSSER PARK","No","Formaldehyde","","","","","","","","","","","","2.06883652286327","2.28164665773511","2.44623109574119","2.45312765065361","8.25254934661242","6.37695029553245","5.70708552360535"
"19-153-0030","Formaldehyde","41.6031608581543","-93.6431198120117","Des Moines","","COMMERCIAL","","UATMP: DMIA","meanRos_ug_m3","Yes","No Trend","Iowa","Des Moines","Urban And Center City","CARPENTER","No","Formaldehyde","3.40421226240219","","3.27560876806577","3.05974420905113","2.91717227115188","2.78122018575668","2.09478110803498","2.69535826906866","2.81984174494841","3.22995752582745","2.46426901567814","2.60783150295416","2.15211382135749","2.23287131637335","2.32318995513168","2.86961610219917","2.61085062503815","2.85622198484382"
"19-153-2510","Formaldehyde","41.603515625","-93.7479019165039","CLIVE","","RESIDENTIAL","","INDIAN HILLS JR HIGH, CLIVE IA, FRM R&P SEQ. SAMPLER (1),ROOF","meanRos_ug_m3","No","Undetermined","Iowa","Clive","Suburban","INDIAN HILLS JR HIGH, CLIVE IA, FRM R&P SEQ. SAMPLER (1),ROOF","No","Formaldehyde","2.02250893556691","","","","","","","","","","","","","","","","",""
"19-163-0015","Formaldehyde","41.5300102233887","-90.5876083374023","Davenport","","RESIDENTIAL","","UATMP: DAIA","meanRos_ug_m3","Yes","Decreasing","Iowa","Davenport","Urban And Center City","DAVENPORT, JEFFERSON SCH.","No","Formaldehyde","2.22867266401168","2.73505643573967","3.40515668538152","2.78614870932969","2.7946634914564","2.38638918296151","2.14707353647719","2.38384603676589","2.3942897093296","2.67130727871605","2.63197304487228","2.10818742818021","2.12064333632588","2.11969606454174","2.09101121565875","2.32765133648503","2.20460129952898","2.39969271302223"
"21-019-0017","Formaldehyde","38.4593391418457","-82.6404113769531","ASHLAND","","RESIDENTIAL","","UATMP: ASKY","meanRos_ug_m3","No","No Trend","Kentucky","Ashland","Suburban","ASHLAND PRIMARY (FIVCO)","No","Formaldehyde","","2.62006021181091","2.71631598472595","3.35131468375524","3.93220575792449","3.23981297736367","2.00578389402296","2.69300417576806","2.52683231035868","2.84914350823352","2.31027046676542","2.31018343616704","","","","","",""
"21-059-0005","Formaldehyde","37.7807769775391","-87.075309753418","OWENSBORO","","COMMERCIAL","","OWENSBORO PRIMARY","meanRos_ug_m3","No","Undetermined","Kentucky","Not in a city","Suburban","OWENSBORO PRIMARY","No","Formaldehyde","","","3.25586711855258","","","","","","","","","","","","","","",""
"21-067-0012","Formaldehyde","38.0650291442871","-84.4976119995117","LEXINGTON-FAYETTE","","RESIDENTIAL","","UATMP: LEKY","meanRos_ug_m3","No","No Trend","Kentucky","Lexington-Fayette (corporate name for Lexington)","Suburban","LEXINGTON PRIMARY","No","Formaldehyde","","","2.81339252517934","3.79315631672487","4.45290538006359","4.08144596589214","1.83866412064125","2.86545106665841","2.47979672749837","2.84823249578476","2.87877293883777","3.12578744021329","","","","","",""
"21-117-0007","Formaldehyde","39.0724983215332","-84.5250015258789","COVINGTON","","RESIDENTIAL","","CHASE (COVINGTON)","meanRos_ug_m3","No","No Trend","Kentucky","Covington","Suburban","CHASE (COVINGTON)","No","Formaldehyde","","","3.30311744610469","4.06377764901177","2.70502718640309","2.32483777503173","2.15626764786048","","","","","","","","","","",""
"21-145-1024","Formaldehyde","37.058219909668","-88.572509765625","PADUCAH","","COMMERCIAL","","JACKSON PURCHASE (PADUCAH PRIMARY)","meanRos_ug_m3","No","Undetermined","Kentucky","Paducah","Suburban","JACKSON PURCHASE (PADUCAH PRIMARY)","No","Formaldehyde","","","3.19254734615485","","","","","","","","","","","","","","",""
"22-033-0009","Formaldehyde","30.4619808197021","-91.1792221069336","Baton Rouge","","COMMERCIAL","","UATMP: B2LA","meanRos_ug_m3","No","Undetermined","Louisiana","Baton Rouge","Urban And Center City","Capitol","No","Formaldehyde","2.69151144764642","","","","","","","","","","","","","","","","",""
"22-051-1001","Formaldehyde","30.04123878479","-90.2728271484375","KENNER","","RESIDENTIAL","","Katrina: KELA","meanRos_ug_m3","No","Undetermined","Louisiana","Kenner","Suburban","Kenner","No","Formaldehyde","","","","4.46279322849193","","","","","","","","","","","","","",""
"24-005-3001","Formaldehyde","39.3108329772949","-76.4744415283203","Essex","","RESIDENTIAL","","PAMS: Essex","meanRos_ug_m3","Yes","No Trend","Maryland","Essex","Suburban","Essex","No","Formaldehyde","1.86150612887149","1.33911291737698","0.722233157215802","0.432318189716477","1.93337269135551","1.23240675779149","1.17189277959711","1.41266534989499","1.2368571226362","1.18702447539924","0.908844600290507","0.807676899964531","","","0.959693513313929","1.70049711445282","",""
"25-009-2006","Formaldehyde","42.4746437072754","-70.970817565918","Lynn","","COMMERCIAL","","LYNN WATER TREATMENT PLANT","meanRos_ug_m3","Yes","No Trend","Massachusetts","Lynn","Urban And Center City","LYNN WATER TREATMENT PLANT","No","Formaldehyde","2.25272524586091","1.90396756539911","2.42569620578976","2.20332951190179","2.31962044434301","1.74757246226072","1.80438131435973","1.93819909876791","2.06435710094014","2.28571211844683","2.53015510164774","1.8693137525535","3.05125599897514","2.17495190004508","1.88556525010174","2.33633328168119","3.00789555708567","3.69024991598286"
"25-013-0008","Formaldehyde","42.1943817138672","-72.5551147460938","Chicopee","","COMMERCIAL","","WESTOVER AFB","meanRos_ug_m3","Yes","No Trend","Massachusetts","Chicopee","Suburban","WESTOVER AFB","No","Formaldehyde","2.74122571638851","3.44830168115682","2.83496150480849","2.42479955856917","2.23592192600529","1.65759834696849","1.72981534064826","1.79089174008575","1.72656302569342","2.32819463158476","2.83421863884222","2.60507363776366","2.97213684717814","2.57704663862948","2.02878674425063","2.22776719979171","",""
"25-021-2004","Formaldehyde","42.2458648681641","-70.9627685546875","North Weymouth","","INDUSTRIAL","","","meanRos_ug_m3","No","Undetermined","Massachusetts","Not in a city","Suburban","Weymouth","No","Formaldehyde","","","","","","","","","","","","","","","","","","2.11739025451243"
"26-081-0020","Formaldehyde","42.9841728210449","-85.6713409423828","Grand Rapids","","INDUSTRIAL","","Grand Rapids","meanRos_ug_m3","No","Undetermined","Michigan","Grand Rapids","Urban And Center City","GR-MONROE","No","Formaldehyde","","","5.14648950528116","3.13785054286321","","","","","","","","","","","","","",""
"26-081-0021","Formaldehyde","42.9386367797852","-85.671142578125","Grand Rapids","","INDUSTRIAL","","1270 RANDOLPH, GRAND RAPIDS","meanRos_ug_m3","No","Undetermined","Michigan","Grand Rapids","Urban And Center City","1270 RANDOLPH, GRAND RAPIDS","No","Formaldehyde","3.80638840463426","2.69591685616633","","","","","","","","","","","","","","","",""
"26-113-0001","Formaldehyde","44.3105545043945","-84.8918685913086","NOT IN A CITY","","FOREST","","UATMP: HOMI; PILOT CITY: Houghton Lake","meanRos_ug_m3","No","Undetermined","Michigan","Not in a city","Rural","LOCATED ABOUT 1/4 MILE WEST OF SITE","No","Formaldehyde","1.43043372455657","1.27601868779429","","1.39377035354746","","","","","","","","","","","","","",""
"26-161-0008","Formaldehyde","42.2405662536621","-83.5996017456055","Ypsilanti","","COMMERCIAL","","PILOT CITY: Ypsilanti","meanRos_ug_m3","No","Undetermined","Michigan","Ypsilanti","Urban And Center City","TOWNER ST, SOUTH; 2 LANE RESIDENIAL - HOSPITAL","No","Formaldehyde","3.6091822262468","2.24899542742762","3.09092080593109","","","","","","","","","","","","","","",""
"26-163-0001","Formaldehyde","42.2286186218262","-83.2081985473633","Allen Park","","COMMERCIAL","","UATMP: APMI; IMPROVE: DETR1; PILOT CITY: Allen Park","meanRos_ug_m3","No","Undetermined","Michigan","Allen Park","Suburban","Allen Park","No","Formaldehyde","","","2.8399773478508","","","","","","","","","","","","","","",""
"26-163-0005","Formaldehyde","42.2672309875488","-83.1320877075195","River Rouge","","INDUSTRIAL","","UATMP: RRMI; PILOT CITY: River Rouge","meanRos_ug_m3","Yes","No Trend","Michigan","River Rouge","Suburban","River Rouge","No","Formaldehyde","1.96260497549124","4.93474209308624","3.14506434774697","3.6258297363917","3.31922910327003","3.13024088689836","2.65070562760035","2.89595690061306","3.25850207548131","3.99162615318688","5.72651979231065","4.35782297726335","5.01385191281637","4.93245505541563","3.99300172726313","4.0061120640847","3.52680669228236","3.50897472904574"
"26-163-0015","Formaldehyde","42.3027877807617","-83.1065292358398","Detroit","","COMMERCIAL","","UATMP: SWMI; PILOT CITY: Southwest HS","meanRos_ug_m3","Yes","No Trend","Michigan","Detroit","Urban And Center City","Southwestern H.S.","No","Formaldehyde","8.86280554471962","3.9822413067023","2.47717926303546","2.55955902461348","2.33903353129114","1.87450327277184","1.8201420845524","2.51523897976711","2.8714227716128","3.15084986047198","2.96845356879696","2.81760688821475","3.3191533724467","3.10705621204069","1.73789275796325","3.22692329652848","3.43066044251124","2.35598404804866"
"27-003-1002","Formaldehyde","45.1376800537109","-93.2076187133789","Blaine","","COMMERCIAL","","Anoka Airport6010","meanRos_ug_m3","No","No Trend","Minnesota","Blaine","Suburban","Anoka County Airport","No","Formaldehyde","","","","","","","","","","2.03365333641277","1.85995158111608","1.78308065338381","1.6957696740826","1.95160350004832","1.96476387182872","","",""
"27-007-2303","Formaldehyde","47.8772201538086","-95.0122222900391","Red Lake","","RESIDENTIAL","","Red Lake","meanRos_ug_m3","No","Undetermined","Minnesota","Red Lake","Rural","Red Lake District","No","Formaldehyde","","","","","","","","","1.44180864668809","","","","","","","","",""
"27-017-7416","Formaldehyde","46.7052688598633","-92.5237731933594","CLOQUET","","FOREST","","Cloquet","meanRos_ug_m3","No","Undetermined","Minnesota","Cloquet","Rural","Fond du Lac Band 7416","No","Formaldehyde","","","","","","","","1.29425007601579","","","","","","","","","",""
"27-019-0052","Formaldehyde","44.8506546020508","-93.5918121337891","Chaska","","RESIDENTIAL","","CHASKA","meanRos_ug_m3","No","Undetermined","Minnesota","Chaska","Rural","Chaska","No","Formaldehyde","1.15758273288094","0.843245042418992","1.51130054365186","1.23935220554724","","","","","","","","","","","","","",""
"27-021-0001","Formaldehyde","47.1599426269531","-94.1509857177734","NOT IN A CITY","","RESIDENTIAL","","Leech Lake","meanRos_ug_m3","No","Undetermined","Minnesota","Not in a city","Rural","Leech Lake Nation: Chatfield","No","Formaldehyde","","","","","","","","","1.07650900860222","","","","","","","","",""
"27-037-0020","Formaldehyde","44.7632293701172","-93.0325469970703","NOT IN A CITY","","INDUSTRIAL","","FHR 420","meanRos_ug_m3","No","No Trend","Minnesota","Rosemount","Rural","Flint Hills Refinery 420","No","Formaldehyde","1.58021528882392","2.13779544438524","2.45680024973669","1.63448761223719","1.36219230821197","1.45277393715722","1.95897479077517","2.31996598890272","1.96787309425849","2.23185660747381","2.04424721902272","1.79294905218027","1.87208232581615","2.17038987576962","2.22074059873331","","",""
"27-037-0423","Formaldehyde","44.7755317687988","-93.06298828125","Rosemount","","INDUSTRIAL","","FHR 423","meanRos_ug_m3","No","No Trend","Minnesota","Inver Grove Heights (RR name Inver Grove)","Rural","Flint Hills Refinery 423","No","Formaldehyde","1.12635921333965","0.988538863984021","2.31846246254026","1.74978644806042","1.20198134734169","1.26691849839013","1.34126530966516","1.8117312622852","1.9157849965351","1.99617765843868","1.47803217406366","1.75336051290318","1.71454408602281","1.6781089592863","2.38412604928017","","",""
"27-037-0441","Formaldehyde","44.7467994689941","-93.0261077880859","Rosemount","","INDUSTRIAL","","FHR 441","meanRos_ug_m3","No","Undetermined","Minnesota","Rosemount","Rural","Flint Hills Refinery 441","No","Formaldehyde","1.67882074179101","1.37733820088495","2.62474484211797","1.76870872509682","","","","","","","","","","","","","",""
"27-037-0442","Formaldehyde","44.7385711669922","-93.0049591064453","Rosemount","","AGRICULTURAL","","FHR 442","meanRos_ug_m3","No","No Trend","Minnesota","Rosemount","Rural","Flint Hills Refinery 442","No","Formaldehyde","1.12522354129338","0.800589800811569","2.32505058163199","1.34693054358164","1.22167569241987","1.29437160651599","1.37133386780818","1.96158598680965","1.90533597554479","1.9088914933113","1.71278892181538","1.23616330874594","","","","","",""
"27-037-0443","Formaldehyde","44.745662689209","-93.0554122924805","ROSEMOUNT","","INDUSTRIAL","","FHR 443","meanRos_ug_m3","No","No Trend","Minnesota","Rosemount","Rural","Flint Hills Refinery 443","No","Formaldehyde","","","","","","1.40267390454257","1.52450028757254","2.17251638571421","1.88915990096218","1.51503520327456","0.671657663350012","1.51538705421706","1.43865742435058","1.67360087656058","1.7713782052199","","",""
"27-037-0470","Formaldehyde","44.7384605407715","-93.2372512817383","Apple Valley","","RESIDENTIAL","","Apple Valley","meanRos_ug_m3","No","No Trend","Minnesota","Apple Valley","Suburban","Apple Valley","No","Formaldehyde","1.31965704231324","1.03142401980141","2.13992503380234","1.71658890843391","1.33786532315037","1.29058365303057","1.66096514860789","2.22254836360614","1.82486718676307","2.02118675147786","1.94140571135062","1.77807697157065","1.73556585008638","1.7982063571612","1.92350843857075","","",""
"27-053-0050","Formaldehyde","45.0012283325195","-93.2671203613281","Minneapolis","","COMMERCIAL","","NE Fire Station","meanRos_ug_m3","No","Undetermined","Minnesota","Minneapolis","Urban And Center City","Minneapolis Fire Station 2","No","Formaldehyde","1.70653431465228","1.53600865079646","3.09182227167644","2.47635514806893","","","","","","","","","","","","","",""
"27-053-0909","Formaldehyde","45.0121002197266","-93.2766952514648","Minneapolis","","INDUSTRIAL","","Lowry Ave","meanRos_ug_m3","No","Undetermined","Minnesota","Minneapolis","Urban And Center City","Lowry Avenue","No","Formaldehyde","","","","","","","","","","","","","2.81052332910998","3.26604466808253","3.75615832209587","","",""
"27-053-0961","Formaldehyde","44.8755111694336","-93.258918762207","RICHFIELD","","RESIDENTIAL","","RICHFIELD INTERMEDIATE SCHOOL","meanRos_ug_m3","No","No Trend","Minnesota","Richfield","Suburban","Richfield Intermediate School","No","Formaldehyde","","","","2.41733982061085","1.46491826267869","1.56464098338728","1.88983813480095","2.98902277350426","2.52170651268076","2.76770535340676","2.31396309331972","1.85975077648958","1.81645984103282","2.68612504622032","2.61885559147802","","",""
"27-053-0962","Formaldehyde","44.9652404785156","-93.2547607421875","Minneapolis","","RESIDENTIAL","","Minneapolis Near Roadway NOx","meanRos_ug_m3","No","Undetermined","Minnesota","Minneapolis","Urban And Center City","Near Road I-35/I-94","No","Formaldehyde","","","","","","","","","","","","2.59933812916279","2.85599069297314","2.84800177812576","3.13955426627192","","",""
"27-053-0963","Formaldehyde","44.9536590576172","-93.2582092285156","Minneapolis","","RESIDENTIAL","","HC Anderson School","meanRos_ug_m3","No","No Trend","Minnesota","Minneapolis","Urban And Center City","Andersen School","No","Formaldehyde","1.54011977009349","2.19298598684114","3.00656148031646","2.08920323995293","1.48771071395618","1.55440231112012","2.31152377227942","2.52295323180371","2.10786080697797","2.48974279027719","2.74505948468491","2.43528154591719","2.12441460688909","2.46133650171346","2.8320195469363","","",""
"27-053-0964","Formaldehyde","44.8885498046875","-93.1953735351563","NOT IN A CITY","","COMMERCIAL","","MSP AIRPORT","meanRos_ug_m3","No","Undetermined","Minnesota","Not in a city","Suburban","MSP Airport","No","Formaldehyde","2.05778199629705","","","","","","","","","","","","","","","","",""
"27-053-0965","Formaldehyde","45.0044784545898","-93.2400436401367","Minneapolis","","RESIDENTIAL","","Putnam School","meanRos_ug_m3","No","Undetermined","Minnesota","Minneapolis","Urban And Center City","Putnam Elementary School","No","Formaldehyde","1.74344404875222","1.84356806001493","2.78828838511425","2.18367075817338","","","","","","","","","","","","","",""
"27-053-0966","Formaldehyde","44.9794387817383","-93.2661285400391","Minneapolis","","COMMERCIAL","","UATMP: MIMN; City of Lakes Bldg","meanRos_ug_m3","No","Increasing","Minnesota","Minneapolis","Urban And Center City","City of Lakes Building","No","Formaldehyde","1.30653557695191","1.27669231924746","2.5263001239962","1.99580542474497","1.62310554772989","1.76725241701518","2.26827140450478","2.63204123865474","2.23507159948349","2.47652749688018","2.29229851984061","2.56082970102628","2.16212552179725","2.7689599283671","2.78096694165263","","",""
"27-053-0968","Formaldehyde","44.8930053710938","-93.2332305908203","MINNEAPOLIS","","COMMERCIAL","","MSP Airport 968","meanRos_ug_m3","No","Undetermined","Minnesota","Minneapolis","Urban And Center City","Metropolitan Airports Commission","No","Formaldehyde","","","2.62158445892009","2.23031807492177","","","","","","","","","","","","","",""
"27-053-0969","Formaldehyde","44.9005699157715","-93.23828125","MINNEAPOLIS","","RESIDENTIAL","","WENONAH SCHOOL","meanRos_ug_m3","No","No Trend","Minnesota","Minneapolis","Suburban","Wenonah Elementary School","No","Formaldehyde","","","3.1319705148538","1.85024368663629","1.20080793076407","1.30960193036922","2.55083720334645","","","","","","","","","","",""
"27-053-1007","Formaldehyde","45.0397186279297","-93.2987365722656","Minneapolis","","RESIDENTIAL","","Humboldt Ave","meanRos_ug_m3","No","Increasing","Minnesota","Minneapolis","Suburban","Humboldt Avenue","No","Formaldehyde","1.33775162125627","1.17959766489054","2.61089584218305","2.08331852848247","1.38388015133962","1.46112793324323","1.44684295223228","2.78676939552481","2.51461859007139","2.35819680874164","2.22397541337543","2.33567294629954","2.09030172537113","2.37954242626826","2.68055416163752","","",""
"27-053-1909","Formaldehyde","45.0136108398438","-93.2720489501953","Minneapolis","","COMMERCIAL","","Bottineau / Marshall Terrace","meanRos_ug_m3","No","Undetermined","Minnesota","Minneapolis","Urban And Center City","Bottineau / Marshall Terrace","No","Formaldehyde","","","","","","","","","","","","","","","3.16689160102751","","",""
"27-053-2006","Formaldehyde","44.9480514526367","-93.343147277832","ST LOUIS PARK","","RESIDENTIAL","","St. Louis Park","meanRos_ug_m3","No","No Trend","Minnesota","St. Louis Park","Suburban","St. Louis Park City Hall","No","Formaldehyde","","","","","","1.43766403885988","2.19887612299486","2.2827440138723","2.13042423129082","2.10677193678342","2.13779171785483","2.35400247176488","2.13965166675842","2.11228953103224","2.53858847401359","","",""
"27-075-0005","Formaldehyde","47.9486236572266","-91.4955749511719","NOT IN A CITY","","UNKNOWN","","Fernberg Road","meanRos_ug_m3","No","Undetermined","Minnesota","Not in a city","Rural","Boundary Waters","No","Formaldehyde","","","","","","","","1.17514740049839","","","","","","","","","",""
"27-095-3051","Formaldehyde","46.2052993774414","-93.7594528198242","ONAMIA","","FOREST","","Mille Lacs","meanRos_ug_m3","No","Undetermined","Minnesota","Onamia","Rural","Mille Lacs Band","No","Formaldehyde","","","","","","","","","","1.51081040203571","","","","","","","",""
"27-123-0017","Formaldehyde","44.9441337585449","-93.0651245117188","SAINT PAUL","","INDUSTRIAL","","Holman Field","meanRos_ug_m3","No","Undetermined","Minnesota","St. Paul","Suburban","Holman Field","No","Formaldehyde","1.61274981401006","1.45469119665878","2.62326174881309","2.31744767397137","","","","","","","","","","","","","",""
"27-123-0021","Formaldehyde","44.9655494689941","-93.0568389892578","SAINT PAUL","","COMMERCIAL","","Ross Avenue","meanRos_ug_m3","No","Undetermined","Minnesota","St. Paul","Urban And Center City","Ross Avenue","No","Formaldehyde","1.54004098804759","1.45803887696968","2.17087200110586","","","","","","","","","","","","","","",""
"27-123-0868","Formaldehyde","44.9507217407227","-93.0982666015625","SAINT PAUL","","COMMERCIAL","","Ramsey Health Center","meanRos_ug_m3","No","Increasing","Minnesota","St. Paul","Urban And Center City","Ramsey Health Center","No","Formaldehyde","","","","","1.68666849046773","1.69026458210179","2.53421440830937","2.87195771225428","2.26282021782615","2.58935632613989","2.55306374695566","2.6144304215908","2.51679122953092","3.06438933792761","3.13224974700383","","",""
"27-123-0871","Formaldehyde","44.9593887329102","-93.0358734130859","SAINT PAUL","","RESIDENTIAL","","Harding High School","meanRos_ug_m3","No","No Trend","Minnesota","St. Paul","Suburban","Harding High School","No","Formaldehyde","","","","","","1.20583914690896","2.00717599614192","2.28487833409474","2.18341365243707","2.69699742931586","2.17461357734821","2.19247937546327","2.35837119190316","2.17100673105757","2.07710218032201","","",""
"27-123-1908","Formaldehyde","44.9730949401855","-93.1998825073242","SAINT PAUL","","RESIDENTIAL","","South St. Anthony Park","meanRos_ug_m3","No","Undetermined","Minnesota","St. Paul","Urban And Center City","South St. Anthony Park","No","Formaldehyde","","","","","","","","","","","","","","2.81469191535045","","","",""
"27-137-7549","Formaldehyde","46.771068572998","-92.117317199707","Duluth","","INDUSTRIAL","","Michigan St.","meanRos_ug_m3","No","Increasing","Minnesota","Duluth","Urban And Center City","Michigan Street","No","Formaldehyde","1.05490098738422","0.91989683745695","1.83716886016456","1.4727604500318","1.19680215357924","1.16876527806637","1.41314027458429","2.25438891197073","2.30305148909489","2.3617847379373","1.75906415196026","1.7991599804264","1.62255207937339","1.56997752035486","2.04887448889869","","",""
"27-163-0436","Formaldehyde","44.8473701477051","-92.9953994750977","SAINT PAUL","","INDUSTRIAL","","MPC 436","meanRos_ug_m3","No","No Trend","Minnesota","St. Paul Park","Suburban","Saint Paul Park Refinery 436","No","Formaldehyde","1.53439892045522","1.21642026863992","2.11605336249999","2.02134807818923","1.80420729857199","1.80910847241228","2.83240935632161","2.28292240767643","2.38881495382105","3.2093840023646","2.7353394481371","1.94719591488441","1.78253754151279","2.01850351790587","2.21473198533058","","",""
"27-163-0438","Formaldehyde","44.8571090698242","-93.0035171508789","Newport","","INDUSTRIAL","","MPC 438","meanRos_ug_m3","No","Increasing","Minnesota","Newport","Suburban","Saint Paul Park Refinery 438","No","Formaldehyde","1.45355412168581","1.10196593482243","2.62357755674649","1.8924396187067","1.48336882099571","1.52981212735176","1.89925917784373","2.21728875402544","2.18767663023689","2.87040482576077","2.18434119674395","2.24232471191277","2.40647861209966","2.27752922349057","2.34052484199919","","",""
"27-163-0445","Formaldehyde","45.0187606811523","-92.7802734375","BAYPORT","","RESIDENTIAL","","Anderson School","meanRos_ug_m3","No","Undetermined","Minnesota","Bayport","Suburban","Anderson School","No","Formaldehyde","","","","","1.31400240572015","","","","","","","","","","","","",""
"27-163-0446","Formaldehyde","45.0279808044434","-92.7741470336914","Bayport","","INDUSTRIAL","","Point Rd.","meanRos_ug_m3","No","No Trend","Minnesota","Bayport","Suburban","Point Road","No","Formaldehyde","","","","","","1.18502135168422","2.01818557219072","1.87243347000657","1.48541227041506","1.71978050587224","1.75867542916653","1.59764284905741","1.50388359203935","1.65181725380713","1.78945606267243","","",""
"28-043-0001","Formaldehyde","33.8344421386719","-89.7927780151367","Grenada","","AGRICULTURAL","","UATMP: GRMS","meanRos_ug_m3","No","Undetermined","Mississippi","Grenada","Rural","Grenada","No","Formaldehyde","","2.87015834142422","","","","","","","","","","","","","","","",""
"28-047-0008","Formaldehyde","30.3903694152832","-89.0497817993164","Gulfport","","COMMERCIAL","","UATMP: GPMS; Katrina: GPMS; BP Oil site GPMS","meanRos_ug_m3","No","Undetermined","Mississippi","Gulfport","Rural","Gulfport Youth Court","No","Formaldehyde","1.79095664819082","1.13537093737851","","2.93719125129807","2.55895182298076","","","","","","","","","","","","",""
"28-049-0010","Formaldehyde","32.3857307434082","-90.1411972045898","Jackson","","COMMERCIAL","","UATMP: JAMS","meanRos_ug_m3","No","Undetermined","Mississippi","Jackson","Suburban","Jackson FS19","No","Formaldehyde","2.65804218115478","0.801566885541315","","","","","","","","","","","","","","","",""
"28-059-0006","Formaldehyde","30.3782863616943","-88.5339279174805","Pascagoula","","COMMERCIAL","","UATMP: PGMS; Katrina: PGMS","meanRos_ug_m3","No","Undetermined","Mississippi","Pascagoula","Urban And Center City","Pascagoula","No","Formaldehyde","3.03055024339307","","","","","","","","","","","","","","","","",""
"28-081-0005","Formaldehyde","34.2649154663086","-88.7662200927734","Tupelo","","COMMERCIAL","","UATMP: TUMS; Katrina: TUMS","meanRos_ug_m3","No","No Trend","Mississippi","Tupelo","Suburban","TUPELO AIRPORT NEAR OLD NWS OFFICE","No","Formaldehyde","2.41884139180183","1.53495222985744","1.14785529989185","1.57987028897786","3.19381470001977","","","","","","","","","","","","",""
"29-186-0005","Formaldehyde","37.9008407592773","-90.4238815307617","Bonne Terre","","AGRICULTURAL","","UATMP: BTMO","meanRos_ug_m3","No","Undetermined","Missouri","Not in a city","Rural","Bonne Terre","No","Formaldehyde","4.33608823992801","","","","","","","","","","","","","","","","",""
"29-510-0087","Formaldehyde","38.6428565979004","-90.18505859375","SAINT LOUIS","","INDUSTRIAL","","SLCI PM25 SITE LOCATED AT 2ND & MOUND STREET.","meanRos_ug_m3","No","No Trend","Missouri","St. Louis","Urban And Center City","SLCI PM25 SITE LOCATED AT 2ND & MOUND STREET.","No","Formaldehyde","","","5.86872402833605","2.74943970722119","5.04155395727544","4.29498730297563","6.9181999037385","10.5182228696096","","","","","","","","","",""
"29-510-0089","Formaldehyde","38.6018295288086","-90.2328872680664","SAINT LOUIS","","RESIDENTIAL","","UATMP: SLMO","meanRos_ug_m3","No","Undetermined","Missouri","St. Louis","Urban And Center City","UATMP: SLMO","No","Formaldehyde","5.15566145181656","","","","","","","","","","","","","","","","",""
"33-011-0020","Formaldehyde","42.995777130127","-71.4625244140625","Manchester","","COMMERCIAL","","PEARL ST MUNICIPAL PARKING LOT","meanRos_ug_m3","No","Undetermined","New Hampshire","Manchester","Urban And Center City","PEARL ST MUNICIPAL PARKING LOT","No","Formaldehyde","3.77267683545748","2.50669178996107","4.13920688033104","","","","","","","","","","","","","","",""
"33-013-1003","Formaldehyde","43.177303314209","-71.4620132446289","Pembroke","","RESIDENTIAL","","","meanRos_ug_m3","No","Undetermined","New Hampshire","Pembroke","Rural","","No","Formaldehyde","4.91779530253904","","","","","","","","","","","","","","","","",""
"33-013-1006","Formaldehyde","43.1324615478516","-71.4582443237305","Pembroke","","RESIDENTIAL","","PEMBROKE HIGHWAY DEPARTMENT","meanRos_ug_m3","No","Undetermined","New Hampshire","Suncook","Suburban","PEMBROKE HIGHWAY DEPARTMENT","No","Formaldehyde","5.68302750190099","","","","","","","","","","","","","","","","",""
"33-015-0014","Formaldehyde","43.0753707885742","-70.7480163574219","Portsmouth","","RESIDENTIAL","","PORTSMOUTH - PEIRCE ISLAND","meanRos_ug_m3","No","Undetermined","New Hampshire","Portsmouth","Urban And Center City","PORTSMOUTH - PEIRCE ISLAND","No","Formaldehyde","6.91927741403165","4.45234069639239","3.35608456631501","","","","","","","","","","","","","","",""
"33-019-0003","Formaldehyde","43.3645172119141","-72.3378677368164","Claremont","","RESIDENTIAL","","","meanRos_ug_m3","No","Undetermined","New Hampshire","Claremont","Urban And Center City","","No","Formaldehyde","3.06751081148783","2.4274314727102","3.79718240549167","","","","","","","","","","","","","","",""
"34-007-0002","Formaldehyde","39.9344444274902","-75.1252899169922","Camden","","INDUSTRIAL","","UATMP: CSNJ; Camden Spruce Street","meanRos_ug_m3","No","No Trend","New Jersey","Camden","Urban And Center City","Camden Spruce Street","No","Formaldehyde","","","","","","","","","","","5.09774307073173","4.59824722607931","3.65032051377377","4.20281282265981","4.01786285133685","2.92155254160364","2.95321501534561","3.88991377209172"
"34-007-0003","Formaldehyde","39.9230422973633","-75.0976181030273","Camden","","RESIDENTIAL","","UATMP: CANJ","meanRos_ug_m3","No","No Trend","New Jersey","Camden","Suburban","CAMDEN LAB","No","Formaldehyde","0.563592957282389","8.35821224390887","4.39050026156686","3.60265271914633","3.87478800823814","3.43245582967191","","","","","","","","","","","",""
"34-023-0006","Formaldehyde","40.4728240966797","-74.4224014282227","NOT IN A CITY","","AGRICULTURAL","","UATMP: NBNJ","meanRos_ug_m3","No","No Trend","New Jersey","North Brunswick Township","Rural","New Brunswick","No","Formaldehyde","3.27939099424026","6.09569391759775","5.51097039929752","2.69089138429004","2.22520155007722","1.53874573005097","2.62982985377312","1.7040765745598","2.76876363350499","1.88235935072104","2.30248268477378","","3.39149101204791","","","","",""
"34-023-0011","Formaldehyde","40.4621810913086","-74.4294357299805","NOT IN A CITY","","AGRICULTURAL","","Rutgers University","meanRos_ug_m3","No","No Trend","New Jersey","East Brunswick (Township of)","Rural","Rutgers University","No","Formaldehyde","","","","","","","","","","","","","","2.51543519000212","1.86566924055417","2.51093915575429","1.85829935570558","1.6752554935378"
"34-027-3001","Formaldehyde","40.7876281738281","-74.6763000488281","NOT IN A CITY","","AGRICULTURAL","","UATMP: CHNJ","meanRos_ug_m3","Yes","Decreasing","New Jersey","Chester","Rural","Chester","No","Formaldehyde","3.20143783349415","3.4413011625961","2.46095230513149","1.92263735060034","2.36936978535219","2.28760373001469","2.45003474752108","1.63637385125888","2.37632372828781","2.48062247662775","2.15585848640223","2.0924875408411","","2.21999284178019","1.95913908878962","2.07105506215056","2.36190565410307","1.3905862076208"
"34-039-0004","Formaldehyde","40.6414413452148","-74.208366394043","Elizabeth","","INDUSTRIAL","","UATMP: ELNJ; NADP: NJ54","meanRos_ug_m3","Yes","No Trend","New Jersey","Elizabeth","Suburban","Elizabeth Lab","No","Formaldehyde","4.09815427135019","4.76077660059525","4.892966457208","4.59040144338446","4.83864907707487","3.31714850772511","3.91184819721785","4.58738851749291","3.55642062914176","4.00169172247902","5.05186134088235","4.6001491859311","4.49605472286542","4.58475720296141","3.95429435909772","4.09638509750366","3.59069790214789","3.08435766233338"
"35-045-5501","Formaldehyde","36.736328125","-108.417373657227","Fruitland","","AGRICULTURAL","","Nenahnezad, NM school (Nenmsch)","meanRos_ug_m3","No","Undetermined","New Mexico","Not in a city","Rural","Nenahnezad, NM school (Nenmsch)","No","Formaldehyde","","","","","","","","","2.99852889915928","","","","","","","","",""
"36-001-0013","Formaldehyde","42.6409301757813","-73.7565078735352","Albany","","RESIDENTIAL","","S. Pearl Street","meanRos_ug_m3","No","No Trend","New York","Not in a city","Urban And Center City","S. Pearl Street","No","Formaldehyde","","","","","","","","","","","","","2.64370650952717","2.16151112415751","2.28053806797933","2.43797311968491","2.20539278988955","1.79079770015346"
"36-005-0083","Formaldehyde","40.8658485412598","-73.8808288574219","New York City","","COMMERCIAL","","UATMP: BXNY","meanRos_ug_m3","No","Undetermined","New York","New York","Urban And Center City","BOTANICAL GARDEN","No","Formaldehyde","","2.00615793925065","1.46442764239353","2.38312714803414","","","","","","","","","","","","","",""
"36-005-0133","Formaldehyde","40.8679008483887","-73.8780899047852","NEW YORK CITY","","COMMERCIAL","","PFIZER LAB SITE; NADP: NY06","meanRos_ug_m3","No","No Trend","New York","New York","Urban And Center City","PFIZER LAB SITE","No","Formaldehyde","","","","","2.09529153876385","2.27468777298927","2.0081615322166","2.61320052039152","1.95414252115621","2.66908206716616","2.34944387276967","2.71444093485673","2.86174430118667","2.16800516599514","2.19962105603628","2.89036298156436","3.07564009278198","2.3479727564872"
"36-029-0023","Formaldehyde","42.9211082458496","-78.7658233642578","Cheektowaga","","MOBILE","","Buffalo Near-Road","meanRos_ug_m3","No","No Trend","New York","Cheektowaga","Urban And Center City","Buffalo Near-Road","No","Formaldehyde","","","","","","","","","","","","","2.61866753038607","2.40477607577184","2.25594407825147","2.02215167681376","1.76415268759258","2.05233222148457"
"36-029-1013","Formaldehyde","42.9884414672852","-78.918586730957","Tonawanda","","INDUSTRIAL","","UATMP: TONY; GRAND ISLE BOULDVARD","meanRos_ug_m3","No","Increasing","New York","Tonawanda","Urban And Center City","GRAND ISLE BOULDVARD","No","Formaldehyde","","","","","","1.66234911824095","1.3555924514084","1.38801694386884","1.27825051262265","2.04800125834538","1.99421545589107","3.0272679585835","2.12900042141756","4.56013889305079","1.8164988492356","2.14272109266178","",""
"36-029-1014","Formaldehyde","42.9981307983398","-78.8992614746094","Tonawanda","","RESIDENTIAL","","BROOKSIDE TERRACE","meanRos_ug_m3","No","No Trend","New York","Tonawanda","Suburban","BROOKSIDE TERRACE","No","Formaldehyde","","","","","","1.65725254385095","1.31475083496835","1.4437507422907","1.33114368141743","2.48523623929467","","","5.61244343817234","2.26670588951122","","2.03737369908227","1.40833822277481","2.6364031776053"
"36-031-0003","Formaldehyde","44.3930816650391","-73.8589019775391","SUNY","","FOREST","","WHITEFACE BASE","meanRos_ug_m3","Yes","No Trend","New York","Not in a city","Rural","WHITEFACE BASE","No","Formaldehyde","","","0.400852694495202","4.29296787151097","1.11632335384687","0.946883900732291","0.811469408598813","0.988148658970992","0.966045097823729","1.11582405555923","1.13045716109365","0.859992201757519","1.1584473782219","1.82960029247037","1.12706896767282","1.05727395374667","1.63779529687017","1.00395226212484"
"36-055-0015","Formaldehyde","43.1450119018555","-77.5572814941406","Rochester","","MOBILE","","Rochester Near-Road","meanRos_ug_m3","No","No Trend","New York","Rochester","Urban And Center City","Rochester Near-Road","No","Formaldehyde","","","","","","","","","","","","","3.34954295371627","2.72324464321136","1.63485154753826","2.55609151025613","1.87418963393923","1.90808191358066"
"36-061-0077","Formaldehyde","40.7562294006348","-73.9765701293945","NEW YORK CITY","","COMMERCIAL","","MIDTOWN","meanRos_ug_m3","No","Undetermined","New York","New York","Urban And Center City","MADISON AVE","No","Formaldehyde","","","3.18353666633856","2.78144002998514","3.12845684734045","4.15827432516459","","","","","","","","","","","",""
"36-063-7001","Formaldehyde","43.0963745117188","-79.0114440917969","Niagara Falls","","RESIDENTIAL","","Packard Court Community Center","meanRos_ug_m3","No","Undetermined","New York","Niagara Falls","Suburban","Packard Court Community Center","No","Formaldehyde","","","","","","","","","","","","","","","1.40035888090216","1.88685161784544","1.516664116109","1.37692093365901"
"36-081-0124","Formaldehyde","40.736141204834","-73.821533203125","New York City","","COMMERCIAL","","PM Supersite: Queensborough","meanRos_ug_m3","Yes","Increasing","New York","New York","Urban And Center City","QUEENS COLLEGE 2","No","Formaldehyde","","","2.81808408478211","2.50965074797471","2.20984990921888","2.41892372739726","2.14756762981415","2.60420370002588","1.99292031462703","2.41237497112968","3.30528054705688","2.18867248296738","4.47941539486249","3.08561917245388","4.82886090593518","3.28364341767108","2.92243298029496","2.77956365687507"
"36-081-0125","Formaldehyde","40.7392654418945","-73.8176956176758","Flushing","","MOBILE","","Queens College Near Road","meanRos_ug_m3","No","Undetermined","New York","New York","Urban And Center City","Queens College Near Road","No","Formaldehyde","","","","","","","","","","","","","","","3.74054842704051","3.29591359122325","2.92981961516083","3.50891305804253"
"36-085-0106","Formaldehyde","40.5781097412109","-74.1843032836914","New York City","","INDUSTRIAL","","UNLOADING ZONE FRESHKILLLS LANDFILL","meanRos_ug_m3","No","Undetermined","New York","New York","Urban And Center City","UNLOADING ZONE FRESHKILLLS LANDFILL","No","Formaldehyde","2.4877730453653","","","","","","","","","","","","","","","","",""
"36-085-0111","Formaldehyde","40.5802688598633","-74.1983184814453","New York City","","COMMERCIAL","","FRESHKILLS WEST","meanRos_ug_m3","Yes","No Trend","New York","New York","Suburban","FRESHKILLS WEST","No","Formaldehyde","2.90061006242154","","6.35055703343007","2.28214628355844","2.75451621906074","2.55514188439159","17.749608039856","9.12990170021852","2.52711227227902","2.38365100882947","2.36405850413553","2.01211056440068","2.5606523906546","2.84646545379455","2.911003427072","2.50245182267551","2.66137642743158","2.35558289080335"
"36-085-0131","Formaldehyde","40.5880584716797","-74.1688232421875","New York City","","INDUSTRIAL","","FRESHKILLS EAST","meanRos_ug_m3","No","Undetermined","New York","New York","Urban And Center City","FRESHKILLS EAST","No","Formaldehyde","3.88655170927904","","","","","","","","","","","","","","","","",""
"36-085-0132","Formaldehyde","40.5805587768555","-74.1517791748047","New York City","","COMMERCIAL","","LATOURETTE GOLF COURSE","meanRos_ug_m3","No","No Trend","New York","New York","Suburban","LATOURETTE GOLF COURSE","No","Formaldehyde","","","10.8105845586309","4.98268338542242","1.53046396926597","2.56737947675024","2.24446473519007","3.746280505107","3.22640944746408","1.96386803029215","","","","","","","",""
"36-103-0044","Formaldehyde","40.9610176086426","-73.139045715332","Old Field","","RESIDENTIAL","","Flax Pond","meanRos_ug_m3","No","Undetermined","New York","Old Field","Rural","Flax Pond","No","Formaldehyde","","","","","","","","","","","","","","","","","1.72049117684364",""
"37-021-0035","Formaldehyde","35.5722198486328","-82.5588912963867","ASHEVILLE","","COMMERCIAL","","AB Tech","meanRos_ug_m3","No","Undetermined","North Carolina","Asheville","Suburban","AB Tech","No","Formaldehyde","","","","","3.42896854029647","2.86236366858849","2.07235749783339","","","","","","","","","","",""
"37-063-0014","Formaldehyde","35.8928680419922","-78.8764419555664","DURHAM","","COMMERCIAL","","UATMP: RTPNC; NADP: NC99","meanRos_ug_m3","No","Undetermined","North Carolina","Not in a city","Suburban","UATMP: RTPNC; NADP: NC99","No","Formaldehyde","","","1.56115493399126","3.07564070534248","3.01898450201208","5.52495768795843","","","","","","","","","","","",""
"37-067-0022","Formaldehyde","36.1106948852539","-80.2264404296875","WINSTON-SALEM","","RESIDENTIAL","","Hattie Avenue","meanRos_ug_m3","No","Undetermined","North Carolina","Winston-Salem","Urban And Center City","Hattie Avenue","No","Formaldehyde","","","","","3.89480075736841","3.04410807652907","2.78394595476297","","","","","","","","","","",""
"37-105-0002","Formaldehyde","35.4324989318848","-79.2886962890625","Sanford","","AGRICULTURAL","","Blackstone","meanRos_ug_m3","No","No Trend","North Carolina","Sanford","Rural","Blackstone","No","Formaldehyde","","","","","","","","","","","","1.86183390412174","2.47297935883204","2.5848200271527","2.46502860208027","2.60620734861919","",""
"37-119-0041","Formaldehyde","35.2401008605957","-80.7856826782227","Charlotte","","RESIDENTIAL","","Garinger High School","meanRos_ug_m3","No","Undetermined","North Carolina","Charlotte","Urban And Center City","Garinger High School","No","Formaldehyde","","","","","","4.25918715615426","3.66880037044657","","","","","","","","","","",""
"37-123-0001","Formaldehyde","35.2631988525391","-79.8366165161133","Candor","","FOREST","","UATMP: CANC","meanRos_ug_m3","No","No Trend","North Carolina","Candor","Rural","Candor: EPA CASTNet Site","No","Formaldehyde","","1.93027371292313","1.18845649760354","2.12607285036491","2.31049971372165","2.31273720798821","","","","","","1.91450826293331","2.34293381646276","2.41406744917234","2.35144777943691","2.42178127271134","2.20588508346042","1.78485326762082"
"37-129-0010","Formaldehyde","34.2358283996582","-77.9546966552734","WILMINGTON","","AGRICULTURAL","","BATTLESHIP","meanRos_ug_m3","No","Undetermined","North Carolina","Wilmington","Rural","Eagles Island","No","Formaldehyde","","","","","2.34307285745939","1.83484383081568","1.65800027285927","","","","","","","","","","",""
"37-183-0014","Formaldehyde","35.8561096191406","-78.5741653442383","RALEIGH","","RESIDENTIAL","","Millbrook Middle School","meanRos_ug_m3","No","No Trend","North Carolina","Raleigh","Suburban","Millbrook School","No","Formaldehyde","","","","","3.57958943128586","","2.5308181003288","","","","","2.50608086933692","3.02338805496693","3.06871034850677","3.25822332912478","2.77468813409408","3.1756549650623","2.46418128571203"
"39-049-0034","Formaldehyde","40.0027351379395","-82.9944076538086","Columbus","","COMMERCIAL","","UATMP: COOH","meanRos_ug_m3","No","Undetermined","Ohio","Columbus","Urban And Center City","Fairgrounds","No","Formaldehyde","","","","","","2.90541164144393","","","","","","","","","","","",""
"40-017-0101","Formaldehyde","35.4792137145996","-97.7515029907227","Yukon","","COMMERCIAL","","UATMP: YUOK; OKC WEST-(YUKON)","meanRos_ug_m3","No","No Trend","Oklahoma","Yukon","Suburban","OKC WEST-(YUKON)","No","Formaldehyde","","","","","","","","","","","","2.85690100466619","2.6329799698571","2.55822418849976","2.96677224716898","3.41315772204564","3.15943284034729",""
"40-051-0065","Formaldehyde","34.8770637512207","-97.7078018188477","BRADLEY","","RESIDENTIAL","","","meanRos_ug_m3","No","Undetermined","Oklahoma","Bradley","Rural","","No","Formaldehyde","","","","","","","","","","","","","4.8023230060935","2.02122120559216","","","",""
"40-097-0187","Formaldehyde","36.2929420471191","-95.3034057617188","PRYOR","","INDUSTRIAL","","UATMP: PROK","meanRos_ug_m3","No","Undetermined","Oklahoma","Pryor Creek (corporate name for Pryor)","Suburban","UATMP: PROK","No","Formaldehyde","","","","","","","7.91384914040566","2.61558589935303","3.79177523892501","3.51456540238624","","","","","","","",""
"40-109-0041","Formaldehyde","35.4376411437988","-97.3872528076172","MIDWEST CITY","","COMMERCIAL","","UATMP:MWOK","meanRos_ug_m3","No","Undetermined","Oklahoma","Midwest City","Urban And Center City","UATMP:MWOK","No","Formaldehyde","","","","","","","2.5481178065141","2.48485408524672","3.89967083079474","","","","","","","","",""
"40-109-0042","Formaldehyde","35.3803176879883","-97.4057235717773","Oklahoma City","","COMMERCIAL","","UATMP: ADOK","meanRos_ug_m3","No","Undetermined","Oklahoma","Oklahoma City","Urban And Center City","ADOK","No","Formaldehyde","","","","","","","","","","2.98637819387874","","","","","","","",""
"40-109-0097","Formaldehyde","35.5030708312988","-97.5779800415039","Oklahoma City","","COMMERCIAL","","Near Road","meanRos_ug_m3","No","Undetermined","Oklahoma","Oklahoma City","Urban And Center City","Near Road","No","Formaldehyde","","","","","","","","","","","","","","3.51674889420208","3.3907398879528","3.55111809153306","3.6603044854558",""
"40-109-1037","Formaldehyde","35.6141319274902","-97.4750823974609","OKLAHOMA CITY","","RESIDENTIAL","","UATMP: OCOK","meanRos_ug_m3","No","No Trend","Oklahoma","Oklahoma City","Suburban","OKC NORTH","No","Formaldehyde","","","","","","","2.71891894019567","2.42436348547538","3.89278438836336","3.37495017647743","2.57374507579647","2.5515255043904","3.05584330062071","2.63678234418233","2.78846321340467","3.48846289118131","2.74551839530468","2.82459666927656"
"40-121-0417","Formaldehyde","34.8853302001953","-95.9488983154297","HAYWOOD","","RESIDENTIAL","","Haywood Toxics","meanRos_ug_m3","No","Undetermined","Oklahoma","Not in a city","Rural","Haywood Toxics","No","Formaldehyde","","","","","","","","","","","","","","","","2.13296759465955","2.11152147704905",""
"40-143-0172","Formaldehyde","36.1645278930664","-95.985481262207","TULSA","","RESIDENTIAL","","UATMP: TSOK","meanRos_ug_m3","No","Undetermined","Oklahoma","Tulsa","Suburban","EMMERSON SCHOOL","No","Formaldehyde","","","","","2.9999357441376","2.79230926531117","","","","","","","","","","","",""
"40-143-0179","Formaldehyde","36.1548309326172","-96.0158462524414","Tulsa","","INDUSTRIAL","","UATMP: TROK","meanRos_ug_m3","No","No Trend","Oklahoma","Tulsa","Urban And Center City","UATMP: TROK","No","Formaldehyde","","","","","","","","","","","2.75944339349622","2.7750946302883","2.64590547347473","2.88910133525973","2.64444906105761","2.91712884043084","2.9964829363474",""
"40-143-0191","Formaldehyde","36.1416969299316","-95.9837951660156","TULSA","","RESIDENTIAL","","UATMP: TUOK","meanRos_ug_m3","No","Undetermined","Oklahoma","Tulsa","Urban And Center City","CINCINNATI","No","Formaldehyde","","","","","3.23809221044916","2.74463907354756","","","","","","","","","","","",""
"40-143-0235","Formaldehyde","36.1269454956055","-95.9989395141602","TULSA","","INDUSTRIAL","","UATMP: TOOK","meanRos_ug_m3","No","No Trend","Oklahoma","Tulsa","Urban And Center City","CENTER OF PARKING LOT OF PUBLIC WORKS BUILDING 1/4 MI N OF SINCLAIR","No","Formaldehyde","","","","3.65643512254412","2.98961850658792","2.95109253057412","2.71862356797341","3.111350736022","3.67663859256676","3.38345515141722","2.85954685777914","2.93694372353007","2.81197160879771","3.3005767435324","2.90387788561524","3.42755477545691","2.82317656993866","3.21817579577046"
"40-143-1127","Formaldehyde","36.2049026489258","-95.9765396118164","Tulsa","Tulsa, OK","RESIDENTIAL","Urban","UATMP: TMOK","meanRos_ug_m3","No","Decreasing","Oklahoma","Tulsa","Urban And Center City","NORTH TULSA - FIRE STATION#24","No","Formaldehyde","","","","","","","3.43778051303493","3.33746589124203","3.85629607028649","3.58241945404117","3.19785284018907","3.41895537991678","2.69840965270996","3.12991905609767","2.40238657388194","2.89556488150456","2.7420679027917","2.59786132170308"
"41-009-0004","Formaldehyde","45.7685317993164","-122.772102355957","NOT IN A CITY","","AGRICULTURAL","","SAUVIE ISLAND-SIS","meanRos_ug_m3","No","Undetermined","Oregon","Not in a city","Rural","SAUVIE ISLAND-SIS","No","Formaldehyde","","","","","1.23075105622411","","","","","","","","","","","","",""
"41-029-0133","Formaldehyde","42.3141098022461","-122.87922668457","MEDFORD","","RESIDENTIAL","","Medford - Grant & Belmont Sts. (MGB)","meanRos_ug_m3","No","Undetermined","Oregon","Medford","Urban And Center City","Medford - Grant & Belmont Sts. (MGB)","No","Formaldehyde","","","","","","2.36807379520164","2.13746817132174","1.66129430471841","","","","","","","","","",""
"41-029-1001","Formaldehyde","42.5359573364258","-122.876152038574","CENTRAL POINT","","AGRICULTURAL","","","meanRos_ug_m3","No","Undetermined","Oregon","Central Point","Rural","","No","Formaldehyde","","","","","","1.83155442625284","","","","","","","","","","","",""
"41-029-2129","Formaldehyde","42.3315505981445","-122.880264282227","Medford","","RESIDENTIAL","","Medford, Welch and Jackson.","meanRos_ug_m3","No","Undetermined","Oregon","Medford","Urban And Center City","Medford, Welch and Jackson.","No","Formaldehyde","","","","","","","","","","3.2040197871766","","","","","","","3.57253937778019","3.28356041741926"
"41-035-0004","Formaldehyde","42.1902961730957","-121.731369018555","Klamath Falls","","RESIDENTIAL","","PETERSON ELEM","meanRos_ug_m3","No","Undetermined","Oregon","Altamont","Suburban","Klamath Falls - Peterson School","No","Formaldehyde","","","","","","","","","2.48773352570004","","","","","","","","",""
"41-039-0059","Formaldehyde","44.0672225952148","-123.14134979248","Eugene","","RESIDENTIAL","","Eugene - Hwy 99 (E99)","meanRos_ug_m3","No","Undetermined","Oregon","Eugene","Urban And Center City","Eugene - Hwy 99 (E99)","No","Formaldehyde","","","","","","","","","","","","","","","","1.70655099004507","1.52505169595991","1.79492332571644"
"41-039-0060","Formaldehyde","44.0263137817383","-123.083740234375","Eugene","","RESIDENTIAL","","Eugene - AMAZON PARK (EAP)","meanRos_ug_m3","No","No Trend","Oregon","Eugene","Urban And Center City","Eugene - AMAZON PARK (EAP)","No","Formaldehyde","4.70686507674883","2.89652005411111","1.87227849347892","1.75640114369216","1.49586898720626","1.47677015816724","","1.56765547252837","","","","","","","","1.87795830537111","1.57474380400446","1.54751621957483"
"41-039-0062","Formaldehyde","44.0728988647461","-123.161499023438","EUGENE","","RESIDENTIAL","","","meanRos_ug_m3","No","Undetermined","Oregon","Eugene","Urban And Center City","","No","Formaldehyde","","","","","","","","1.94608444364175","","","","","","","","","",""
"41-047-0041","Formaldehyde","44.943115234375","-123.005935668945","SALEM","","RESIDENTIAL","","Salem - State Hospital","meanRos_ug_m3","No","Undetermined","Oregon","Salem","Urban And Center City","Salem - State Hospital","No","Formaldehyde","","","","","","","1.53204831379955","","","","","","","","","","",""
"41-051-0030","Formaldehyde","45.4974212646484","-122.674667358398","PORTLAND","","RESIDENTIAL","","","meanRos_ug_m3","No","Undetermined","Oregon","Portland","Suburban","","No","Formaldehyde","","","2.17782440208472","","","","","","","","","","","","","","",""
"41-051-0080","Formaldehyde","45.496639251709","-122.602874755859","Portland","","RESIDENTIAL","","Portland - SE Lafayette","meanRos_ug_m3","No","Undetermined","Oregon","Portland","Suburban","Portland - SE Lafayette","No","Formaldehyde","","2.45901040020196","2.15050382467738","","","","","","","","","","","","","","",""
"41-051-0244","Formaldehyde","45.5349998474121","-122.698890686035","Portland","","COMMERCIAL","","UATMP: PNW","meanRos_ug_m3","No","Undetermined","Oregon","Portland","Urban And Center City","SE CORNER OF P.O. PARKING LOT AND SW CORNER OF NEIGHBORING BUILDING","No","Formaldehyde","","2.74356643883687","2.39818727863686","","","","","","","","","","","","","","",""
"41-051-2001","Formaldehyde","45.5771751403809","-122.717750549316","Portland","","RESIDENTIAL","","PNS","meanRos_ug_m3","No","Undetermined","Oregon","Portland","Urban And Center City","PNS","No","Formaldehyde","","","","","","","","","","","","","2.17785923282305","","","","",""
"41-051-2008","Formaldehyde","45.5119857788086","-122.482032775879","Gresham","","RESIDENTIAL","","","meanRos_ug_m3","No","Undetermined","Oregon","Gresham","Suburban","","No","Formaldehyde","","","","","","","","","","","","","","","2.0527085741361","","",""
"41-051-2009","Formaldehyde","45.4626846313477","-122.615097045898","Portland","","RESIDENTIAL","","","meanRos_ug_m3","No","Undetermined","Oregon","Portland","Suburban","","No","Formaldehyde","","","","","","","","","","","","","","","1.99462231000264","","",""
"41-051-2011","Formaldehyde","45.5625","-122.57527923584","Portland","","RESIDENTIAL","","Portland Cully Helensview School (PCH)","meanRos_ug_m3","No","Undetermined","Oregon","Portland","Rural","Portland Cully Helensview School (PCH)","No","Formaldehyde","","","","","","","","","","","","","","","","1.89584474074535","1.68214864787174","1.85599835419049"
"41-065-0008","Formaldehyde","45.5983848571777","-121.184226989746","The Dalles","","RESIDENTIAL","","","meanRos_ug_m3","No","Undetermined","Oregon","City of The Dalles","Rural","","No","Formaldehyde","","","","","","","","","","","","","","","","2.16470148166021","",""
"41-067-0004","Formaldehyde","45.5284996032715","-122.972396850586","Hillsboro","","RESIDENTIAL","","Hillsboro - Hare Field","meanRos_ug_m3","No","Undetermined","Oregon","Hillsboro","Suburban","Hillsboro - Hare Field","No","Formaldehyde","","","","","","","","","","","1.7417569878152","1.87584271788597","","","","","2.18268982811672","1.61104406540593"
"41-067-0005","Formaldehyde","45.393497467041","-122.747894287109","Tualatin","","COMMERCIAL","","Tualatin Bradbury Court (TBC) - Near Road Site","meanRos_ug_m3","No","Undetermined","Oregon","Tualatin","Suburban","Tualatin Bradbury Court (TBC) - Near Road Site","No","Formaldehyde","","","","","","","","","","","","","","","","","","1.94180558215488"
"41-067-0111","Formaldehyde","45.4701919555664","-122.816413879395","BEAVERTON","","RESIDENTIAL","","Beaverton - Highland Park","meanRos_ug_m3","No","Undetermined","Oregon","Beaverton","Urban And Center City","Beaverton - Highland Park","No","Formaldehyde","","","1.65898542106152","","","","","","","","","","","","","","",""
"42-001-0001","Formaldehyde","39.9200210571289","-77.3096771240234","NOT IN A CITY","","RESIDENTIAL","","NARSTO SITE ARENDTSVILLE","meanRos_ug_m3","No","Undetermined","Pennsylvania","Not in a city","Rural","NARSTO SITE ARENDTSVILLE","No","Formaldehyde","","","","","","","","","","2.30577255040407","2.62731479853392","","","","","","",""
"42-003-0002","Formaldehyde","40.4997673034668","-80.0713348388672","Avalon","","RESIDENTIAL","","Avalon","meanRos_ug_m3","No","Undetermined","Pennsylvania","Avalon","Suburban","Avalon","No","Formaldehyde","","","","2.57719018310308","2.57599315102454","","","","","","","","","","","","",""
"42-003-0031","Formaldehyde","40.4433670043945","-79.9902954101563","PITTSBURGH","","COMMERCIAL","","PITTSBURGH","meanRos_ug_m3","Yes","Increasing","Pennsylvania","Pittsburgh","Urban And Center City","Flag Plaza","No","Formaldehyde","2.13609818552361","1.81618571064689","1.99892936549226","2.06259728892375","1.75669030279949","2.00238419165377","1.81155466447111","2.25065216226656","2.23409339345869","2.26067339479923","1.82079082654148","1.89844906427821","2.42136410383855","2.38144406527281","2.16782272358735","2.46987131384553","2.23909009008084","2.37100652262971"
"42-003-0067","Formaldehyde","40.3756446838379","-80.1699447631836","South Fayette","","RESIDENTIAL","","South Fayette","meanRos_ug_m3","No","Undetermined","Pennsylvania","McDonald","Suburban","South Fayette","No","Formaldehyde","","","","2.04281423682053","2.07968615090593","","","","","","","","","","","","",""
"42-003-0116","Formaldehyde","40.4736785888672","-80.0770034790039","MCKEES ROCKS","","RESIDENTIAL","","STOWE TOWNSHIP","meanRos_ug_m3","No","Undetermined","Pennsylvania","Stowe (Township of)","Suburban","SOUTH OF NEVILLE ISLAND (UPWIND)","No","Formaldehyde","","","","2.05278476393398","2.07905327599673","","","","","","","","","","","","",""
"42-071-0007","Formaldehyde","40.0466651916504","-76.283332824707","Lancaster City","","INDUSTRIAL","","A420710007LAT/LON POINT AT CORNER OF TRAILER","meanRos_ug_m3","No","No Trend","Pennsylvania","Lancaster","Suburban","A420710007LAT/LON POINT AT CORNER OF TRAILER","No","Formaldehyde","1.55722809135914","1.80831998487314","1.8592171455423","","1.75253408762947","2.00986965972444","1.75910102539375","1.96563386498836","1.42224194391806","1.86567053000132","","","","","","","",""
"42-101-0004","Formaldehyde","40.0088882446289","-75.0977783203125","Philadelphia","","RESIDENTIAL","","Air Management Services Laboratory (AMS LAB)","meanRos_ug_m3","No","No Trend","Pennsylvania","Philadelphia","Urban And Center City","Air Management Services Laboratory (AMS LAB)","No","Formaldehyde","2.83275315734117","2.37851087346344","3.03379423653378","2.67794701548399","3.17998795455787","3.09619921468327","2.4615267854965","2.82396497272958","1.95390750983587","1.69691827438645","2.86418432153521","2.05511557542887","3.44745980302493","3.74368592670986","","","",""
"42-101-0014","Formaldehyde","40.049617767334","-75.2408218383789","PHILADELPHIA","","RESIDENTIAL","","Roxborough (ROX)","meanRos_ug_m3","Yes","No Trend","Pennsylvania","Philadelphia","Suburban","Roxborough (ROX)","No","Formaldehyde","1.65462324427707","1.16366807971941","1.74364601424526","6.40423586250593","6.63283410174202","8.39641674171861","","1.9670423657537","1.39053167182952","1.09238746152099","1.5993813628605","1.73013982371337","2.70315972829269","4.88987558257991","9.50614602173521","5.26061959286868","2.53343307483813","2.73084287544092"
"42-101-0047","Formaldehyde","39.944652557373","-75.1652069091797","Philadelphia","","RESIDENTIAL","","COMMUNITY HEALTH SERVICES (CHS)","meanRos_ug_m3","No","No Trend","Pennsylvania","Philadelphia","Urban And Center City","COMMUNITY HEALTH SERVICES (CHS)","No","Formaldehyde","3.16439150777218","3.55020006153167","2.84575562002295","2.66667934293385","2.80117831316035","2.40385336290788","2.22469841606426","2.95925064232539","1.86874702952125","1.57287614567662","24.2337751126919","1.63281705682395","2.54790191517936","","","","",""
"42-101-0048","Formaldehyde","39.9913902282715","-75.0808334350586","Philadelphia","","RESIDENTIAL","","LAT/LONG IS OF SAMPLING INLET","meanRos_ug_m3","No","Undetermined","Pennsylvania","Philadelphia","Urban And Center City","North East Waste (NEW)","No","Formaldehyde","","","","","","","","","","","","","","","3.77672653198242","2.9502304347895","3.25025214409006","3.02231939698829"
"42-101-0055","Formaldehyde","39.9228668212891","-75.1869201660156","PHILADELPHIA","","RESIDENTIAL","","Ritner (RIT); Philadelphia Air Toxics Study: Passive  Sampler Location 3","meanRos_ug_m3","No","Increasing","Pennsylvania","Philadelphia","Urban And Center City","Ritner (RIT)","No","Formaldehyde","","","","2.27253691407672","2.57635483034919","2.44730378785416","2.38915243462349","2.7255634440566","1.62343851899585","1.30565004173856","2.65527433171371","2.85781571708742","3.82805145688747","3.97581635158637","6.80173874772945","3.57117819894444","3.19041540637865","3.55916406561931"
"42-101-0063","Formaldehyde","39.8829383850098","-75.2196502685547","NOT IN A CITY","","INDUSTRIAL","","SW WASTE TREATMENT PLANT","meanRos_ug_m3","No","Increasing","Pennsylvania","Philadelphia","Urban And Center City","SW WASTE TREATMENT PLANT","No","Formaldehyde","","","","","","","","2.74435195409959","2.56617787497926","1.4295520621245","2.00975538136537","2.24322330947973","3.19688470282797","3.2976828541672","2.85063706338406","2.91626961655536","3.43066503549531","2.85984897509706"
"42-101-0136","Formaldehyde","39.9276123046875","-75.2224044799805","Philadelphia","","RESIDENTIAL","","ON AMTRAK RIGHT OF WAY - NEAR AIRPORT HI SPEED LINE (ELECTRIFIED)","meanRos_ug_m3","No","No Trend","Pennsylvania","Philadelphia","Urban And Center City","ON AMTRAK RIGHT OF WAY - NEAR AIRPORT HI SPEED LINE (ELECTRIFIED)","No","Formaldehyde","4.72701068905493","2.76142043832304","6.89557614695767","8.00958764375818","2.37147604086404","2.62153368155684","","","","","","","","","","","",""
"42-125-5200","Formaldehyde","40.2689628601074","-80.2439956665039","NOT IN A CITY","","AGRICULTURAL","","Marcellus","meanRos_ug_m3","No","Undetermined","Pennsylvania","Not in a city","Rural","Marcellus","No","Formaldehyde","","","","","","","","","","","1.78184282488939","","","","","","",""
"44-003-0011","Formaldehyde","41.7366905212402","-71.4363479614258","WARWICK","","RESIDENTIAL","","Fire Station #8","meanRos_ug_m3","No","Undetermined","Rhode Island","Warwick (RR name Apponaug)","Suburban","Fire Station #8","No","Formaldehyde","","","2.69691307963552","2.37100536258597","","","","","","","","","","","","","",""
"44-003-0012","Formaldehyde","41.7379684448242","-71.4144134521484","WARWICK","","RESIDENTIAL","","Lydick","meanRos_ug_m3","No","Undetermined","Rhode Island","Warwick (RR name Apponaug)","Suburban","Lydick","No","Formaldehyde","","","2.45676126248307","2.23240163197389","","","","","","","","","","","","","",""
"44-003-0013","Formaldehyde","41.7055015563965","-71.3775177001953","WARWICK","","RESIDENTIAL","","Draper Avenue","meanRos_ug_m3","No","Undetermined","Rhode Island","Warwick (RR name Apponaug)","Suburban","Draper Avenue","No","Formaldehyde","","","","2.33697106031811","","","","","","","","","","","","","",""
"44-003-0014","Formaldehyde","41.7054901123047","-71.4417572021484","WARWICK","","RESIDENTIAL","","Smith Street","meanRos_ug_m3","No","Undetermined","Rhode Island","Warwick (RR name Apponaug)","Suburban","Gertrude","No","Formaldehyde","","","2.66108507088252","2.14659612606733","","","","","","","","","","","","","",""
"44-003-0015","Formaldehyde","41.7158126831055","-71.4375534057617","WARWICK","","RESIDENTIAL","","Field View","meanRos_ug_m3","No","Undetermined","Rhode Island","Warwick (RR name Apponaug)","Suburban","Field View","No","Formaldehyde","","","4.02177947132211","3.26614478918222","","","","","","","","","","","","","",""
"44-007-0029","Formaldehyde","41.816535949707","-71.4374008178711","PROVIDENCE","","RESIDENTIAL","","Bridgham School site","meanRos_ug_m3","No","Undetermined","Rhode Island","Providence","Urban And Center City","Bridgham School site","No","Formaldehyde","","2.9850463588187","","","","","","","","","","","","","","","",""
"44-007-1010","Formaldehyde","41.8410377502441","-71.360969543457","East Providence","","RESIDENTIAL","","PILOT CITY: East Providence","meanRos_ug_m3","Yes","No Trend","Rhode Island","East Providence","Suburban"," FRANCIS SCHOOL East Providence","No","Formaldehyde","1.77427624364694","1.81512200251474","2.00745460059908","2.21121294527757","2.67949294033697","3.40040043989817","2.84379301891952","2.52415984970028","2.61581319974641","2.86736139605443","1.86325217914163","1.91036077879243","2.30410481105416","2.451805835654","2.19193705916405","2.34900943338871","2.29053044905428","2.32002422567141"
"45-063-0008","Formaldehyde","34.0510177612305","-81.1549530029297","Irmo","","COMMERCIAL","","IRMO","meanRos_ug_m3","Yes","No Trend","South Carolina","Seven Oaks","Suburban","IRMO","No","Formaldehyde","3.33117348126003","3.17740071238133","3.35132425030073","4.28187391007769","3.94260196028085","3.27248599569676","3.41896425750521","4.25429807038143","4.299987890323","5.115642061359","8.30140300879353","8.94066199352001","3.36362693946937","3.56465891578741","2.51486984823571","2.70189592760542","3.10099716940705",""
"45-079-0020","Formaldehyde","34.015495300293","-81.0341796875","Columbia","","COMMERCIAL","","STATE HOSPITAL","meanRos_ug_m3","Yes","No Trend","South Carolina","Columbia","Urban And Center City","STATE HOSPITAL","No","Formaldehyde","9.73257158898019","9.68703217939897","6.69228657867227","5.34356808236667","5.50534341689842","5.2313735758672","4.65402967378212","5.09038796507079","4.68187788128853","4.36873497214972","7.05982970974662","8.78974004658786","5.14341977341422","6.80699732030431","5.08329942623774","4.47209856245253","4.82642602413259",""
"46-033-0003","Formaldehyde","43.768684387207","-103.584732055664","NOT IN A CITY","","RESIDENTIAL","","UATMP: CUSD","meanRos_ug_m3","No","No Trend","South Dakota","Not in a city","Suburban","UATMP: CUSD","No","Formaldehyde","2.43605623382037","2.2748930731724","1.49937129914761","0.962971501533062","1.7477225455145","1.73183763387303","","","","","","","","","","","",""
"46-099-0007","Formaldehyde","43.5376243591309","-96.681999206543","Sioux Falls","","RESIDENTIAL","","UATMP: SFSD","meanRos_ug_m3","No","No Trend","South Dakota","Sioux Falls","Urban And Center City","NEAR HILLTOP WATERTOWER","No","Formaldehyde","3.2257391667366","2.8562787951481","4.03897201812873","3.51975478033225","3.76594233916978","","","","","","","","","","","","",""
