"site_id","parameter_desc","latitude","longitude","city_name","location","land_use_type","setting","site_name","stat","used_in_nat_agg","trend","state_name","city_name","location_setting","local_site_name","natts","toxic_name_alias","2003","2004","2005","2006","2007","2008","2009","2010","2011","2012","2013","2014","2015","2016","2017","2018","2019","2020"
"01-073-5502","Tetrachloroethylene","33.5447998046875","-86.8238983154297","BIRMINGHAM","","COMMERCIAL","","Lewis Elementary School","meanRos_ug_m3","No","Undetermined","Alabama","Birmingham","Urban And Center City","Lewis Elementary School","No","Tetrachloroethylene","","","","","","","","","","0.222561161220074","","","","","","","",""
"01-073-5503","Tetrachloroethylene","33.5684013366699","-86.8029022216797","BIRMINGHAM","","COMMERCIAL","","Riggins School","meanRos_ug_m3","No","Undetermined","Alabama","Birmingham","Urban And Center City","Riggins School","No","Tetrachloroethylene","","","","","","","","","","0.196502040943094","","","","","","","",""
"01-073-5505","Tetrachloroethylene","33.5566329956055","-86.8054656982422","Birmingham","","RESIDENTIAL","","Hudson K-8","meanRos_ug_m3","No","Undetermined","Alabama","Birmingham","Urban And Center City","Hudson K-8","No","Tetrachloroethylene","","","","","","","","","","0.145630546127047","","","","","","","",""
"01-073-6004","Tetrachloroethylene","33.5652770996094","-86.79638671875","BIRMINGHAM","","RESIDENTIAL","","UATMP: SIAL; Sloss Industries","meanRos_ug_m3","No","Undetermined","Alabama","Birmingham","Urban And Center City","Sloss Shuttlesworth","No","Tetrachloroethylene","","","","","","","","","","0.148222393637337","","","","","","","",""
"01-097-3102","Tetrachloroethylene","30.7089004516602","-88.0519027709961","MOBILE","","RESIDENTIAL","","","meanRos_ug_m3","No","Undetermined","Alabama","Mobile","Suburban","","No","Tetrachloroethylene","0.238641240117882","","","","","","","","","","","","","","","","",""
"02-020-0018","Tetrachloroethylene","61.2058601379395","-149.824600219727","ANCHORAGE","","RESIDENTIAL","","UATMP: ANAK","meanRos_ug_m3","No","Undetermined","Alaska","Anchorage","Suburban","GARDEN/TRINITY CHRISTIAN CHURCH","No","Tetrachloroethylene","","","","","","","0.181739114895463","","","","0.160043367703034","","","","","","",""
"02-185-NBRW","Tetrachloroethylene","71.322998046875","-156.610992431641","Barrow","","","","NOAA: Barrow, Alaska","meanRos_ug_m3","Yes","Decreasing","","Barrow","","NOAA: Barrow, Alaska","No","Tetrachloroethylene","0.0332162691205792","0.0303429967444715","0.0280773381066996","0.0269331662937282","0.0262051873873431","0.0267195572301023","0.0221080417268884","0.0227181851217637","0.0179402736015618","0.018076755752673","0.0183011207759364","0.0178534765906918","0.0191405593381765","0.0183149021140672","0.0189914578866475","0.0162220456602276","0.017309940522418","0.0160272940456008"
"04-013-4003","Tetrachloroethylene","33.4031600952148","-112.075332641602","Phoenix","","RESIDENTIAL","","UATMP: SPAZ","meanRos_ug_m3","Yes","No Trend","Arizona","Phoenix","Urban And Center City","SOUTH PHOENIX","No","Tetrachloroethylene","0.196914596725694","0.49946422715201","1.30279749118748","","","0.245720688085733","0.284420544468975","0.322142451744655","0.405306354834948","0.213575664660593","0.160662923954066","0.149902155360996","0.21728501120457","0.192905816878901","0.20769827224813","0.294068787118484","0.16649861416648","0.234463789890851"
"04-013-4009","Tetrachloroethylene","33.406421661377","-112.144340515137","Phoenix","","INDUSTRIAL","","UATMP: MCAZ","meanRos_ug_m3","No","Undetermined","Arizona","Phoenix","Urban And Center City","WEST 43RD AVENUE","No","Tetrachloroethylene","0.576941319555612","","","","","","","","","","","","","","","","",""
"04-021-8001","Tetrachloroethylene","33.2934646606445","-111.285591125488","QUEEN VALLEY","","DESERT","","UATMP: QVAZ, IMPROVE: QUVA1","meanRos_ug_m3","No","Undetermined","Arizona","Queen Valley","Rural","QUEEN VALLEY","No","Tetrachloroethylene","","0.134925821977541","0.181912576867594","","","","","","","","","","","","","","",""
"06-001-0006","Tetrachloroethylene","37.7102279663086","-122.116897583008","San Leandro","","RESIDENTIAL","","San Leandro","meanRos_ug_m3","No","No Trend","California","Castro Valley","Suburban","San Leandro","No","Tetrachloroethylene","0.15165667740568","0.156611068298419","0.186764452486269","0.137513757120605","0.140040561969742","","","","","","","","","","","","",""
"06-001-0007","Tetrachloroethylene","37.6875267028809","-121.784217834473","LIVERMORE","","COMMERCIAL","","REPLACES OLD SITE 06-001-0003 THAT WAS LOCATED AT 2614 OLD 1ST. ST.","meanRos_ug_m3","No","No Trend","California","Livermore","Urban And Center City","Livermore","No","Tetrachloroethylene","0.145452443390123","0.131162901719411","0.144935452168988","0.176904442585195","0.166408870318026","0.0997540480830676","0.0850492814302411","0.0986715054570933","0.107025592542871","0.0990052806612636","0.097801153306682","0.148332398412182","0.0602754454983509","","","","",""
"06-001-0008","Tetrachloroethylene","37.8171195983887","-122.280456542969","OAKLAND","","RESIDENTIAL","","OAKLAND FILBERT ST","meanRos_ug_m3","No","Decreasing","California","Oakland","Urban And Center City","Oakland - Filbert St.","No","Tetrachloroethylene","0.347424172826352","0.300978050629298","0.245185759038694","0.279205843793964","0.205570307870706","0.158375126418041","","","","","","","","","","","",""
"06-001-0009","Tetrachloroethylene","37.7430648803711","-122.169937133789","Oakland","","RESIDENTIAL","","Oakland East","meanRos_ug_m3","No","No Trend","California","Oakland","Urban And Center City","Oakland","No","Tetrachloroethylene","","","","","","0.18780511749264","0.134967174432746","0.183895945551522","0.22663999925698","0.156806561226646","0.192653655885689","0.125505848558101","0.106247192178112","0.044096649393535","","","",""
"06-001-0011","Tetrachloroethylene","37.8147811889648","-122.282348632813","OAKLAND","","RESIDENTIAL","","Oakland-West","meanRos_ug_m3","No","No Trend","California","Oakland","Urban And Center City","Oakland West","No","Tetrachloroethylene","","","","","","","","0.192150968242117","0.223593071863372","0.144843273858229","0.229604147735142","0.105383808431493","0.109030186544392","","","","",""
"06-001-0012","Tetrachloroethylene","37.7936248779297","-122.263374328613","Oakland","","COMMERCIAL","","Laney College","meanRos_ug_m3","No","Undetermined","California","Oakland","Urban And Center City","Laney College","No","Tetrachloroethylene","","","","","","","","","","","","0.0661792908586826","0.0334594667341706","","","","",""
"06-001-1001","Tetrachloroethylene","37.535831451416","-121.961822509766","Fremont","","RESIDENTIAL","","Fremont - Chapel Way","meanRos_ug_m3","No","No Trend","California","Fremont","Suburban","Fremont - Chapel Way","No","Tetrachloroethylene","0.283593147033343","0.205190786253971","0.211411057409461","0.176762682924351","0.251617587681203","0.59427929346347","0.158103468558097","","","","","","","","","","",""
"06-001-2004","Tetrachloroethylene","37.8777923583984","-122.301292419434","Berkeley","","COMMERCIAL","","Berkeley 6th and Camelia","meanRos_ug_m3","No","Undetermined","California","Berkeley","Urban And Center City","Berkeley","No","Tetrachloroethylene","","","","","","0.140703880627022","0.0718586277308145","0.127431431733268","","","","","","","","","",""
"06-007-0002","Tetrachloroethylene","39.7573699951172","-121.843284606934","Chico","","COMMERCIAL","","468 MANZANITA AVE, CHICO","meanRos_ug_m3","No","Decreasing","California","Not in a city","Suburban","Chico-Manzanita Ave.","No","Tetrachloroethylene","0.104215761026646","0.0959562662342136","0.21446589708393","0.0690478219196367","0.0751999808337292","0.0728277843337715","0.0617846771618195","0.0612159762721116","","","","","","","","","",""
"06-007-0008","Tetrachloroethylene","39.7615394592285","-121.841621398926","Chico","","COMMERCIAL","","Chico - East Avenue","meanRos_ug_m3","No","Undetermined","California","Chico","Suburban","Chico-East Avenue","No","Tetrachloroethylene","","","","","","","","","","","","0.0499361683792211","0.0767777912254927","","","","",""
"06-013-0002","Tetrachloroethylene","37.9360122680664","-122.026153564453","CONCORD","","RESIDENTIAL","","Concord","meanRos_ug_m3","No","No Trend","California","Concord","Suburban","Concord","No","Tetrachloroethylene","0.190621347917664","0.257028891865549","0.11526085099528","0.0750082302391198","0.121828459604947","0.129937461667484","0.0875130377994202","0.127287502796301","0.171731204635674","0.128927213946978","0.135502148979163","0.0690994983588946","0.0628099031498886","","","","",""
"06-013-0006","Tetrachloroethylene","37.9481735229492","-122.364852905273","Richmond","","INDUSTRIAL","","Richmond - 7th St","meanRos_ug_m3","No","No Trend","California","Richmond","Urban And Center City","Richmond - 7th St.","No","Tetrachloroethylene","0.127319604767828","0.130347412700807","0.136018652224926","0.0761693341532467","0.0940204000864392","0.0577049921684274","0.0423596942785824","0.0835268067252342","0.092522351412284","0.108965967685498","0.0778116680817912","0.037753209289095","","","","","",""
"06-013-1001","Tetrachloroethylene","38.0549201965332","-122.23323059082","CROCKETT","","INDUSTRIAL","","Crockett - Kendall Ave","meanRos_ug_m3","No","No Trend","California","Crockett","Suburban","Crockett - Kendall Ave","No","Tetrachloroethylene","0.0812887934263958","0.0833298601024547","","0.0676882645495414","0.0660256365566666","0.0428555637116169","0.0198952502261561","0.0471500259990447","0.0591686323182664","0.0447529629515163","0.057322956833502","0.0935281636073356","","","","","",""
"06-013-1002","Tetrachloroethylene","38.0063095092773","-121.641914367676","BETHEL ISLAND","","AGRICULTURAL","","Bethel Island","meanRos_ug_m3","No","Decreasing","California","Bethel Island","Rural","Bethel Island","No","Tetrachloroethylene","0.089545462551826","0.15080411579978","0.105004179291191","0.0709877316173216","0.0759578026873509","0.0466369431226011","0.0252221670327314","0.0617978693761391","0.0595198853220057","0.0588855321208636","","0.0301925735411535","","","","","",""
"06-013-1004","Tetrachloroethylene","37.9603996276855","-122.356811523438","SAN PABLO","","COMMERCIAL","","SAN PABLO RUMRILL","meanRos_ug_m3","No","Decreasing","California","San Pablo","Urban And Center City","San Pablo","No","Tetrachloroethylene","0.220165888126774","0.253000929183521","0.20724075657301","0.114473503639436","0.121606190211883","0.063635510321609","","","0.0589065907907026","0.0649918997660279","0.067655164841246","0.033269869163723","","","","","",""
"06-013-2001","Tetrachloroethylene","38.0128173828125","-122.134468078613","MARTINEZ","","RESIDENTIAL","","Martinez - Jones St.","meanRos_ug_m3","No","Decreasing","California","Martinez","Urban And Center City","Martinez - Jones St.","No","Tetrachloroethylene","0.106626076804053","0.103506172448397","0.117999317208531","0.0826387124939141","0.0795807551535191","0.0458655042857586","0.0344592405428828","0.0642130674219828","0.0637582410862318","0.0491419685501458","0.068898394089719","0.0286005957381848","","","","","",""
"06-013-3001","Tetrachloroethylene","38.0292587280273","-121.896865844727","PITTSBURG","","RESIDENTIAL","","Pittsburg - W 10th St.","meanRos_ug_m3","No","No Trend","California","Pittsburg","Urban And Center City","Pittsburg - W 10th St.","No","Tetrachloroethylene","0.164066142612888","0.211872895265141","0.113952162264817","0.15671061042785","0.0995975172569323","","","","","","","","","","","","",""
"06-019-0008","Tetrachloroethylene","36.7813339233398","-119.773193359375","Fresno","","RESIDENTIAL","","PM Supersite: Fresno","meanRos_ug_m3","No","Decreasing","California","Fresno","Suburban","3425 N FIRST ST, FRESNO","No","Tetrachloroethylene","0.215409208981631","0.152509833428276","0.199217541241771","0.139617183885106","0.113330202157211","0.10094913203644","0.0932043549322355","0.0858899628509727","0.094620220379045","","","","","","","","",""
"06-019-0011","Tetrachloroethylene","36.7853202819824","-119.77417755127","Fresno","","COMMERCIAL","","Fresno - Garland","meanRos_ug_m3","No","No Trend","California","Fresno","Urban And Center City","Fresno - Garland","No","Tetrachloroethylene","","","","","","","","","","0.0578740193767381","0.0587404647132988","0.060775615944129","0.0550266938399365","","","0.0535808953057115","0.0557276554851582",""
"06-019-3002","Tetrachloroethylene","36.6071701049805","-119.540679931641","PARLIER","","AGRICULTURAL","","PARLIER","meanRos_ug_m3","No","Undetermined","California","Parlier","Urban And Center City","PARLIER","No","Tetrachloroethylene","","","","0.0598907268823237","","","","","","","","","","","","","",""
"06-023-NTHD","Tetrachloroethylene","41.0540008544922","-124.151000976563","Trinidad","","","","NOAA: Trinidad Head, California","meanRos_ug_m3","Yes","Decreasing","","Trinidad","","NOAA: Trinidad Head, California","No","Tetrachloroethylene","0.0322139941924659","0.0295817467939718","0.0274668485473665","0.0283754624274414","0.0260422667250171","0.0248885587772007","0.0210895401348049","0.0214358375917538","0.0192080111707384","0.0178881266280693","0.0176714286277593","0.0173781707565835","0.0165117037283062","0.0172450780949515","0.0180434423370981","0.0165803484075392","0.016946276592813","0.0159763410823264"
"06-025-0005","Tetrachloroethylene","32.6761856079102","-115.484146118164","Calexico","","RESIDENTIAL","","CALEXICO HIGH SCHOOL  ARB (#1300698)","meanRos_ug_m3","Yes","Decreasing","California","Calexico","Suburban","Calexico-Ethel Street","No","Tetrachloroethylene","0.365199538538747","0.223943158390672","0.432918512613725","0.36425047934927","0.309813733793219","0.27974287897326","0.139181102531768","0.253566311007598","0.267727617809324","0.224863402655648","0.158223538852624","0.133047563679553","0.178054022065107","0.148300729562303","0.116176725548932","0.113997696472247","0.0999902198308888",""
"06-029-0014","Tetrachloroethylene","35.3566017150879","-119.063545227051","Bakersfield","","MOBILE","","Bakersfield-California Avenue","meanRos_ug_m3","Yes","Decreasing","California","Bakersfield","Urban And Center City","Bakersfield-California","No","Tetrachloroethylene","0.260379222574933","0.26884861517961","0.301874712273335","0.382015821291534","0.275185132866663","0.289078184912398","0.196616087406877","0.134554197322412","0.120222110680307","0.104753626122286","0.0872676168669543","","0.0953472882663171","0.188784149086525","0.0502996756376371","","0.0683425012973335",""
"06-037-0002","Tetrachloroethylene","34.1365013122559","-117.92391204834","Azusa","","RESIDENTIAL","","Azusa","meanRos_ug_m3","Yes","Decreasing","California","Azusa","Suburban","Azusa","No","Tetrachloroethylene","0.708362802471934","0.447519776209452","0.505413544235546","0.316918390154771","0.347788479869012","0.349883602133819","0.227835814757429","0.2959032232217","0.209714159008873","0.187697880505414","0.211371750498006","0.284455397476753","0.223373644991598","0.25162088256172","0.116136955045324","0.144068687482441","0.139825632631839",""
"06-037-1002","Tetrachloroethylene","34.1760482788086","-118.317123413086","BURBANK","","COMMERCIAL","","MATES: Burbank","meanRos_ug_m3","No","Decreasing","California","Burbank","Urban And Center City","Burbank","No","Tetrachloroethylene","1.09123055866131","0.798954534041368","0.685898022813084","0.531282597801817","0.555134149460957","0.420304948836565","0.418095736854499","0.367871694523713","0.444174804621273","0.338777664975793","0.343570212765438","","","","","","",""
"06-037-1302","Tetrachloroethylene","33.9013900756836","-118.205001831055","COMPTON","","RESIDENTIAL","","MATES: Compton","meanRos_ug_m3","No","Undetermined","California","Compton","Urban And Center City","Compton","No","Tetrachloroethylene","","0.841516703330198","0.816424198820052","","","","","","","","","","","","","","",""
"06-037-1601","Tetrachloroethylene","34.0140686035156","-118.060562133789","Pico Rivera","","COMMERCIAL","","MATES: Pico Rivera","meanRos_ug_m3","No","Undetermined","California","Pico Rivera","Suburban","MATES: Pico Rivera","No","Tetrachloroethylene","","0.415182400383175","0.446008201649653","","","","","","","","","","","","","","",""
"06-037-4002","Tetrachloroethylene","33.8237609863281","-118.189208984375","Long Beach","","RESIDENTIAL","","UATMP: LBHCA; MATES: North Long Beach","meanRos_ug_m3","No","Decreasing","California","Long Beach","Suburban","Long Beach (North)","No","Tetrachloroethylene","0.52121032388122","0.310137838645762","0.280437589656743","0.31987409607001","0.290366686739533","0.340787538472837","0.281271676390058","0.199242326933191","0.199412149241504","0.147653668247074","0.118535138196808","","","","","","",""
"06-037-L0HP","Tetrachloroethylene","33.9832496643066","-118.230697631836","Huntington Park","","","","MATES: Huntington Park","meanRos_ug_m3","No","Undetermined","","Huntington Park","","MATES: Huntington Park","No","Tetrachloroethylene","","0.553435708945911","","","","","","","","","","","","","","","",""
"06-037-LWLB","Tetrachloroethylene","33.7924194335938","-118.215896606445","Long Beach","","","","MATES: West Long Beach","meanRos_ug_m3","No","Undetermined","","Long Beach","","MATES: West Long Beach","No","Tetrachloroethylene","","0.21723808831995","0.255540305403605","0.286212878832264","","","","","","","","","","","","","",""
"06-041-0001","Tetrachloroethylene","37.9723091125488","-122.520004272461","SAN RAFAEL","","COMMERCIAL","","San Rafael","meanRos_ug_m3","No","Decreasing","California","San Rafael","Urban And Center City","San Rafael","No","Tetrachloroethylene","0.571455071088312","0.660452164373187","0.548488075372254","0.477773908671255","0.519930432067659","0.3681891421897","0.303918910432478","0.275598879348679","0.120719433296472","0.123053543145458","0.126469445414841","0.0957679523269563","0.074053543200533","","","","",""
"06-041-0004","Tetrachloroethylene","37.8327255249023","-122.527656555176","NOT IN A CITY","","FOREST","","FORT CRONKHITE","meanRos_ug_m3","No","Decreasing","California","Not in a city","Rural","Ft. Cronkhite","No","Tetrachloroethylene","0.0708835067664314","0.131963357427683","0.0643669408916348","0.0705455475786921","0.0444696435222965","","","0.0298325457031414","0.0356109813027462","0.029747244003454","0.0411341120121755","0.0211860994743851","","","","","",""
"06-055-0003","Tetrachloroethylene","38.3109436035156","-122.296188354492","NAPA","","COMMERCIAL","","Napa - Jefferson St.","meanRos_ug_m3","No","Decreasing","California","Napa","Urban And Center City","Napa","No","Tetrachloroethylene","0.158170883453661","0.314417740921183","0.147269805062599","0.104934155300343","0.144664493643935","0.0819872177895512","0.0711689569322116","0.0961598317879936","0.137805896517976","0.0692496936709617","0.0902420403857773","0.0723505923312309","0.0227159512554443","","","","",""
"06-059-0001","Tetrachloroethylene","33.8213539123535","-117.914268493652","Anaheim","","RESIDENTIAL","","MATES: Anaheim","meanRos_ug_m3","No","Undetermined","California","Anaheim","Suburban","Anaheim (1010 Harbor Blvd)","No","Tetrachloroethylene","","0.339285709195829","0.372124621328765","","","","","","","","","","","","","","",""
"06-061-0006","Tetrachloroethylene","38.7457275390625","-121.266311645508","Roseville","","MOBILE","","Roseville-N Sunrise Blvd","meanRos_ug_m3","No","Decreasing","California","Roseville","Suburban","Roseville-N Sunrise Ave","No","Tetrachloroethylene","0.158993471345132","0.114584117428963","0.103385358871527","0.123624385242278","0.0836342639432446","0.0506441607602757","0.0395671273743671","0.0630713971573523","0.0711875946632978","","","0.0676192086220633","0.0485413030104773","","","","",""
"06-071-2002","Tetrachloroethylene","34.1000213623047","-117.492012023926","Fontana","","INDUSTRIAL","","MATES: Inland Valley San Bernardino","meanRos_ug_m3","No","Undetermined","California","Fontana","Suburban","Fontana","No","Tetrachloroethylene","","0.293805128836697","0.289651209074495","","","","","","","","","","","","","","",""
"06-073-0001","Tetrachloroethylene","32.6312294006348","-117.059074401855","Chula Vista","","RESIDENTIAL","","Chula Vista","meanRos_ug_m3","Yes","Decreasing","California","Chula Vista","Suburban","Chula Vista","No","Tetrachloroethylene","0.221373672996249","0.215143387773511","0.250562464504184","0.243979602761566","0.166563212231495","0.147279341570929","0.140415083176584","0.119626259075208","0.0781312371192529","0.0820206407026016","0.0790494562247736","0.0754613007074779","0.116111565829038","0.0806876135401651","","0.0517382868207418","0.0356373677955866",""
"06-073-0003","Tetrachloroethylene","32.7911949157715","-116.942092895508","El Cajon","","COMMERCIAL","","El Cajon","meanRos_ug_m3","No","Decreasing","California","El Cajon","Suburban","El Cajon","No","Tetrachloroethylene","0.382050916800896","0.297180637715198","0.291996664729609","0.279735875600137","0.228246084788203","0.173018456664351","0.855336556431192","0.181905502887057","0.122162891108391","0.104922411325636","0.056984245161467","","","","","","",""
"06-073-1002","Tetrachloroethylene","33.1277122497559","-117.075325012207","ESCONDIDO","","COMMERCIAL","","Escondido","meanRos_ug_m3","No","Decreasing","California","Escondido","Urban And Center City","Escondido","No","Tetrachloroethylene","","","","","","","0.162795048139736","0.137097915479326","0.116805180936028","0.0711377365743273","0.075939399155545","0.0471776202492107","0.0546513039258327","","","","",""
"06-073-1010","Tetrachloroethylene","32.7014923095703","-117.14965057373","SAN DIEGO","","COMMERCIAL","","Downtown","meanRos_ug_m3","No","Decreasing","California","San Diego","Urban And Center City","San Diego - Beardsley Street","No","Tetrachloroethylene","","","","","","","0.16623698577192","0.12788654483042","0.113422000587706","0.0552381490157019","0.0563200587706858","0.0418183894600311","0.0489250002164722","","","","",""
"06-073-1014","Tetrachloroethylene","32.5793609619141","-116.929489135742","Otay Mesa","","COMMERCIAL","","Donovan","meanRos_ug_m3","No","Undetermined","California","Otay Mesa","Rural","Donovan","No","Tetrachloroethylene","","","","","","","","","","","","","0.0808116143422812","","","0.0655216938777206","0.0995499373849241","0.107276768837872"
"06-073-1018","Tetrachloroethylene","32.8179779052734","-116.968132019043","El Cajon","","COMMERCIAL","","El Cajon - Floyd Smith Drive","meanRos_ug_m3","No","Undetermined","California","El Cajon","Suburban","El Cajon - Floyd Smith Dr.","No","Tetrachloroethylene","","","","","","","","","","","","","0.13586705577549","","","","",""
"06-073-1022","Tetrachloroethylene","32.7895622253418","-116.944221496582","El Cajon","","COMMERCIAL","","El Cajon - Lexington Elementary School","meanRos_ug_m3","No","Undetermined","California","El Cajon","Suburban","El Cajon - Lexington Elementary School","No","Tetrachloroethylene","","","","","","","","","","","","","","","","0.0666029338040196","0.0549856048875818",""
"06-073-1026","Tetrachloroethylene","32.7101783752441","-117.14266204834","SAN DIEGO","","COMMERCIAL","","San Diego - Sherman Elementary School","meanRos_ug_m3","No","Undetermined","California","San Diego","Urban And Center City","San Diego - Sherman Elementary School","No","Tetrachloroethylene","","","","","","","","","","","","","","","","","","0.0701040366763617"
"06-073-2007","Tetrachloroethylene","32.5521621704102","-116.937774658203","SAN DIEGO","","MOBILE","","Otay Mesa","meanRos_ug_m3","No","No Trend","California","San Diego","Rural","Otay Mesa","No","Tetrachloroethylene","","","","","","","0.290804127750338","0.245636338489128","0.246109041243238","0.185528723309122","0.188539732477652","0.248577997908456","","","","","",""
"06-075-0005","Tetrachloroethylene","37.7659454345703","-122.399040222168","San Francisco","","INDUSTRIAL","","San Francisco - Arkansas St.","meanRos_ug_m3","Yes","Decreasing","California","San Francisco","Urban And Center City","San Francisco","No","Tetrachloroethylene","0.253309663752229","0.296589287255782","0.214617914289043","0.243491130268951","0.270675880534034","0.144147121878973","0.153644288379031","0.160749069542314","0.139795464433489","0.084756434087952","0.121431619389563","0.071771046202448","0.0872149596755457","0.0703478995083957","","0.0638690474677647","",""
"06-077-1002","Tetrachloroethylene","37.950740814209","-121.268524169922","Stockton","","RESIDENTIAL","","HAZELTON-HD, STOCKTON","meanRos_ug_m3","Yes","Decreasing","California","Stockton","Urban And Center City","Stockton-Hazelton","No","Tetrachloroethylene","0.198897310634148","0.161220526757211","0.165947564216203","0.126789750312614","0.149062565085362","0.11004200417193","0.0963006536472897","0.075696444558387","0.0770091916009008","0.0660120264006741","0.0856844074059531","0.0651873657200435","0.0618218603977977","0.107127651794486","","","0.0479435059865401",""
"06-081-1001","Tetrachloroethylene","37.4829330444336","-122.203369140625","REDWOOD CITY","","INDUSTRIAL","","Redwood City","meanRos_ug_m3","No","No Trend","California","Redwood City","Suburban","Redwood City","No","Tetrachloroethylene","0.271061470191325","0.196368971658648","0.218092970136942","0.184121736221576","0.176065030543461","0.162306094014678","0.118839925479643","0.271383455722756","0.327232946352764","0.128079718749585","0.272785367853683","0.112120233880647","0.0446626663298825","0.0630398452368043","","","",""
"06-085-0006","Tetrachloroethylene","37.338134765625","-121.849784851074","San Jose","","MOBILE","","San Jose Knox Ave.","meanRos_ug_m3","No","Undetermined","California","San Jose","Urban And Center City","San Jose - Knox Avenue","No","Tetrachloroethylene","","","","","","","","","","","","","0.0293434270771752","","","","",""
"06-085-2007","Tetrachloroethylene","37.3554763793945","-122.050842285156","SUNNYVALE","","RESIDENTIAL","","LOCATED NEAR TICONDEROGA & MARY STREETS IN SUNNAYVALE.","meanRos_ug_m3","No","No Trend","California","Sunnyvale","Urban And Center City","Sunnyvale - Ticonderoga","No","Tetrachloroethylene","0.195991914590885","0.209443069385968","0.211479912602132","0.144260796036262","0.135915843017384","0.114020446867088","","","","","","","","","","","",""
"06-085-2008","Tetrachloroethylene","37.4022445678711","-122.066596984863","MOUNTAIN VIEW","","RESIDENTIAL","","MT VIEW-WHISMAN PARK","meanRos_ug_m3","No","Undetermined","California","Mountain View","Suburban","MT VIEW-WHISMAN PARK","No","Tetrachloroethylene","","","0.251276451136353","","","","","","","","","","","","","","",""
"06-085-2009","Tetrachloroethylene","37.3184356689453","-122.069702148438","CUPERTINO","","RESIDENTIAL","","Cupertino Monta Vista","meanRos_ug_m3","No","Undetermined","California","Cupertino","Suburban","Cupertino Monta Vista","No","Tetrachloroethylene","","","","","","","","","0.0520599159525642","0.0596892935697172","0.0644279085707646","","","","","","",""
"06-095-0004","Tetrachloroethylene","38.1025085449219","-122.237976074219","VALLEJO","","COMMERCIAL","","Vallejo - Tuolumne St.","meanRos_ug_m3","No","Decreasing","California","Vallejo","Urban And Center City","Vallejo","No","Tetrachloroethylene","0.135268842119315","0.229284393984076","0.1453237078827","0.0783512222416848","0.115170660655216","0.052322469743097","0.0334738295162595","0.0703699253890656","0.0974820234826582","0.0587358606979251","0.0909476228995165","0.0436477764066319","","","","","",""
"06-095-0006","Tetrachloroethylene","38.065601348877","-122.150703430176","Benicia","","RESIDENTIAL","","Benicia - VIP","meanRos_ug_m3","No","Undetermined","California","Benicia","Suburban","Benicia - VIP","No","Tetrachloroethylene","","","","","0.0677898526829576","0.0317456550680383","","","","","","","","","","","",""
"06-097-0003","Tetrachloroethylene","38.4435043334961","-122.710166931152","SANTA ROSA","","COMMERCIAL","","Santa Rosa - 5th St","meanRos_ug_m3","No","Decreasing","California","Santa Rosa","Urban And Center City","Santa Rosa - 5th St","No","Tetrachloroethylene","0.116352621586092","0.172938214103767","0.151807293250036","0.117161975276063","0.120521149050998","0.0755002696740203","0.0554449082949881","0.0525015393153226","0.0629146585020745","0.0533294611211334","0.0660726656279879","","","","","","",""
"06-097-0004","Tetrachloroethylene","38.4037666320801","-122.818290710449","Sebastopol","","COMMERCIAL","","Sebastopol","meanRos_ug_m3","No","Undetermined","California","Sebastopol","Urban And Center City","Sebastopol","No","Tetrachloroethylene","","","","","","","","","","","","0.0266482593374489","","","","","",""
"06-111-2002","Tetrachloroethylene","34.2763633728027","-118.683753967285","Simi Valley","","RESIDENTIAL","","SIMI VALLEY","meanRos_ug_m3","Yes","Decreasing","California","Simi Valley","Suburban","Simi Valley-Cochran Street","No","Tetrachloroethylene","0.271834007914989","0.243848594099588","0.249247749488992","0.209853206595383","0.200596173988717","0.160550571581774","0.114445515659955","0.143606310711763","0.212604477305238","","0.0886843475764795","0.10017274248799","0.0609855722012098","0.0870075597821324","","","0.0510656141571698",""
"08-013-NNWR","Tetrachloroethylene","40.0530014038086","-105.585998535156","Boulder","","","","NOAA: Niwot Ridge, Colorado","meanRos_ug_m3","Yes","Decreasing","","Boulder","","NOAA: Niwot Ridge, Colorado","No","Tetrachloroethylene","0.0278915655376561","0.02485264314757","0.0281504260141753","0.0234224025597232","0.0233287763708022","0.0229815287095981","0.0188744410176985","0.0194048135902192","0.0190387304425588","0.017250349553948","0.0177788398970775","0.0170321579863164","0.0164612175528257","0.0167516449843829","0.0180567972908455","0.0161935608398884","0.0157158548306478","0.0139262851327658"
"10-001-0002","Tetrachloroethylene","38.9866714477539","-75.5568008422852","NOT IN A CITY","","AGRICULTURAL","","PROPERTY OF KILLENS POND STATE PARK; BEHIND FARM BUILDINGS","meanRos_ug_m3","No","Undetermined","Delaware","Not in a city","Rural","PROPERTY OF KILLENS POND STATE PARK; BEHIND FARM BUILDINGS","No","Tetrachloroethylene","0.110839641535689","0.085175118711596","0.200884808197916","","","","","","","","","","","","","","",""
"10-003-1007","Tetrachloroethylene","39.5513000488281","-75.7320022583008","NOT IN A CITY","","AGRICULTURAL","","PAMS: Lums Pond; NADP: DE99","meanRos_ug_m3","No","Undetermined","Delaware","Not in a city","Rural","Lums Pond","No","Tetrachloroethylene","0.142300602280146","0.123162789355326","0.15349839906037","","","","","","","","","","","","","","",""
"10-003-1008","Tetrachloroethylene","39.5776786804199","-75.6035995483398","DELAWARE CITY","","AGRICULTURAL","","Route 9 Delaware City","meanRos_ug_m3","No","No Trend","Delaware","Delaware City","Rural","Route 9 Delaware City","No","Tetrachloroethylene","0.151154195445998","0.115325820150459","0.174312291311765","0.112702059089999","0.182737833020105","0.112021179577544","0.0970425563455393","0.107002013471237","0.0826013238909627","0.148268099317148","0.107318609235253","0.165218182099171","0.103515995337042","","","","",""
"10-003-2004","Tetrachloroethylene","39.739444732666","-75.5580596923828","Wilmington","","COMMERCIAL","","CORNER OF MLK BLVD AND JUSTISON ST, NO TRAFFIC DATA AVAILABLE","meanRos_ug_m3","Yes","Decreasing","Delaware","Wilmington","Urban And Center City","MLK  CORNER OF MLK BLVD AND JUSTISON ST","No","Tetrachloroethylene","0.557417596722471","0.470531069303473","0.658814189131143","0.46866482843099","0.610814071978681","0.310446971590461","0.242631685243965","0.188348448723555","0.164761085569158","0.234668196880163","0.157295484438619","0.234261914695564","0.185221957563807","","0.157786599826068","0.915238002126313","0.0975569745837445","0.124235932718829"
"10-005-1002","Tetrachloroethylene","38.6539001464844","-75.6106033325195","Seaford","","RESIDENTIAL","","Seaford Shipley State Service Center","meanRos_ug_m3","No","Undetermined","Delaware","Seaford","Suburban","Seaford Shipley State Service Center","No","Tetrachloroethylene","0.18343583675875","0.155943257060945","0.173629347829677","","","","","","","","","","","","","","",""
"12-011-0010","Tetrachloroethylene","26.1286106109619","-80.1672210693359","FORT LAUDERDALE","","RESIDENTIAL","","SITE # 28","meanRos_ug_m3","No","No Trend","Florida","Fort Lauderdale","Suburban","Lincoln Park Elementary","No","Tetrachloroethylene","","","","","","","","0.17890827835193","0.155965247899561","0.116122831175071","0.129692368350022","","0.145368152514424","","","","",""
"12-011-0033","Tetrachloroethylene","26.0735359191895","-80.3384475708008","Davie","","RESIDENTIAL","","Vista View Park","meanRos_ug_m3","No","Undetermined","Florida","Davie","Suburban","Vista View Park","No","Tetrachloroethylene","","","","","","","","","","","","","0.144595395268995","","","","",""
"12-011-0034","Tetrachloroethylene","26.0538883209229","-80.2569427490234","DAVIE","","RESIDENTIAL","","Daniela Banu NCORE","meanRos_ug_m3","No","Undetermined","Florida","Davie","Suburban","Daniela Banu NCORE","No","Tetrachloroethylene","","","","","","","","","","","","","","","0.22640550098553","0.142962312771674","0.103628055789788","0.146497991983177"
"12-011-1002","Tetrachloroethylene","26.0831432342529","-80.2375869750977","Davie","","COMMERCIAL","","UATMP: FLFL","meanRos_ug_m3","No","Decreasing","Florida","Davie","Suburban","U of F Ag Research Center","No","Tetrachloroethylene","","","","0.237050460891133","0.266916401751608","0.165352293968636","0.212584328104132","0.162127862266667","0.203169733327257","0.14408888401648","0.143903263704423","","","","","","",""
"12-011-2004","Tetrachloroethylene","26.2175827026367","-80.1275482177734","Pompano Beach","","COMMERCIAL","","UATMP: FLFL(2)","meanRos_ug_m3","No","Undetermined","Florida","Pompano Beach","Suburban","UATMP: FLFL(2)","No","Tetrachloroethylene","","","","0.30423866723547","0.413814787370848","","","","","","","","","","","","",""
"12-011-3002","Tetrachloroethylene","26.0012016296387","-80.1603240966797","Holleywood","","COMMERCIAL","","SITE #18","meanRos_ug_m3","No","Undetermined","Florida","Hollywood","Suburban","SITE #18","No","Tetrachloroethylene","","","","0.230181708737321","0.22273813224423","","","","","","","","","","","","",""
"12-011-5005","Tetrachloroethylene","26.2941665649414","-80.1763916015625","Coconut Creek","","RESIDENTIAL","","UATMP: CCFL; SITE #30","meanRos_ug_m3","No","Decreasing","Florida","Coconut Creek","Suburban","Coconut Creek","No","Tetrachloroethylene","","","","0.376082258703241","0.266479935983171","0.166323284157737","0.178448563594819","0.141405121197077","0.147548871865244","","","","","","","","",""
"12-011-8002","Tetrachloroethylene","26.0884208679199","-80.1111907958984","J.U.Lloyd State Park","","RESIDENTIAL","","SITE # 25","meanRos_ug_m3","No","No Trend","Florida","Hollywood","Suburban","Dr. Von Mizell-Eula Johnson State Park (prev. John U Lloyd State Park)","No","Tetrachloroethylene","","","","","","","","0.130592338068315","0.114051711199926","0.0912946268469272","0.110018067600375","","0.150076138420981","","","","",""
"12-057-1065","Tetrachloroethylene","27.8925228118896","-82.5384292602539","Tampa","","COMMERCIAL","","UATMP: GAFL; NADP: FL18; PILOT CITY: Gandy","meanRos_ug_m3","No","No Trend","Florida","Tampa","Suburban","USMC Reserve Center (Gandy)","No","Tetrachloroethylene","0.185497563788971","0.150245078491955","0.156840435353023","0.168185316749423","0.120046585765903","0.12694210559327","","","","","","","","","","","",""
"12-057-1075","Tetrachloroethylene","28.0502967834473","-82.3778686523438","Tampa","","RESIDENTIAL","","UATMP: LEFL; PILOT CITY: Lewis","meanRos_ug_m3","No","Undetermined","Florida","Tampa","Urban And Center City","WHITEWAY DRIVE TAMPA","No","Tetrachloroethylene","0.173825117171162","","","","","","","","","","","","","","","","",""
"12-073-0012","Tetrachloroethylene","30.4397220611572","-84.3463897705078","TALLAHASSEE","","COMMERCIAL","","Tallahassee Community College","meanRos_ug_m3","No","No Trend","Florida","Tallahassee","Suburban","Tallahassee Community College","No","Tetrachloroethylene","","","","","0.193415050629954","0.127885226173204","0.398669018382343","0.301838060915769","0.209519125471959","","","","","","","","",""
"12-095-2002","Tetrachloroethylene","28.5963897705078","-81.3625030517578","Winter Park","","COMMERCIAL","","UATMP: ORFL","meanRos_ug_m3","No","Decreasing","Florida","Winter Park","Urban And Center City","WINTER PARK","No","Tetrachloroethylene","","","0.413531493230814","0.367375224816365","0.162198959216867","0.18513088108996","","0.234769437797978","0.129881376003633","0.131991048738108","0.135371833119338","0.176141329058165","","0.134857428943117","","","",""
"12-103-0004","Tetrachloroethylene","27.9466876983643","-82.7317657470703","Clearwater","","COMMERCIAL","","UATMP: CWFL","meanRos_ug_m3","No","Undetermined","Florida","Clearwater","Suburban","St. Petersburg College","No","Tetrachloroethylene","0.265773598808099","","","","","","","","","","","","","","","","",""
"12-103-0018","Tetrachloroethylene","27.7858657836914","-82.739875793457","SAINT PETERSBURG","","RESIDENTIAL","","UATMP: AZFL; PILOT CITY: Azalea Park","meanRos_ug_m3","Yes","Decreasing","Florida","Saint Petersburg","Suburban","Azalea Park","No","Tetrachloroethylene","0.224977314705781","0.163988292860017","0.165621117526285","0.167824683981688","0.107048099741109","0.141143067342196","0.0913964369276607","0.0981523511394606","0.0745050413485436","0.068996729949767","0.0632033802865366","0.0948014806870252","0.0684525336718581","0.0946968390769198","0.0964035560826583","0.0713878575711553","0.0673193258159583","0.070480982445664"
"13-021-0012","Tetrachloroethylene","32.805362701416","-83.5435180664063","Macon","","INDUSTRIAL","","Macon SE","meanRos_ug_m3","No","Undetermined","Georgia","Macon","Rural","Macon-Forestry","No","Tetrachloroethylene","","","","","","","","","","","","","0.166809953469455","0.154665475989848","0.0671024837758528","0.11900768808052","",""
"13-051-0021","Tetrachloroethylene","32.0691833496094","-81.0487442016602","Savannah","","COMMERCIAL","","Savannah-E. President Street","meanRos_ug_m3","No","Undetermined","Georgia","Savannah","Suburban","Savannah-E. President","No","Tetrachloroethylene","","","","","","","","","","","","","","0.120108292190367","0.0733907156121012","0.114114994855205","",""
"13-069-0002","Tetrachloroethylene","31.513126373291","-82.7500076293945","Douglas","","AGRICULTURAL","","General Coffee","meanRos_ug_m3","No","Undetermined","Georgia","Not in a city","Rural","General Coffee","No","Tetrachloroethylene","","","","","","","","","","","","","","","","0.0890207229603111","",""
"13-089-0003","Tetrachloroethylene","33.6985511779785","-84.2726669311523","ATLANTA","","COMMERCIAL","","DMRC","meanRos_ug_m3","No","No Trend","Georgia","Atlanta","Suburban","NR-285","No","Tetrachloroethylene","","","","","","","","","","","","","0.172244791197233","0.150974731342851","0.0950214745438978","0.15188688656824","0.113884169608355","0.0997650924949877"
"13-115-0004","Tetrachloroethylene","34.263313293457","-85.1787261962891","Rome","","COMMERCIAL","","","meanRos_ug_m3","No","No Trend","Georgia","Rome","Urban And Center City","","No","Tetrachloroethylene","","0.581471344408121","0.631840089858165","0.43686474865372","0.739653666041558","0.404925173248723","","","","","","","","","","","",""
"13-121-0020","Tetrachloroethylene","33.7412528991699","-84.5526962280273","Utoy Creek","","INDUSTRIAL","","Utoy Creek","meanRos_ug_m3","No","Undetermined","Georgia","Not in a city","Suburban","Utoy Creek","No","Tetrachloroethylene","","","0.218846317572746","0.251621157563694","0.347085820885411","0.1590171942621","","","","","","","","","","","",""
"13-139-0003","Tetrachloroethylene","34.2993316650391","-83.8134078979492","GAINESVILLE","","RESIDENTIAL","","MONITOR LOCATED ON TOP OF SCHOOL","meanRos_ug_m3","No","Undetermined","Georgia","Gainesville","Suburban","Gainesville","No","Tetrachloroethylene","","","0.270687984980435","","","","","","","","","","","","","","",""
"13-153-0001","Tetrachloroethylene","32.6055564880371","-83.5980529785156","WARNER ROBINS","","COMMERCIAL","","LOCATED NEAR ROBBINS AIR FORCE BASE","meanRos_ug_m3","No","Undetermined","Georgia","Warner Robins","Suburban","Warner Robins","No","Tetrachloroethylene","","","","0.39476931181585","","0.0821250063356869","","","","","","","","","","","",""
"13-215-5000","Tetrachloroethylene","32.5032730102539","-84.9420318603516","Columbus","","COMMERCIAL","","","meanRos_ug_m3","No","Undetermined","Georgia","Columbus (Remainder)","Suburban","","No","Tetrachloroethylene","","","","0.129012934090439","","","","","","","","","","","","","",""
"13-223-0003","Tetrachloroethylene","33.9285011291504","-85.0453414916992","Yorkville","","AGRICULTURAL","","PAMS: Yorkville (Near Rockmart)","meanRos_ug_m3","No","Undetermined","Georgia","Not in a city","Rural","Yorkville, King Farm","No","Tetrachloroethylene","","","","","","","","","","","","","","0.0998301676661833","","","",""
"13-245-0092","Tetrachloroethylene","33.4323539733887","-81.9913711547852","Augusta","","INDUSTRIAL","","","meanRos_ug_m3","No","Undetermined","Georgia","Augusta-Richmond County (Remainder)","Suburban","","No","Tetrachloroethylene","","","","0.211514257411474","","","","","","","","","","","","","",""
"15-001-NKUM","Tetrachloroethylene","19.5200004577637","-154.820007324219","Pahoa","","","","NOAA: Cape Kumukahi, Hawaii","meanRos_ug_m3","Yes","Decreasing","","Pahoa","","NOAA: Cape Kumukahi, Hawaii","No","Tetrachloroethylene","0.0208945034816448","0.0179195848157623","0.0170086704253303","0.0175090233500949","0.0162796720411912","0.0154550396932327","0.0148933707280275","0.0144653036739323","0.0123600972007207","0.0116134261652986","0.0121136935696948","0.0123540235508699","0.0127849088422954","0.0126357670136107","0.0125178064713298","0.0112586664941369","0.0120417398595533","0.0115017975089935"
"15-001-NMLO","Tetrachloroethylene","19.5359992980957","-155.57600402832","Kaulapuu","","","","NOAA: Mauna Loa, Hawaii","meanRos_ug_m3","Yes","Decreasing","","Kaulapuu","","NOAA: Mauna Loa, Hawaii","No","Tetrachloroethylene","0.015891018524979","0.0141499282217041","0.0132662851580473","0.0121075070722687","0.0123653186728371","0.011791040702742","0.0115939240472821","0.0108785005344578","0.00962074762940699","0.00907577980309725","0.0100376847590351","0.0110871795332059","0.0100361148771994","0.0101824832428247","0.00968929444439709","0.0101034911147209","0.00974423838062928","0.0091607637066198"
"16-069-0006","Tetrachloroethylene","46.4295616149902","-116.99242401123","Lewiston","","INDUSTRIAL","","","meanRos_ug_m3","No","Undetermined","Idaho","Lewiston","Suburban","","No","Tetrachloroethylene","","","","0.394198150122736","","","","","","","","","","","","","",""
"16-069-0009","Tetrachloroethylene","46.4177780151367","-117.018608093262","Lewiston","","COMMERCIAL","","","meanRos_ug_m3","No","Undetermined","Idaho","Lewiston","Urban And Center City","","No","Tetrachloroethylene","","","","0.179375055101892","","","","","","","","","","","","","",""
"16-069-0012","Tetrachloroethylene","46.4083518981934","-116.992530822754","Lewiston","","RESIDENTIAL","","SUNSET PARK LOCATION, BETWEEN CITY CENTER AND POTLACH CORP.,","meanRos_ug_m3","No","Undetermined","Idaho","Lewiston","Suburban","Lewiston","No","Tetrachloroethylene","","","","0.11256164721877","","","","","","","","","","","","","",""
"16-069-0013","Tetrachloroethylene","46.3972015380859","-116.806198120117","Lapwei","","RESIDENTIAL","","","meanRos_ug_m3","No","Undetermined","Idaho","Not in a city","Rural","","No","Tetrachloroethylene","","","","0.0628302528644953","","","","","","","","","","","","","",""
"16-069-0222","Tetrachloroethylene","46.4380874633789","-116.905181884766","NOT IN A CITY","","COMMERCIAL","","","meanRos_ug_m3","No","Undetermined","Idaho","Not in a city","Rural","","No","Tetrachloroethylene","","","","0.149501066331732","","","","","","","","","","","","","",""
"17-031-3103","Tetrachloroethylene","41.9651947021484","-87.8762664794922","Schiller Park","","MOBILE","","UATMP: SPIL","meanRos_ug_m3","Yes","Increasing","Illinois","Schiller Park","Suburban","IEPA TRAILER","No","Tetrachloroethylene","0.737829614534424","0.533592956346304","0.396838740433477","0.750505907086407","0.397630232675322","0.345026943638259","0.257669609445086","0.331899968379062","0.318183791268168","0.348079973070896","0.426540276122625","1.47173630229451","1.32203540354967","0.845092866055924","0.644911719666373","0.930732441255169","5.50934814625099","5.47139030381253"
"17-119-9010","Tetrachloroethylene","38.8483810424805","-90.076416015625","Roxana","","INDUSTRIAL","","UATMP: ROIL; Phillips 66 Wood River Refinery","meanRos_ug_m3","No","Undetermined","Illinois","Roxana","Suburban","Phillips 66 Wood River Refinery","No","Tetrachloroethylene","","","","","","","","","","","0.090258695049405","0.082757954725976","","","","","",""
"18-003-0004","Tetrachloroethylene","41.0949668884277","-85.1018142700195","Fort Wayne","","COMMERCIAL","","Ft. Wayne- Beacon St.","meanRos_ug_m3","No","Undetermined","Indiana","Fort Wayne","Suburban","Ft. Wayne- Beacon St.","No","Tetrachloroethylene","","0.0593600162577415","0.064480953081325","0.0639123757137122","0.069231142177229","","","","","","","","","","","","",""
"18-019-0009","Tetrachloroethylene","38.276683807373","-85.7637634277344","CLARKSVILLE","","RESIDENTIAL","","Clarksville","meanRos_ug_m3","No","Decreasing","Indiana","Clarksville","Urban And Center City","Clarksville","No","Tetrachloroethylene","","","","","","0.112566038342553","0.111748401940069","0.503071451974067","0.14351622144879","0.142538109465824","0.0768490235793215","0.0765181729724507","0.121600113437231","0.0722582296723443","0.0457723833081114","0.0641811571503875","0.0597124980292279","0.0523859243541645"
"18-039-0003","Tetrachloroethylene","41.6678276062012","-85.9694442749023","Elkhart","","COMMERCIAL","","SAMPLERS ARE ON THE ROOF ON THE WEST SIDE OF THE SCHOOL","meanRos_ug_m3","No","No Trend","Indiana","Elkhart","Urban And Center City","SAMPLERS ARE ON THE ROOF ON THE WEST SIDE OF THE SCHOOL","No","Tetrachloroethylene","0.0673716602729235","0.0543305414059567","0.0832997172030377","0.0655585766531841","0.0963235585086882","","","","","","","","","","","","",""
"18-089-0022","Tetrachloroethylene","41.6066818237305","-87.3047256469727","Gary","","INDUSTRIAL","","UATMP: INDEM","meanRos_ug_m3","Yes","No Trend","Indiana","Gary","Urban And Center City","Gary-IITRI/ 1219.5 meters east of Tennessee St.- old ammuntion bunker","No","Tetrachloroethylene","0.0551052240463519","0.0575624456157305","0.0518897246909827","0.0670661014282858","0.0585542582809439","","0.0677187022254957","","0.0693643069970391","0.0715817814162824","0.0665565812555056","0.0608287066595947","0.0542722623714363","0.0743829790724789","0.0409897016088842","0.0480665802992432","",""
"18-089-0023","Tetrachloroethylene","41.6527404785156","-87.4395523071289","East Chicago","","INDUSTRIAL","","East Chicago Water Flitration Plant","meanRos_ug_m3","No","No Trend","Indiana","East Chicago","Urban And Center City","SITE MOVED FROM EAST CHICAGO FIELD SCHOOL","No","Tetrachloroethylene","0.0908823281982858","0.0668435908885548","0.0910195187197836","0.0760742467379186","0.0749557391941209","","0.0930337334921486","0.186743689033716","0.1466079750069","0.0622031598294802","","","","","","","",""
"18-089-0030","Tetrachloroethylene","41.6814002990723","-87.4947357177734","WHITING","","RESIDENTIAL","","Whiting- Whiting HS","meanRos_ug_m3","No","Increasing","Indiana","Whiting","Urban And Center City","Whiting- Whiting HS","No","Tetrachloroethylene","","0.0915742177864238","0.0754738313582027","0.0708483295581932","0.0864443358631406","","0.0890113253264115","0.287571678797289","0.331354376993282","0.0979702953486506","0.505272168213942","0.250363889883587","0.137602817437042","","","","",""
"18-089-0034","Tetrachloroethylene","41.6534805297852","-87.4355850219727","East Chicago","","COMMERCIAL","","East Chicago-Marina","meanRos_ug_m3","No","No Trend","Indiana","East Chicago","Urban And Center City","East Chicago-Marina","No","Tetrachloroethylene","","","","","","","","","","","0.187871365958099","0.0913063472301161","0.0642796853468054","0.0519646258330648","0.0419084664424054","0.0687755541576806","","0.0430737675648698"
"18-089-0035","Tetrachloroethylene","41.6813926696777","-87.490234375","Whiting","","RESIDENTIAL","","Whiting- Center St.","meanRos_ug_m3","No","No Trend","Indiana","Whiting","Urban And Center City","Whiting- Center St.","No","Tetrachloroethylene","","","","","","","","","","","","","","0.0833427944249201","0.170758809368448","0.0971615027835597","0.107533847785725","0.216980648613567"
"18-089-2008","Tetrachloroethylene","41.639461517334","-87.4936218261719","Hammond","","COMMERCIAL","","HAMMOND CAAP- Hammond- 141st St.","meanRos_ug_m3","Yes","No Trend","Indiana","Hammond","Suburban","HAMMOND CAAP- Hammond- 141st St.","No","Tetrachloroethylene","0.0807953544759638","0.0672818640668944","0.0886961896230113","0.0815897408470117","0.180355141730484","0.0494633872629483","0.0921611211358619","0.212450747139122","0.16324982421607","0.0736775744782812","0.0799366388721103","0.288245211192799","0.314192097780772","0.0597018590763293","0.0377008186317957","0.0502054310361404","0.064210077741518","0.0583602248959055"
"18-097-0057","Tetrachloroethylene","39.7490196228027","-86.1863174438477","INDIANAPOLIS","","RESIDENTIAL","","UATMP: ININ","meanRos_ug_m3","No","Undetermined","Indiana","Indianapolis (Remainder)","Urban And Center City","Indpls- Harding St.","No","Tetrachloroethylene","","","","","0.265477051815853","0.182487049252062","","","","","","","","","","","",""
"18-097-0078","Tetrachloroethylene","39.8110961914063","-86.1144714355469","Indianapolis","","RESIDENTIAL","","UATMP: WPIN","meanRos_ug_m3","Yes","No Trend","Indiana","Indianapolis (Remainder)","Suburban","Indpls- Washington Park/  in parking lot next to police station","No","Tetrachloroethylene","0.137695909391141","0.0831048206240374","0.0827162498356505","0.0871236721500617","0.135346812839625","0.0708917009278158","0.0951935496520394","0.167468519546591","0.124067718851002","0.197998594096161","0.139321907052473","0.367566697799347","0.128237858343813","0.0854211320975396","0.0502302383886959","0.0535066273220178","0.0787982129396975","0.0500262930759418"
"18-097-0084","Tetrachloroethylene","39.7588539123535","-86.1154174804688","Indianapolis","","RESIDENTIAL","","Indpls-  School 21/ Florence Fay School 21","meanRos_ug_m3","No","Undetermined","Indiana","Indianapolis (Remainder)","Urban And Center City","Indpls-  School 21/ Florence Fay School 21","No","Tetrachloroethylene","0.152129990081267","0.0591213055389864","","","","","","","","","","","","","","","",""
"18-097-0085","Tetrachloroethylene","39.7403831481934","-86.2259521484375","INDIANAPOLIS","","MILITARY RESERVATION","","UATMP: IDIN","meanRos_ug_m3","No","Undetermined","Indiana","Indianapolis (Remainder)","Urban And Center City","Stout Field 2","No","Tetrachloroethylene","","","","","0.236820247645162","0.162984898341691","","","","","","","","","","","",""
"18-097-0087","Tetrachloroethylene","39.7879333496094","-86.1308822631836","Indianapolis (Remainder)","","RESIDENTIAL","","Indpls.- I 70","meanRos_ug_m3","No","No Trend","Indiana","Indianapolis (Remainder)","Urban And Center City","Indpls.- I 70","No","Tetrachloroethylene","","","","","","","","","","","","","","0.119669508825043","0.0666589777050634","0.0604185219094056","0.0793561691680214","0.0711851893042349"
"18-127-0024","Tetrachloroethylene","41.6175575256348","-87.1992492675781","NOT IN A CITY","","RESIDENTIAL","","Ogden Dunes- Water Treatment Plant","meanRos_ug_m3","Yes","Increasing","Indiana","Ogden Dunes (Wickliffe)","Suburban","Ogden Dunes- Water Treatment Plant","No","Tetrachloroethylene","0.0467994156241876","0.0533361628140915","0.0471109162243976","0.0557417739590633","0.0821823835026316","","0.0572517339478796","","0.0658206645650252","0.0519583084192426","0.0524055085991726","0.198695801312523","0.438202636517256","1.094757433499","0.233778595790473","1.00759945345707","0.0763813091035608",""
"18-157-0008","Tetrachloroethylene","40.431640625","-86.8525009155273","LAFAYETTE","","INDUSTRIAL","","Lafayette- Greenbush St./ Cinergy Substation","meanRos_ug_m3","No","Undetermined","Indiana","Lafayette","Suburban","Lafayette- Greenbush St./ Cinergy Substation","No","Tetrachloroethylene","","","","","","","0.0734960418758975","","0.158345279758752","0.0667586651011501","","","","","","","",""
"18-163-0016","Tetrachloroethylene","37.974437713623","-87.5322875976563","Evansville","","COMMERCIAL","","Evansville- U of E/  University of Evansville-Carson Center","meanRos_ug_m3","Yes","No Trend","Indiana","Evansville","Urban And Center City","Evansville- U of E/  University of Evansville-Carson Center","No","Tetrachloroethylene","0.0616828199133354","0.0561411736132169","0.103541086818698","0.0640452100882118","0.0476760587292119","0.0714794749170204","0.0745772923767901","","0.0779357492462745","0.0605449834537303","0.0465126282401966","0.0568845734879914","0.0720132689462962","0.076544646117045","","","0.0421849539145788",""
"18-167-0025","Tetrachloroethylene","39.5076866149902","-87.3744430541992","Terre Haute","","COMMERCIAL","","Terre Haute-Fort Harrison Rd.","meanRos_ug_m3","No","Undetermined","Indiana","Terre Haute","Urban And Center City","Terre Haute-Fort Harrison Rd.","No","Tetrachloroethylene","","","","","","","","","","","","0.0466849640847428","0.0613271911966099","0.0619679904041613","0.0462972970597275","","",""
"19-113-0040","Tetrachloroethylene","41.9767684936523","-91.6876602172852","CEDAR RAPIDS","","RESIDENTIAL","","Public Health","meanRos_ug_m3","No","Undetermined","Iowa","Cedar Rapids","Urban And Center City","Public Health","No","Tetrachloroethylene","","","","","","0.219456968680895","","","","","","","","","","","",""
"19-153-0030","Tetrachloroethylene","41.6031608581543","-93.6431198120117","Des Moines","","COMMERCIAL","","UATMP: DMIA","meanRos_ug_m3","No","No Trend","Iowa","Des Moines","Urban And Center City","CARPENTER","No","Tetrachloroethylene","0.53843156279261","","","","","","","0.778184815631636","0.26658847831451","","","0.174114297702305","0.141867306750344","","","","",""
"19-163-0015","Tetrachloroethylene","41.5300102233887","-90.5876083374023","Davenport","","RESIDENTIAL","","UATMP: DAIA","meanRos_ug_m3","No","No Trend","Iowa","Davenport","Urban And Center City","DAVENPORT, JEFFERSON SCH.","No","Tetrachloroethylene","0.183873923312926","0.300361103859887","","","","0.439013780165782","","0.352704371860345","","0.333510231708503","","0.22883658577153","","","","","",""
"21-019-0017","Tetrachloroethylene","38.4593391418457","-82.6404113769531","ASHLAND","","RESIDENTIAL","","UATMP: ASKY","meanRos_ug_m3","No","No Trend","Kentucky","Ashland","Suburban","ASHLAND PRIMARY (FIVCO)","No","Tetrachloroethylene","","","","","","","","","","0.0682814636947234","0.0782234173575777","0.103331360790197","0.101042448083399","0.0743208638521346","0.0833953105833901","0.0792787988046667","",""
"21-067-0012","Tetrachloroethylene","38.0650291442871","-84.4976119995117","LEXINGTON-FAYETTE","","RESIDENTIAL","","UATMP: LEKY","meanRos_ug_m3","No","Undetermined","Kentucky","Lexington-Fayette (corporate name for Lexington)","Suburban","LEXINGTON PRIMARY","No","Tetrachloroethylene","","","","","","","","","","0.046046831239428","0.0728353701316204","0.0888785220385258","0.0765582436922006","","","","",""
"21-139-0004","Tetrachloroethylene","37.0715103149414","-88.3338928222656","NOT IN A CITY","","AGRICULTURAL","","UATMP: BLKY","meanRos_ug_m3","No","Increasing","Kentucky","Smithland","Rural","BLOODWORTH","No","Tetrachloroethylene","","","","","","","","","","0.021548472230852","0.0523805630575302","0.0533959565567867","0.0462199492664309","0.0582006817584138","0.0637417408854943","0.0587119345562161","",""
"21-157-0014","Tetrachloroethylene","37.0452003479004","-88.3308715820313","GRAND RIVERS","","INDUSTRIAL","","UATMP: TVKY; TVA SUBSTATION","meanRos_ug_m3","No","No Trend","Kentucky","Calvert City (RR name Calvert)","Suburban","TVA SUBSTATION","No","Tetrachloroethylene","","","","","","","","","","0.0472614193844865","0.0661530678960773","0.0870556495632806","0.0561513290221937","0.0693188083023906","0.0783137979649531","0.0793269220710213","",""
"21-157-0016","Tetrachloroethylene","37.0417594909668","-88.3540725708008","GRAND RIVERS","","INDUSTRIAL","","UATMP: ATKY; ATMOS ENERGY","meanRos_ug_m3","No","No Trend","Kentucky","Calvert City (RR name Calvert)","Suburban","ATMOS ENERGY","No","Tetrachloroethylene","","","","","","","","","","0.065460461676349","0.0616621391150439","0.0767850111610929","0.0780740464656561","0.0840036623806908","","","",""
"21-157-0018","Tetrachloroethylene","37.0270195007324","-88.3438720703125","CALVERT CITY","","RESIDENTIAL","","UATMP: CCKY; CALVERT CITY ELEMENTARY","meanRos_ug_m3","No","Undetermined","Kentucky","Calvert City (RR name Calvert)","Suburban","Calvert City Elementary","No","Tetrachloroethylene","","","","","","","","","","0.0299740016851987","0.0548774052083632","0.0698526098159855","","","","","",""
"21-157-0019","Tetrachloroethylene","37.037181854248","-88.3341064453125","Calvert City","","RESIDENTIAL","","UATMP: LAKY; Lazy Daz","meanRos_ug_m3","No","Undetermined","Kentucky","Not in a city","Suburban","LAZY DAZ","No","Tetrachloroethylene","","","","","","","","","","0.0462731352905352","0.0703835112219938","0.068712529125375","","","","","",""
"23-001-0011","Tetrachloroethylene","44.0894050598145","-70.2142181396484","LEWISTON","","COMMERCIAL","","LEWISTON","meanRos_ug_m3","Yes","No Trend","Maine","Lewiston","Urban And Center City","COUNTRY KITCHEN BAKERY PARKING LOT","No","Tetrachloroethylene","","","0.246170567743706","","0.146021195305092","0.255055073093165","0.335138987707706","0.291592290271716","0.179763158188855","0.336133595556021","0.329389163441655","0.335065732785162","0.314238794080674","0.284139474476293","0.211074005400259","0.212403995662612","0.195689132307707","0.132642842210596"
"23-003-1011","Tetrachloroethylene","46.682300567627","-68.0161972045898","PRESQUE ISLE","","COMMERCIAL","","RIVERSIDE STREET MONITORING SHELTER","meanRos_ug_m3","No","No Trend","Maine","Presque Isle","Urban And Center City","RIVERSIDE","No","Tetrachloroethylene","","","","","0.14125839760728","0.11095649904934","0.198192904488398","0.113173490963201","0.0869408180346576","0.263228567811299","0.297922666682753","","0.265387690123555","0.155749076248942","0.180641660596779","0.195568725547567","0.188382226971387","0.0959269402947245"
"23-005-0029","Tetrachloroethylene","43.6602478027344","-70.2689666748047","PORTLAND","","COMMERCIAL","","PDO - Portland Deering Oaks","meanRos_ug_m3","No","No Trend","Maine","Portland","Urban And Center City","PDO - Portland Deering Oaks","No","Tetrachloroethylene","","","","","","","0.143791632119404","0.101226696230553","0.0772354431683198","0.220955334008351","0.242689038815373","0.194242973059278","0.238605775472619","0.201495970254428","0.180159890315435","0.174913429932415","0.147806567997822","0.134981519055984"
"23-005-2003","Tetrachloroethylene","43.5610427856445","-70.2073211669922","Cape Elizabeth","","RESIDENTIAL","","CETL - Cape Elizabeth Two Lights (State Park)","meanRos_ug_m3","No","No Trend","Maine","Not in a city","Rural","CETL - Cape Elizabeth Two Lights (State Park)","No","Tetrachloroethylene","","","","","","","","","","","","0.15682989321883","0.156544335198912","0.190880392932134","0.118842882303222","0.144527389934436","",""
"23-005-5501","Tetrachloroethylene","43.6366653442383","-70.2519454956055","","","COMMERCIAL","","","meanRos_ug_m3","No","Undetermined","Maine","South Portland","Urban And Center City","","No","Tetrachloroethylene","","","","","","","","","","","","","","","","","","0.111471155036211"
"23-005-5502","Tetrachloroethylene","43.6530570983887","-70.2347259521484","","","COMMERCIAL","","","meanRos_ug_m3","No","Undetermined","Maine","South Portland","Urban And Center City","","No","Tetrachloroethylene","","","","","","","","","","","","","","","","","","0.106163407418168"
"23-005-5503","Tetrachloroethylene","43.6227760314941","-70.2683334350586","","","RESIDENTIAL","","","meanRos_ug_m3","No","Undetermined","Maine","South Portland","Suburban","","No","Tetrachloroethylene","","","","","","","","","","","","","","","","","","0.110978462049663"
"23-005-5504","Tetrachloroethylene","43.6261100769043","-70.303337097168","","","RESIDENTIAL","","","meanRos_ug_m3","No","Undetermined","Maine","South Portland","Suburban","","No","Tetrachloroethylene","","","","","","","","","","","","","","","","","","0.114289020251699"
"23-005-5505","Tetrachloroethylene","43.6377792358398","-70.3180541992188","","","RESIDENTIAL","","","meanRos_ug_m3","No","Undetermined","Maine","South Portland","Suburban","","No","Tetrachloroethylene","","","","","","","","","","","","","","","","","","0.111022715008166"
"23-005-6606","Tetrachloroethylene","43.6605567932129","-70.2455520629883","","","COMMERCIAL","","","meanRos_ug_m3","No","Undetermined","Maine","Portland","Urban And Center City","","No","Tetrachloroethylene","","","","","","","","","","","","","","","","","","0.130164662923397"
"23-005-6607","Tetrachloroethylene","43.6455574035645","-70.2622222900391","","","COMMERCIAL","","","meanRos_ug_m3","No","Undetermined","Maine","Portland","Urban And Center City","","No","Tetrachloroethylene","","","","","","","","","","","","","","","","","","0.11996119128523"
"23-017-2011","Tetrachloroethylene","44.5514183044434","-70.5463180541992","RUMFORD","","INDUSTRIAL","","IN 8 X 8 ECTO SHELTER LOCATED IN PARKING LOT EAST OF RUMFORD AVENUE.","meanRos_ug_m3","Yes","No Trend","Maine","Rumford (census name for Rumford Compact)","Rural","Rumford Avenue Parking Lot (RAP)","No","Tetrachloroethylene","","","0.114836126456366","","0.0701854218825215","0.123569184989755","0.135695540198008","0.0745653655640831","0.04833456486456","0.167979393817358","0.196617633731643","0.166740234670683","0.160864200918107","0.150081151800707","0.136774421360704","0.164717451146248","0.110908001684044",""
"23-019-0002","Tetrachloroethylene","44.7988586425781","-68.7696762084961","BANGOR","","COMMERCIAL","","BANGOR","meanRos_ug_m3","No","Increasing","Maine","Bangor","Urban And Center City","KENDUSKEAG PUMP STATION (BUILDING ROOF)","No","Tetrachloroethylene","","","","","0.126558556623854","0.111058579337242","","0.143400520104771","0.0800804659486451","0.225094445703322","0.282059703252747","0.16606165754312","0.227460704174346","0.198933335844617","0.194063250219808","0.52267750853525","",""
"23-019-0017","Tetrachloroethylene","44.8173980712891","-68.7727584838867","Bangor","","RESIDENTIAL","","Mary Snow School","meanRos_ug_m3","No","Undetermined","Maine","Bangor","Urban And Center City","Mary Snow School","No","Tetrachloroethylene","","","","","","","","","","","","","","","","0.162961141731233","0.118980406337924",""
"24-003-0019","Tetrachloroethylene","39.1011123657227","-76.7294464111328","Fort Meade","","COMMERCIAL","","PAMS: Fort Meade","meanRos_ug_m3","No","Undetermined","Maryland","Fort Meade (U.S. Army)","Suburban","FT MEADE LAT/LONG POINT IS OF THE SAMPLING INLET","No","Tetrachloroethylene","0.339068566758616","0.260650134330417","","","","","","","","","","","","","","","",""
"24-005-3001","Tetrachloroethylene","39.3108329772949","-76.4744415283203","Essex","","RESIDENTIAL","","PAMS: Essex","meanRos_ug_m3","Yes","Decreasing","Maryland","Essex","Suburban","Essex","No","Tetrachloroethylene","0.353964881723126","0.28287688105339","0.372844510879673","0.341609324514866","0.348058579007884","0.350626768157166","0.798593136831749","0.292028705987313","0.111720633088328","0.255067255108223","0.335716365016185","0.229798327936765","0.275410547786433","0.281293499330208","0.230459536485756","0.155249131929631","0.264167993850341","0.347244091139109"
"24-027-0006","Tetrachloroethylene","39.1431312561035","-76.8461074829102","North Laurel","","RESIDENTIAL","","Howard County Near Road","meanRos_ug_m3","No","No Trend","Maryland","North Laurel","Suburban","Howard County Near Road","No","Tetrachloroethylene","","","","","","","","","","","","0.191746834342025","0.222790797668372","0.242647911946198","0.162339843850357","0.0758417842880219","0.134149330867139","0.0845682571866233"
"24-033-0030","Tetrachloroethylene","39.0552787780762","-76.8783340454102","BELTSVILLE","","RESIDENTIAL","","HU-Beltsville","meanRos_ug_m3","Yes","Decreasing","Maryland","Beltsville","Suburban","HU-Beltsville","No","Tetrachloroethylene","","","0.269219538465664","0.252421384726536","0.325173973813214","0.26219453955005","0.20529142018532","0.185981450925395","0.127732149242122","0.234142338951821","0.189386277857803","0.176244245417285","0.185289596046828","0.182143255335336","0.14835199447663","0.110732548420381","0.18966033530205","0.128200089853857"
"24-510-0006","Tetrachloroethylene","39.3405570983887","-76.5822219848633","Baltimore","","RESIDENTIAL","","Northeast Police","meanRos_ug_m3","No","No Trend","Maryland","Baltimore","Suburban","Northeast Police","No","Tetrachloroethylene","0.341672505189975","0.271499837204219","0.314227799017882","0.279558075439875","0.297769019443766","0.261999992380772","0.560302109034324","0.176557057923639","0.12237759317583","","","","","","","","",""
"24-510-0040","Tetrachloroethylene","39.2977333068848","-76.604606628418","Baltimore","","RESIDENTIAL","","Oldtown","meanRos_ug_m3","Yes","Decreasing","Maryland","Baltimore","Urban And Center City","Oldtown","No","Tetrachloroethylene","0.59906153663479","0.42834647606105","0.439548643756527","0.380553637317463","0.389803780638197","0.34500982391747","0.283923456566236","0.26464435294018","0.216254125044057","0.469280046153272","0.2771777111378","0.271495926310081","0.301414974145474","0.305672332556566","0.276216862618214","0.162849027250606","0.193124964474447","0.146421586099497"
"25-009-2006","Tetrachloroethylene","42.4746437072754","-70.970817565918","Lynn","","COMMERCIAL","","LYNN WATER TREATMENT PLANT","meanRos_ug_m3","Yes","Decreasing","Massachusetts","Lynn","Urban And Center City","LYNN WATER TREATMENT PLANT","No","Tetrachloroethylene","0.266971443227872","0.257936370430169","0.185194910838313","0.155618716300634","0.13550480641966","0.180188423889721","0.152242104477081","0.0944364622357439","0.0989408065386158","0.0913351160850156","0.0855097531746888","0.0849643342817823","0.0950492406421799","0.0821929561493338","0.0755781532023792","0.0652070551384556","0.062203787877385","0.0622392409465841"
"25-021-2004","Tetrachloroethylene","42.2458648681641","-70.9627685546875","North Weymouth","","INDUSTRIAL","","","meanRos_ug_m3","No","Undetermined","Massachusetts","Not in a city","Suburban","Weymouth","No","Tetrachloroethylene","","","","","","","","","","","","","","","","","","0.061262971758112"
"25-027-NHFM","Tetrachloroethylene","42.5379981994629","-72.1709976196289","Petersham","","","","NOAA: Harvard Forest, Massachusetts","meanRos_ug_m3","Yes","Decreasing","","Petersham","","NOAA: Harvard Forest, Massachusetts","No","Tetrachloroethylene","","","0.083708692911118","0.0826773616984663","0.0680593690594389","0.0518997835568427","0.0503783840045186","0.0572534301158922","0.0474936723096455","0.0392954789690281","0.0517252409173285","0.0428808741027318","0.0441048694257107","0.0389002921962828","0.0413016786844265","0.0338710636715405","0.0403887955471873","0.0428966797060437"
"26-077-0901","Tetrachloroethylene","42.2164306640625","-85.5525054931641","Kalamazoo","","INDUSTRIAL","","","meanRos_ug_m3","No","Undetermined","Michigan","Kalamazoo","Suburban","","No","Tetrachloroethylene","0.22071573107381","0.10816082070616","0.122494149982988","","","","","","","","","","","","","","",""
"26-111-0955","Tetrachloroethylene","43.589469909668","-84.2210998535156","Midland","","INDUSTRIAL","","WOOD PLATFORM","meanRos_ug_m3","No","No Trend","Michigan","Midland","Rural","WOOD PLATFORM","No","Tetrachloroethylene","1.35598254904898","","","","","","","1.41801825389092","1.67748916628682","1.62286706850799","","1.19073582275507","0.239516376916156","","","","",""
"26-111-0960","Tetrachloroethylene","43.6000213623047","-84.2001419067383","Midland","","COMMERCIAL","","","meanRos_ug_m3","No","Undetermined","Michigan","Midland","Rural","","No","Tetrachloroethylene","","","","","","","","","","1.4767692931607","1.34163662566389","","0.610645391310018","","","","",""
"26-161-0008","Tetrachloroethylene","42.2405662536621","-83.5996017456055","Ypsilanti","","COMMERCIAL","","PILOT CITY: Ypsilanti","meanRos_ug_m3","No","Undetermined","Michigan","Ypsilanti","Urban And Center City","TOWNER ST, SOUTH; 2 LANE RESIDENIAL - HOSPITAL","No","Tetrachloroethylene","","","","0.345611843903221","","","","","","","","","","","","","",""
"26-163-0015","Tetrachloroethylene","42.3027877807617","-83.1065292358398","Detroit","","COMMERCIAL","","UATMP: SWMI; PILOT CITY: Southwest HS","meanRos_ug_m3","No","Undetermined","Michigan","Detroit","Urban And Center City","Southwestern H.S.","No","Tetrachloroethylene","","","","0.178177915622162","","","","","","","","","","","","4.92634447530001","3.4514305878649",""
"26-163-0027","Tetrachloroethylene","42.2922325134277","-83.106803894043","Detroit","","INDUSTRIAL","","UATMP: YFMI; PILOT CITY: Yellow Freight","meanRos_ug_m3","No","Undetermined","Michigan","Detroit","Urban And Center City","Yellow Freight","No","Tetrachloroethylene","","","0.470231300642165","","","","","","","","","","","","","","",""
"27-003-1002","Tetrachloroethylene","45.1376800537109","-93.2076187133789","Blaine","","COMMERCIAL","","Anoka Airport6010","meanRos_ug_m3","No","No Trend","Minnesota","Blaine","Suburban","Anoka County Airport","No","Tetrachloroethylene","","","","","","","","","","0.086030115316749","0.0567840667121696","0.0808170305451251","0.0586719577601326","0.124219555639779","0.0954350477718419","","",""
"27-007-2303","Tetrachloroethylene","47.8772201538086","-95.0122222900391","Red Lake","","RESIDENTIAL","","Red Lake","meanRos_ug_m3","No","Undetermined","Minnesota","Red Lake","Rural","Red Lake District","No","Tetrachloroethylene","","","","","","","","","0.673120285793253","","","","","","","","",""
"27-017-7416","Tetrachloroethylene","46.7052688598633","-92.5237731933594","CLOQUET","","FOREST","","Cloquet","meanRos_ug_m3","No","Undetermined","Minnesota","Cloquet","Rural","Fond du Lac Band 7416","No","Tetrachloroethylene","","","","","","","","0.0273377248004813","","","","","","","","","",""
"27-019-0052","Tetrachloroethylene","44.8506546020508","-93.5918121337891","Chaska","","RESIDENTIAL","","CHASKA","meanRos_ug_m3","No","No Trend","Minnesota","Chaska","Rural","Chaska","No","Tetrachloroethylene","4.73556569303936","12.1845665938475","5.00302639969721","6.3136495914012","0.7145213661898","","","","","","","","","","","","",""
"27-021-0001","Tetrachloroethylene","47.1599426269531","-94.1509857177734","NOT IN A CITY","","RESIDENTIAL","","Leech Lake","meanRos_ug_m3","No","Undetermined","Minnesota","Not in a city","Rural","Leech Lake Nation: Chatfield","No","Tetrachloroethylene","","","","","","","","","0.0527267418088256","","","","","","","","",""
"27-037-0020","Tetrachloroethylene","44.7632293701172","-93.0325469970703","NOT IN A CITY","","INDUSTRIAL","","FHR 420","meanRos_ug_m3","No","No Trend","Minnesota","Rosemount","Rural","Flint Hills Refinery 420","No","Tetrachloroethylene","0.0897801674715062","0.157937586400658","0.111110071873018","0.13692000463467","0.167750211073118","0.0578375637337987","0.0661156484447846","0.0693125526404715","0.0650226282857427","0.0329881044460728","0.0293815502895714","0.0624222227898666","0.0714610422147307","0.0599474562258578","0.177925282016546","","",""
"27-037-0423","Tetrachloroethylene","44.7755317687988","-93.06298828125","Rosemount","","INDUSTRIAL","","FHR 423","meanRos_ug_m3","No","No Trend","Minnesota","Inver Grove Heights (RR name Inver Grove)","Rural","Flint Hills Refinery 423","No","Tetrachloroethylene","0.0787172211173822","0.14173267232412","0.0911773128745457","0.144340492702801","0.163209114287948","0.0551042421203521","0.0581830591673694","0.043095951839944","0.0615978772766727","0.049534113920607","0.0238294292156158","0.0859515785637769","0.0416816809095487","0.142761310159752","0.115243562942421","","",""
"27-037-0441","Tetrachloroethylene","44.7467994689941","-93.0261077880859","Rosemount","","INDUSTRIAL","","FHR 441","meanRos_ug_m3","No","No Trend","Minnesota","Rosemount","Rural","Flint Hills Refinery 441","No","Tetrachloroethylene","0.0668207653663181","0.132039965522368","0.0887718347023379","0.129791113202749","0.254658526213805","","","","","","","","","","","","",""
"27-037-0442","Tetrachloroethylene","44.7385711669922","-93.0049591064453","Rosemount","","AGRICULTURAL","","FHR 442","meanRos_ug_m3","No","Decreasing","Minnesota","Rosemount","Rural","Flint Hills Refinery 442","No","Tetrachloroethylene","0.0726883997038219","0.113095928037304","0.0846886011077312","0.10341342262032","0.212162419366811","0.0504576793614903","0.0562550781799828","0.0422944687786461","0.0579127585253493","0.0352107874279038","0.0285466780699536","","","","","","",""
"27-037-0443","Tetrachloroethylene","44.745662689209","-93.0554122924805","ROSEMOUNT","","INDUSTRIAL","","FHR 443","meanRos_ug_m3","No","Increasing","Minnesota","Rosemount","Rural","Flint Hills Refinery 443","No","Tetrachloroethylene","","","","","","0.049709177855444","0.0562000778736547","0.0557555972941612","0.0650821688293605","0.0551370883185053","0.03147936841624","0.0776947576659072","0.0568238160486482","0.134964039467335","0.109232280972638","","",""
"27-037-0470","Tetrachloroethylene","44.7384605407715","-93.2372512817383","Apple Valley","","RESIDENTIAL","","Apple Valley","meanRos_ug_m3","No","Decreasing","Minnesota","Apple Valley","Suburban","Apple Valley","No","Tetrachloroethylene","0.11764063650535","0.216479073611221","0.11303747119382","0.146769285575457","0.193838563835565","0.0794711501492808","0.0782845637280379","0.091361483815929","0.0912230061054614","0.058011527508894","0.0388642190661897","0.110136841155339","0.0565582310963481","0.0494555531231591","0.0632204556713015","","",""
"27-053-0050","Tetrachloroethylene","45.0012283325195","-93.2671203613281","Minneapolis","","COMMERCIAL","","NE Fire Station","meanRos_ug_m3","No","Undetermined","Minnesota","Minneapolis","Urban And Center City","Minneapolis Fire Station 2","No","Tetrachloroethylene","0.183949161058032","0.257174307337174","0.216262355912477","0.185375096823789","","","","","","","","","","","","","",""
"27-053-0909","Tetrachloroethylene","45.0121002197266","-93.2766952514648","Minneapolis","","INDUSTRIAL","","Lowry Ave","meanRos_ug_m3","No","Undetermined","Minnesota","Minneapolis","Urban And Center City","Lowry Avenue","No","Tetrachloroethylene","","","","","","","","","","","","","0.0872248406145741","0.142757964303311","0.0676494617915462","","",""
"27-053-0961","Tetrachloroethylene","44.8755111694336","-93.258918762207","RICHFIELD","","RESIDENTIAL","","RICHFIELD INTERMEDIATE SCHOOL","meanRos_ug_m3","No","Decreasing","Minnesota","Richfield","Suburban","Richfield Intermediate School","No","Tetrachloroethylene","","","","0.263927950899591","0.168600583669137","0.102398922870105","0.116142044434897","0.126001578848675","0.0731362993915186","0.0673687124827055","0.0382696368140253","0.0802997955186094","0.100915227684643","0.104145066921568","0.0539288921912408","","",""
"27-053-0962","Tetrachloroethylene","44.9652404785156","-93.2547607421875","Minneapolis","","RESIDENTIAL","","Minneapolis Near Roadway NOx","meanRos_ug_m3","No","Undetermined","Minnesota","Minneapolis","Urban And Center City","Near Road I-35/I-94","No","Tetrachloroethylene","","","","","","","","","","","","0.168903109559091","0.0883270651250449","0.0717958292189238","0.0612625167560462","","",""
"27-053-0963","Tetrachloroethylene","44.9536590576172","-93.2582092285156","Minneapolis","","RESIDENTIAL","","HC Anderson School","meanRos_ug_m3","No","Decreasing","Minnesota","Minneapolis","Urban And Center City","Andersen School","No","Tetrachloroethylene","0.383024974662608","0.659376400057226","0.488917584851628","0.459337403453515","0.284846882744316","0.141916977540361","0.271110804775601","0.156023623658565","0.176382511236275","0.112809362886579","0.0744536473144811","0.147444164622273","0.116505921612767","0.104000019469391","0.112232178952537","","",""
"27-053-0964","Tetrachloroethylene","44.8885498046875","-93.1953735351563","NOT IN A CITY","","COMMERCIAL","","MSP AIRPORT","meanRos_ug_m3","No","Undetermined","Minnesota","Not in a city","Suburban","MSP Airport","No","Tetrachloroethylene","0.104514978784085","","","","","","","","","","","","","","","","",""
"27-053-0965","Tetrachloroethylene","45.0044784545898","-93.2400436401367","Minneapolis","","RESIDENTIAL","","Putnam School","meanRos_ug_m3","No","Undetermined","Minnesota","Minneapolis","Urban And Center City","Putnam Elementary School","No","Tetrachloroethylene","0.232258224456405","1.34283177234363","0.182004552036524","0.165885974908393","","","","","","","","","","","","","",""
"27-053-0966","Tetrachloroethylene","44.9794387817383","-93.2661285400391","Minneapolis","","COMMERCIAL","","UATMP: MIMN; City of Lakes Bldg","meanRos_ug_m3","No","Decreasing","Minnesota","Minneapolis","Urban And Center City","City of Lakes Building","No","Tetrachloroethylene","0.187481308816827","0.317040104348704","0.177140586479109","0.191007915702648","0.308243756603996","0.0949411244936666","0.121691050048787","0.114473939012244","0.184808102906418","0.101926065318716","0.0746067218511871","0.132888658935973","0.0909550752092436","0.105716766056471","0.0804502635673377","","",""
"27-053-0968","Tetrachloroethylene","44.8930053710938","-93.2332305908203","MINNEAPOLIS","","COMMERCIAL","","MSP Airport 968","meanRos_ug_m3","No","Undetermined","Minnesota","Minneapolis","Urban And Center City","Metropolitan Airports Commission","No","Tetrachloroethylene","","","0.145391461644637","0.243615276388289","","","","","","","","","","","","","",""
"27-053-0969","Tetrachloroethylene","44.9005699157715","-93.23828125","MINNEAPOLIS","","RESIDENTIAL","","WENONAH SCHOOL","meanRos_ug_m3","No","No Trend","Minnesota","Minneapolis","Suburban","Wenonah Elementary School","No","Tetrachloroethylene","","","0.16555666821521","0.168553152505076","0.289471157575384","0.102674735873415","0.0932541730601275","","","","","","","","","","",""
"27-053-1007","Tetrachloroethylene","45.0397186279297","-93.2987365722656","Minneapolis","","RESIDENTIAL","","Humboldt Ave","meanRos_ug_m3","No","Decreasing","Minnesota","Minneapolis","Suburban","Humboldt Avenue","No","Tetrachloroethylene","0.128886284584311","0.267516697250437","0.169455879902253","0.225979667070366","0.264205282143153","0.0854441680183465","0.130513718451506","0.129644631807293","0.0874835778078115","0.0577894010724331","0.0550723450200579","0.106455348643972","0.0797247603740462","0.0789756180523711","0.0831544037454585","","",""
"27-053-1909","Tetrachloroethylene","45.0136108398438","-93.2720489501953","Minneapolis","","COMMERCIAL","","Bottineau / Marshall Terrace","meanRos_ug_m3","No","Undetermined","Minnesota","Minneapolis","Urban And Center City","Bottineau / Marshall Terrace","No","Tetrachloroethylene","","","","","","","","","","","","","","","0.0744658299068028","","",""
"27-053-2006","Tetrachloroethylene","44.9480514526367","-93.343147277832","ST LOUIS PARK","","RESIDENTIAL","","St. Louis Park","meanRos_ug_m3","No","Decreasing","Minnesota","St. Louis Park","Suburban","St. Louis Park City Hall","No","Tetrachloroethylene","","","","","","0.113849472078793","0.116401893192629","0.222590016787527","0.136931356367845","0.0663458461008189","0.0516086684299452","0.0730509831584053","0.0610751734541401","0.0627022717083486","0.0574163709997253","","",""
"27-075-0005","Tetrachloroethylene","47.9486236572266","-91.4955749511719","NOT IN A CITY","","UNKNOWN","","Fernberg Road","meanRos_ug_m3","No","Undetermined","Minnesota","Not in a city","Rural","Boundary Waters","No","Tetrachloroethylene","","","","","","","","0.0152792763024975","","","","","","","","","",""
"27-095-3051","Tetrachloroethylene","46.2052993774414","-93.7594528198242","ONAMIA","","FOREST","","Mille Lacs","meanRos_ug_m3","No","Undetermined","Minnesota","Onamia","Rural","Mille Lacs Band","No","Tetrachloroethylene","","","","","","","","","","0.0368994745804701","","","","","","","",""
"27-123-0017","Tetrachloroethylene","44.9441337585449","-93.0651245117188","SAINT PAUL","","INDUSTRIAL","","Holman Field","meanRos_ug_m3","No","Undetermined","Minnesota","St. Paul","Suburban","Holman Field","No","Tetrachloroethylene","0.143368822500132","0.22505921279654","0.156652928379021","0.181363486302863","","","","","","","","","","","","","",""
"27-123-0021","Tetrachloroethylene","44.9655494689941","-93.0568389892578","SAINT PAUL","","COMMERCIAL","","Ross Avenue","meanRos_ug_m3","No","No Trend","Minnesota","St. Paul","Urban And Center City","Ross Avenue","No","Tetrachloroethylene","0.299482984070842","1.02936122522263","0.201651185903637","0.273301386617516","0.217847896298688","","","","","","","","","","","","",""
"27-123-0868","Tetrachloroethylene","44.9507217407227","-93.0982666015625","SAINT PAUL","","COMMERCIAL","","Ramsey Health Center","meanRos_ug_m3","No","No Trend","Minnesota","St. Paul","Urban And Center City","Ramsey Health Center","No","Tetrachloroethylene","","","","","0.160739036080869","0.0962835926625688","0.125652232239143","0.12229519561931","0.107006871873436","0.129752872915163","0.0797153502074929","0.130626794651243","0.107090464203351","0.0784849916080216","0.0643097352520726","","",""
"27-123-0871","Tetrachloroethylene","44.9593887329102","-93.0358734130859","SAINT PAUL","","RESIDENTIAL","","Harding High School","meanRos_ug_m3","No","No Trend","Minnesota","St. Paul","Suburban","Harding High School","No","Tetrachloroethylene","","","","","","0.119012725971094","0.186714398478599","0.110567155483834","0.122607070571923","0.0589524784129094","0.0583475814477447","0.0805775423999493","0.158624459430306","0.0860563505505745","0.0893344861975894","","",""
"27-123-1908","Tetrachloroethylene","44.9730949401855","-93.1998825073242","SAINT PAUL","","RESIDENTIAL","","South St. Anthony Park","meanRos_ug_m3","No","Undetermined","Minnesota","St. Paul","Urban And Center City","South St. Anthony Park","No","Tetrachloroethylene","","","","","","","","","","","","","","0.508261447505216","","","",""
"27-137-7549","Tetrachloroethylene","46.771068572998","-92.117317199707","Duluth","","INDUSTRIAL","","Michigan St.","meanRos_ug_m3","No","No Trend","Minnesota","Duluth","Urban And Center City","Michigan Street","No","Tetrachloroethylene","0.0858043009153566","0.208358054011144","0.086779904127981","0.163581909402111","0.282395528828991","0.0460917987862509","0.0588725470209805","0.045616273236655","0.0734999285278257","0.052012751789664","0.0741773467042147","0.19604480064233","0.0601488504156845","","0.175758906300607","","",""
"27-163-0436","Tetrachloroethylene","44.8473701477051","-92.9953994750977","SAINT PAUL","","INDUSTRIAL","","MPC 436","meanRos_ug_m3","No","No Trend","Minnesota","St. Paul Park","Suburban","Saint Paul Park Refinery 436","No","Tetrachloroethylene","0.182574799225767","0.197482798724239","0.113519015034936","0.187028699423791","0.153120952048178","0.0913920669015824","0.210057363291432","0.134025674215941","0.115633515246727","0.113283969677176","0.116471763681091","0.245523089880417","0.144756391423302","0.181109107817058","0.120862313892906","","",""
"27-163-0438","Tetrachloroethylene","44.8571090698242","-93.0035171508789","Newport","","INDUSTRIAL","","MPC 438","meanRos_ug_m3","No","Decreasing","Minnesota","Newport","Suburban","Saint Paul Park Refinery 438","No","Tetrachloroethylene","0.0890561984372445","0.314416286361925","0.114697869913653","0.165700667423376","0.225705326438464","0.0795862287382728","0.0896552836648761","0.10078824827807","0.0933160343699438","0.0656698919708661","0.0524121857933976","0.0939538949884208","0.0706748026277024","0.0764517689865714","0.0622939137085139","","",""
"27-163-0445","Tetrachloroethylene","45.0187606811523","-92.7802734375","BAYPORT","","RESIDENTIAL","","Anderson School","meanRos_ug_m3","No","Undetermined","Minnesota","Bayport","Suburban","Anderson School","No","Tetrachloroethylene","","","","","0.248635807672059","","","","","","","","","","","","",""
"27-163-0446","Tetrachloroethylene","45.0279808044434","-92.7741470336914","Bayport","","INDUSTRIAL","","Point Rd.","meanRos_ug_m3","No","No Trend","Minnesota","Bayport","Suburban","Point Road","No","Tetrachloroethylene","","","","","","0.0439458746495175","0.0630869442066459","0.0842209592589355","0.100800933313157","0.0379707947895052","0.0188714485901096","0.0813542397365188","0.0472345013972181","0.0395188541471141","0.0472562015511545","","",""
"28-047-0008","Tetrachloroethylene","30.3903694152832","-89.0497817993164","Gulfport","","COMMERCIAL","","UATMP: GPMS; Katrina: GPMS; BP Oil site GPMS","meanRos_ug_m3","No","Undetermined","Mississippi","Gulfport","Rural","Gulfport Youth Court","No","Tetrachloroethylene","","","","0.136361639798842","0.537517833846277","","","","","","","","","","","","",""
"28-049-0010","Tetrachloroethylene","32.3857307434082","-90.1411972045898","Jackson","","COMMERCIAL","","UATMP: JAMS","meanRos_ug_m3","No","Undetermined","Mississippi","Jackson","Suburban","Jackson FS19","No","Tetrachloroethylene","0.139900584045946","0.254780221265972","","","","","","","","","","","","","","","",""
"28-081-0005","Tetrachloroethylene","34.2649154663086","-88.7662200927734","Tupelo","","COMMERCIAL","","UATMP: TUMS; Katrina: TUMS","meanRos_ug_m3","No","Undetermined","Mississippi","Tupelo","Suburban","TUPELO AIRPORT NEAR OLD NWS OFFICE","No","Tetrachloroethylene","","","0.0858533441829539","0.169585482363056","0.113301327007722","","","","","","","","","","","","",""
"28-087-0002","Tetrachloroethylene","33.5095863342285","-88.4089279174805","Columbus","","RESIDENTIAL","","UATMP: KMMS","meanRos_ug_m3","No","Undetermined","Mississippi","Columbus","Urban And Center City","UATMP: KMMS","No","Tetrachloroethylene","","","","","","","","","","","0.288698044897134","","","","","","",""
"28-087-0003","Tetrachloroethylene","33.4995880126953","-88.4036483764648","Columbus","","RESIDENTIAL","","UATMP: SSMS","meanRos_ug_m3","No","Undetermined","Mississippi","Columbus","Urban And Center City","UATMP: SSMS","No","Tetrachloroethylene","","","","","","","","","","","0.0966568904419601","","","","","","",""
"33-011-0020","Tetrachloroethylene","42.995777130127","-71.4625244140625","Manchester","","COMMERCIAL","","PEARL ST MUNICIPAL PARKING LOT","meanRos_ug_m3","No","No Trend","New Hampshire","Manchester","Urban And Center City","PEARL ST MUNICIPAL PARKING LOT","No","Tetrachloroethylene","","0.286182567190665","0.213326152345097","0.257546222840364","0.241424841099772","1.00930453181267","","","","","","","","","","","",""
"33-013-1003","Tetrachloroethylene","43.177303314209","-71.4620132446289","Pembroke","","RESIDENTIAL","","","meanRos_ug_m3","No","Undetermined","New Hampshire","Pembroke","Rural","","No","Tetrachloroethylene","0.418862584336051","","","","","","","","","","","","","","","","",""
"33-013-1006","Tetrachloroethylene","43.1324615478516","-71.4582443237305","Pembroke","","RESIDENTIAL","","PEMBROKE HIGHWAY DEPARTMENT","meanRos_ug_m3","No","Undetermined","New Hampshire","Suncook","Suburban","PEMBROKE HIGHWAY DEPARTMENT","No","Tetrachloroethylene","0.262816063261458","","","","","","","","","","","","","","","","",""
"33-015-0014","Tetrachloroethylene","43.0753707885742","-70.7480163574219","Portsmouth","","RESIDENTIAL","","PORTSMOUTH - PEIRCE ISLAND","meanRos_ug_m3","No","Undetermined","New Hampshire","Portsmouth","Urban And Center City","PORTSMOUTH - PEIRCE ISLAND","No","Tetrachloroethylene","","0.211338781352554","0.129291232675314","0.181300982832909","0.144379941821098","","","","","","","","","","","","",""
"33-019-0003","Tetrachloroethylene","43.3645172119141","-72.3378677368164","Claremont","","RESIDENTIAL","","","meanRos_ug_m3","No","No Trend","New Hampshire","Claremont","Urban And Center City","","No","Tetrachloroethylene","0.257046745121479","0.152339477624212","0.145620819566579","0.167017266899347","0.139683797382391","1.08326743077487","","","","","","","","","","","",""
"34-007-0002","Tetrachloroethylene","39.9344444274902","-75.1252899169922","Camden","","INDUSTRIAL","","UATMP: CSNJ; Camden Spruce Street","meanRos_ug_m3","No","No Trend","New Jersey","Camden","Urban And Center City","Camden Spruce Street","No","Tetrachloroethylene","","","","","","","","","","","0.141241061527333","0.122489344027528","0.167470191276571","0.168778802187117","0.149967891420956","0.15180870794298","0.15505034298965","0.155240533181599"
"34-007-0003","Tetrachloroethylene","39.9230422973633","-75.0976181030273","Camden","","RESIDENTIAL","","UATMP: CANJ","meanRos_ug_m3","No","No Trend","New Jersey","Camden","Suburban","CAMDEN LAB","No","Tetrachloroethylene","0.168689794488814","0.349693585865303","0.640184032703039","0.32609409328041","0.296162697904069","0.525786184870145","","","","","","","","","","","",""
"34-023-0006","Tetrachloroethylene","40.4728240966797","-74.4224014282227","NOT IN A CITY","","AGRICULTURAL","","UATMP: NBNJ","meanRos_ug_m3","No","Decreasing","New Jersey","North Brunswick Township","Rural","New Brunswick","No","Tetrachloroethylene","0.228503375333181","0.277578023432945","0.288283314880521","0.267713759720006","0.234098780512719","0.252916435576271","0.166918509583143","0.131095014846287","0.135335707158336","0.159341227845079","0.0987395772519824","0.101920172822308","0.0954339917207218","","","","",""
"34-023-0011","Tetrachloroethylene","40.4621810913086","-74.4294357299805","NOT IN A CITY","","AGRICULTURAL","","Rutgers University","meanRos_ug_m3","No","Decreasing","New Jersey","East Brunswick (Township of)","Rural","Rutgers University","No","Tetrachloroethylene","","","","","","","","","","","","","","0.124942375579831","0.110388083527098","0.10233619572836","0.0942457458423037","0.0809767024798526"
"34-027-3001","Tetrachloroethylene","40.7876281738281","-74.6763000488281","NOT IN A CITY","","AGRICULTURAL","","UATMP: CHNJ","meanRos_ug_m3","Yes","Decreasing","New Jersey","Chester","Rural","Chester","No","Tetrachloroethylene","0.140510757042931","","0.129286359878683","0.134357644608435","0.151098231253897","0.154861063507856","0.0912867737939536","0.0803071108712262","0.102443192579563","0.0881290980608693","0.0733726207027989","0.0775223118381038","0.0761070128628114","0.0751072853360896","0.080371117754963","0.0793584793699869","0.0630624060814905","0.0602413166096733"
"34-031-0005","Tetrachloroethylene","40.9183807373047","-74.1680908203125","PATERSON","","COMMERCIAL","","UATMP: PANJ; PATERSON","meanRos_ug_m3","No","Undetermined","New Jersey","Paterson","Urban And Center City","Paterson","No","Tetrachloroethylene","","","","0.395686325638793","","","","","","","","","","","","","",""
"34-031-0006","Tetrachloroethylene","40.9157485961914","-74.1767349243164","Paterson","","MOBILE","","Paterson Public School - PS2","meanRos_ug_m3","No","Undetermined","New Jersey","Paterson","Urban And Center City","Paterson Public School - PS2","No","Tetrachloroethylene","","","","0.27737231029475","","","","","","","","","","","","","",""
"34-031-0007","Tetrachloroethylene","40.9274597167969","-74.1606140136719","Paterson","","INDUSTRIAL","","Paterson Public School - PS10","meanRos_ug_m3","No","Undetermined","New Jersey","Paterson","Urban And Center City","Paterson Public School - PS10","No","Tetrachloroethylene","","","","0.368221290929373","","","","","","","","","","","","","",""
"34-039-0004","Tetrachloroethylene","40.6414413452148","-74.208366394043","Elizabeth","","INDUSTRIAL","","UATMP: ELNJ; NADP: NJ54","meanRos_ug_m3","Yes","Decreasing","New Jersey","Elizabeth","Suburban","Elizabeth Lab","No","Tetrachloroethylene","0.336674230554636","0.362777061111367","0.357038316092426","0.366612029384022","0.325066583450276","0.364517257997283","0.263219353045418","0.206666281910932","0.213725996293178","0.197429790514681","0.138102701897709","0.166119701480998","0.171366853558209","0.154649207040673","0.185429332445841","0.150847392653426","0.141283232191181","0.124334542133978"
"35-045-5501","Tetrachloroethylene","36.736328125","-108.417373657227","Fruitland","","AGRICULTURAL","","Nenahnezad, NM school (Nenmsch)","meanRos_ug_m3","No","Undetermined","New Mexico","Not in a city","Rural","Nenahnezad, NM school (Nenmsch)","No","Tetrachloroethylene","","","","","","","","","0.0464178883074376","","","","","","","","",""
"36-001-0013","Tetrachloroethylene","42.6409301757813","-73.7565078735352","Albany","","RESIDENTIAL","","S. Pearl Street","meanRos_ug_m3","No","No Trend","New York","Not in a city","Urban And Center City","S. Pearl Street","No","Tetrachloroethylene","","","","","","","","","","","","","0.116201410677446","0.10693211462033","0.0887096699560916","0.092572902670751","0.111271017727753","0.104433105554846"
"36-005-0083","Tetrachloroethylene","40.8658485412598","-73.8808288574219","New York City","","COMMERCIAL","","UATMP: BXNY","meanRos_ug_m3","No","Undetermined","New York","New York","Urban And Center City","BOTANICAL GARDEN","No","Tetrachloroethylene","2.11595116396035","","","","","","","","","","","","","","","","",""
"36-005-0133","Tetrachloroethylene","40.8679008483887","-73.8780899047852","NEW YORK CITY","","COMMERCIAL","","PFIZER LAB SITE; NADP: NY06","meanRos_ug_m3","No","Decreasing","New York","New York","Urban And Center City","PFIZER LAB SITE","No","Tetrachloroethylene","","","","","0.483677881211042","0.499389750758807","0.448107494747844","0.344253805537636","0.269329328944937","0.247160389703714","0.271852678634593","0.164989994302139","0.235577813908458","0.24559472886021","0.181919396501677","0.201016999212867","0.180957931404312","0.171068614605686"
"36-029-0005","Tetrachloroethylene","42.8769073486328","-78.8095245361328","BUFFALO","","RESIDENTIAL","","BUFFALO","meanRos_ug_m3","No","Decreasing","New York","Buffalo","Urban And Center City","BUFFALO","No","Tetrachloroethylene","","","","","","","","","","","","0.157346018480793","0.153882485032082","0.136500775020708","0.10753365202457","0.0977804708126627","0.0745734129550642","0.103124382763596"
"36-029-1007","Tetrachloroethylene","42.8273010253906","-78.8498382568359","Lackawanna","","INDUSTRIAL","","SIMON STREET","meanRos_ug_m3","No","No Trend","New York","Lackawanna","Urban And Center City","SIMON STREET","No","Tetrachloroethylene","0.306921620695096","","0.206712640523911","0.21673381080064","0.211021954291745","0.25166389401679","0.132904602598962","0.163203355513139","","","","","","","","","",""
"36-029-1013","Tetrachloroethylene","42.9884414672852","-78.918586730957","Tonawanda","","INDUSTRIAL","","UATMP: TONY; GRAND ISLE BOULDVARD","meanRos_ug_m3","No","Decreasing","New York","Tonawanda","Urban And Center City","GRAND ISLE BOULDVARD","No","Tetrachloroethylene","","","","","","0.192947513766416","0.145415029849837","0.120887846734118","0.112438993249981","0.102898678180066","0.123580946385512","0.0981892916406023","0.1286703482265","0.116068483423442","0.0705653988316086","0.0565523418484541","0.0530225685213424",""
"36-029-1014","Tetrachloroethylene","42.9981307983398","-78.8992614746094","Tonawanda","","RESIDENTIAL","","BROOKSIDE TERRACE","meanRos_ug_m3","No","Decreasing","New York","Tonawanda","Suburban","BROOKSIDE TERRACE","No","Tetrachloroethylene","","","","","","0.177108494564891","0.136496333310665","0.109525079459504","0.0858031731895909","0.107484464154199","0.103610656346348","0.0771374143975771","0.115442566699683","0.0906001512796201","0.0745923602216573","0.0612924047364075","0.0600614145736807","0.0571300903024773"
"36-031-0003","Tetrachloroethylene","44.3930816650391","-73.8589019775391","SUNY","","FOREST","","WHITEFACE BASE","meanRos_ug_m3","Yes","Decreasing","New York","Not in a city","Rural","WHITEFACE BASE","No","Tetrachloroethylene","0.102328592879792","0.11232404661726","0.0974667650337021","0.0467510208033245","0.0689618833654617","0.0441527551523665","0.0398268933955385","0.0269234419946431","0.0198632004819809","0.084266925673658","0.0400355166828342","0.0435198837915383","0.0345240058800887","0.0432959868589283","0.0286099771722916","0.0243003359834502","0.022578015425245","0.0212238646081755"
"36-047-0118","Tetrachloroethylene","40.6945381164551","-73.9276885986328","New York City","","RESIDENTIAL","","PS 274","meanRos_ug_m3","Yes","Decreasing","New York","New York","Suburban","PS 274","No","Tetrachloroethylene","1.08338702897556","","0.847535263597965","","0.736582374953209","0.782590175473726","0.735035695991859","0.543880457431078","0.52628101767706","0.450357034954489","","0.406667302490449","0.467417766358338","0.538752476701088","0.270273270706336","0.309222546603951","0.275780536243377","0.39543481690414"
"36-061-0056","Tetrachloroethylene","40.7591209411621","-73.9666137695313","New York","","COMMERCIAL","","PS 59","meanRos_ug_m3","No","No Trend","New York","New York","Urban And Center City","PS 59","No","Tetrachloroethylene","2.61223386635519","3.81695333810953","3.61599751934409","3.93746541054161","3.80567091128282","","","","","","","","","","","","",""
"36-063-2008","Tetrachloroethylene","43.0821800231934","-79.0010604858398","Niagara Falls","","INDUSTRIAL","","NIAGARA FALLS","meanRos_ug_m3","No","Decreasing","New York","Niagara Falls","Suburban","NIAGARA FALLS","No","Tetrachloroethylene","3.84586907229547","6.6181218088915","4.85398290419983","3.90665713900178","1.18089984697208","0.887927620832262","0.659504264072075","0.669718280507653","","","","","","","","","",""
"36-063-7001","Tetrachloroethylene","43.0963745117188","-79.0114440917969","Niagara Falls","","RESIDENTIAL","","Packard Court Community Center","meanRos_ug_m3","No","Undetermined","New York","Niagara Falls","Suburban","Packard Court Community Center","No","Tetrachloroethylene","","","","","","","","","","","","","","","0.0866650316870305","0.082301230490452","0.0829530535559851","0.0734877733362688"
"36-081-0098","Tetrachloroethylene","40.7841987609863","-73.8475723266602","New York City","","RESIDENTIAL","","COLLEGE POINT POST OFFICE","meanRos_ug_m3","No","Undetermined","New York","New York","Urban And Center City","COLLEGE POINT POST OFFICE","No","Tetrachloroethylene","1.15675197028723","0.879000782434429","0.901111939700983","","","","","","","","","","","","","","",""
"36-081-0124","Tetrachloroethylene","40.736141204834","-73.821533203125","New York City","","COMMERCIAL","","PM Supersite: Queensborough","meanRos_ug_m3","Yes","Decreasing","New York","New York","Urban And Center City","QUEENS COLLEGE 2","No","Tetrachloroethylene","0.677418923803738","0.620159565047784","0.520499483239455","0.506511056760843","0.463452173227614","0.453101564331778","0.369699898033829","0.2906901923553","0.252306873422293","0.22562194019556","0.269632261650016","0.181007053863643","0.243374652768436","0.281868564627938","0.190838223544218","0.189217348977671","0.200250923633575","0.18758882102729"
"36-083-1003","Tetrachloroethylene","42.7319412231445","-73.6890869140625","Troy","","COMMERCIAL","","TROY","meanRos_ug_m3","No","Decreasing","New York","Troy","Urban And Center City","TROY","No","Tetrachloroethylene","0.251971237485607","0.258902066449324","0.223346299539178","0.207132574922932","0.220121827659508","0.198553335882111","0.160155389474168","0.11836308322525","","","","","","","","","",""
