"site_id","parameter_desc","latitude","longitude","city_name","location","land_use_type","setting","site_name","stat","used_in_nat_agg","trend","state_name","city_name","location_setting","local_site_name","natts","toxic_name_alias","2003","2004","2005","2006","2007","2008","2009","2010","2011","2012","2013","2014","2015","2016","2017","2018","2019","2020"
"01-073-5502","Trichloroethylene","33.5447998046875","-86.8238983154297","BIRMINGHAM","","COMMERCIAL","","Lewis Elementary School","meanRos_ug_m3","No","Undetermined","Alabama","Birmingham","Urban And Center City","Lewis Elementary School","No","Trichloroethylene","","","","","","","","","","0.0600533976221446","","","","","","","",""
"01-073-5503","Trichloroethylene","33.5684013366699","-86.8029022216797","BIRMINGHAM","","COMMERCIAL","","Riggins School","meanRos_ug_m3","No","Undetermined","Alabama","Birmingham","Urban And Center City","Riggins School","No","Trichloroethylene","","","","","","","","","","0.0616268856037742","","","","","","","",""
"01-073-5505","Trichloroethylene","33.5566329956055","-86.8054656982422","Birmingham","","RESIDENTIAL","","Hudson K-8","meanRos_ug_m3","No","Undetermined","Alabama","Birmingham","Urban And Center City","Hudson K-8","No","Trichloroethylene","","","","","","","","","","0.0525360509640286","","","","","","","",""
"01-073-6004","Trichloroethylene","33.5652770996094","-86.79638671875","BIRMINGHAM","","RESIDENTIAL","","UATMP: SIAL; Sloss Industries","meanRos_ug_m3","No","Undetermined","Alabama","Birmingham","Urban And Center City","Sloss Shuttlesworth","No","Trichloroethylene","","","","","","","","","","0.0474102175952987","","","","","","","",""
"04-013-4003","Trichloroethylene","33.4031600952148","-112.075332641602","Phoenix","","RESIDENTIAL","","UATMP: SPAZ","meanRos_ug_m3","No","Decreasing","Arizona","Phoenix","Urban And Center City","SOUTH PHOENIX","No","Trichloroethylene","","0.238577115619795","","","","0.0936957406777081","0.090033802351175","0.0552954297145693","0.0633406939799186","0.0328206240674273","","0.0252915822296932","","","0.023335407119801","0.0288814774750188","0.0330473611061328","0.0608110424048209"
"04-021-8001","Trichloroethylene","33.2934646606445","-111.285591125488","QUEEN VALLEY","","DESERT","","UATMP: QVAZ, IMPROVE: QUVA1","meanRos_ug_m3","No","Undetermined","Arizona","Queen Valley","Rural","QUEEN VALLEY","No","Trichloroethylene","","0.0626551887050047","0.101870531743015","","","","","","","","","","","","","","",""
"06-001-0007","Trichloroethylene","37.6875267028809","-121.784217834473","LIVERMORE","","COMMERCIAL","","REPLACES OLD SITE 06-001-0003 THAT WAS LOCATED AT 2614 OLD 1ST. ST.","meanRos_ug_m3","No","Undetermined","California","Livermore","Urban And Center City","Livermore","No","Trichloroethylene","","","","","","0.048206585191942","","0.0406342185939504","0.0416388288592221","","","","","","","","",""
"06-001-0008","Trichloroethylene","37.8171195983887","-122.280456542969","OAKLAND","","RESIDENTIAL","","OAKLAND FILBERT ST","meanRos_ug_m3","No","Undetermined","California","Oakland","Urban And Center City","Oakland - Filbert St.","No","Trichloroethylene","","","","","","0.033100520537219","","","","","","","","","","","",""
"06-001-0009","Trichloroethylene","37.7430648803711","-122.169937133789","Oakland","","RESIDENTIAL","","Oakland East","meanRos_ug_m3","No","No Trend","California","Oakland","Urban And Center City","Oakland","No","Trichloroethylene","","","","","","0.187022164975447","0.0363096289770445","0.0420261597006196","0.043761209342952","0.0392693893206546","0.152017373077335","0.05322704196697","1.34513542593548","0.0553740128803569","","","",""
"06-001-0011","Trichloroethylene","37.8147811889648","-122.282348632813","OAKLAND","","RESIDENTIAL","","Oakland-West","meanRos_ug_m3","No","No Trend","California","Oakland","Urban And Center City","Oakland West","No","Trichloroethylene","","","","","","","","0.0436599220062126","0.0514120729825516","0.0577109831079333","0.0476383189193125","","0.0399885741457989","","","","",""
"06-001-1001","Trichloroethylene","37.535831451416","-121.961822509766","Fremont","","RESIDENTIAL","","Fremont - Chapel Way","meanRos_ug_m3","No","Undetermined","California","Fremont","Suburban","Fremont - Chapel Way","No","Trichloroethylene","0.174308667567531","","","","","0.0585104052423899","","","","","","","","","","","",""
"06-001-2004","Trichloroethylene","37.8777923583984","-122.301292419434","Berkeley","","COMMERCIAL","","Berkeley 6th and Camelia","meanRos_ug_m3","No","Undetermined","California","Berkeley","Urban And Center City","Berkeley","No","Trichloroethylene","","","","","","0.0380133046603548","","","","","","","","","","","",""
"06-013-0002","Trichloroethylene","37.9360122680664","-122.026153564453","CONCORD","","RESIDENTIAL","","Concord","meanRos_ug_m3","No","Undetermined","California","Concord","Suburban","Concord","No","Trichloroethylene","","","","","","0.0417705855330816","","0.0974007093327407","","","","","","","","","",""
"06-013-0006","Trichloroethylene","37.9481735229492","-122.364852905273","Richmond","","INDUSTRIAL","","Richmond - 7th St","meanRos_ug_m3","No","No Trend","California","Richmond","Urban And Center City","Richmond - 7th St.","No","Trichloroethylene","","","","0.71555354122095","0.471080326097573","0.172010434024299","0.106295375054318","0.378123723121583","0.263133702779042","0.138460340431613","0.14000955808591","","","","","","",""
"06-013-1001","Trichloroethylene","38.0549201965332","-122.23323059082","CROCKETT","","INDUSTRIAL","","Crockett - Kendall Ave","meanRos_ug_m3","No","Undetermined","California","Crockett","Suburban","Crockett - Kendall Ave","No","Trichloroethylene","","","","","","0.0416669855838199","","0.0380380095581872","0.0374269249725822","","","","","","","","",""
"06-013-1002","Trichloroethylene","38.0063095092773","-121.641914367676","BETHEL ISLAND","","AGRICULTURAL","","Bethel Island","meanRos_ug_m3","No","Undetermined","California","Bethel Island","Rural","Bethel Island","No","Trichloroethylene","","","","","","0.0529747028506975","","0.0298632050329419","","","","","","","","","",""
"06-013-1004","Trichloroethylene","37.9603996276855","-122.356811523438","SAN PABLO","","COMMERCIAL","","SAN PABLO RUMRILL","meanRos_ug_m3","No","Undetermined","California","San Pablo","Urban And Center City","San Pablo","No","Trichloroethylene","","","","","","0.0473871513327105","","","","","","","","","","","",""
"06-013-2001","Trichloroethylene","38.0128173828125","-122.134468078613","MARTINEZ","","RESIDENTIAL","","Martinez - Jones St.","meanRos_ug_m3","No","Undetermined","California","Martinez","Urban And Center City","Martinez - Jones St.","No","Trichloroethylene","","","","","","0.0436884693714196","","","","","","","","","","","",""
"06-025-0005","Trichloroethylene","32.6761856079102","-115.484146118164","Calexico","","RESIDENTIAL","","CALEXICO HIGH SCHOOL  ARB (#1300698)","meanRos_ug_m3","No","No Trend","California","Calexico","Suburban","Calexico-Ethel Street","No","Trichloroethylene","0.23089129011334","0.145068718845723","0.226346189183413","0.17572257723262","0.0810683658930347","0.0785490067470893","","","","","","","","","","","",""
"06-029-0014","Trichloroethylene","35.3566017150879","-119.063545227051","Bakersfield","","MOBILE","","Bakersfield-California Avenue","meanRos_ug_m3","No","Undetermined","California","Bakersfield","Urban And Center City","Bakersfield-California","No","Trichloroethylene","0.0849218449931334","","","","","","","","0.235465580111115","","","","","","","","",""
"06-037-0002","Trichloroethylene","34.1365013122559","-117.92391204834","Azusa","","RESIDENTIAL","","Azusa","meanRos_ug_m3","No","Decreasing","California","Azusa","Suburban","Azusa","No","Trichloroethylene","0.312512887567199","0.224101667318921","0.299720060374363","0.161414200900727","0.158775071404966","0.0811556477034998","0.109905431989418","0.135951291899093","0.137697698856427","","","","0.0982469497626244","0.107702793873114","","","",""
"06-037-1002","Trichloroethylene","34.1760482788086","-118.317123413086","BURBANK","","COMMERCIAL","","MATES: Burbank","meanRos_ug_m3","No","Decreasing","California","Burbank","Urban And Center City","Burbank","No","Trichloroethylene","0.232869677323321","0.15453814351935","0.173431003722887","0.181066896972953","0.136576046722416","0.100894364822708","0.0847554640920239","0.0864377087676773","0.255859065600292","0.0594429060653326","0.0721232151582776","","","","","","",""
"06-037-1302","Trichloroethylene","33.9013900756836","-118.205001831055","COMPTON","","RESIDENTIAL","","MATES: Compton","meanRos_ug_m3","No","Undetermined","California","Compton","Urban And Center City","Compton","No","Trichloroethylene","","0.0719641971821458","0.0807110409945016","","","","","","","","","","","","","","",""
"06-037-1601","Trichloroethylene","34.0140686035156","-118.060562133789","Pico Rivera","","COMMERCIAL","","MATES: Pico Rivera","meanRos_ug_m3","No","Undetermined","California","Pico Rivera","Suburban","MATES: Pico Rivera","No","Trichloroethylene","","0.127862252873927","0.139553355415153","","","","","","","","","","","","","","",""
"06-037-4002","Trichloroethylene","33.8237609863281","-118.189208984375","Long Beach","","RESIDENTIAL","","UATMP: LBHCA; MATES: North Long Beach","meanRos_ug_m3","No","No Trend","California","Long Beach","Suburban","Long Beach (North)","No","Trichloroethylene","0.129827604590929","0.0800292128452015","0.0784851035469558","0.142119786494118","0.125954839616357","0.115532184638412","0.0877805204605632","0.0980715725117846","0.265989496785426","0.0451676675745245","","","","","","","",""
"06-037-L0HP","Trichloroethylene","33.9832496643066","-118.230697631836","Huntington Park","","","","MATES: Huntington Park","meanRos_ug_m3","No","Undetermined","","Huntington Park","","MATES: Huntington Park","No","Trichloroethylene","","0.0983873873455527","","","","","","","","","","","","","","","",""
"06-037-LWLB","Trichloroethylene","33.7924194335938","-118.215896606445","Long Beach","","","","MATES: West Long Beach","meanRos_ug_m3","No","Undetermined","","Long Beach","","MATES: West Long Beach","No","Trichloroethylene","","0.100753159244184","0.102151081184869","0.0779557705647038","","","","","","","","","","","","","",""
"06-041-0001","Trichloroethylene","37.9723091125488","-122.520004272461","SAN RAFAEL","","COMMERCIAL","","San Rafael","meanRos_ug_m3","No","No Trend","California","San Rafael","Urban And Center City","San Rafael","No","Trichloroethylene","","","","","","0.0516140728093526","0.051715593817962","0.0491377755486768","0.0429410923590731","","","0.0486854991590699","","","","","",""
"06-041-0004","Trichloroethylene","37.8327255249023","-122.527656555176","NOT IN A CITY","","FOREST","","FORT CRONKHITE","meanRos_ug_m3","No","Undetermined","California","Not in a city","Rural","Ft. Cronkhite","No","Trichloroethylene","","","","","","0.032259916359035","0.0405544678566687","","","","","","","","","","",""
"06-055-0003","Trichloroethylene","38.3109436035156","-122.296188354492","NAPA","","COMMERCIAL","","Napa - Jefferson St.","meanRos_ug_m3","No","Undetermined","California","Napa","Urban And Center City","Napa","No","Trichloroethylene","","","","","","0.0504629980012148","","0.046837148139164","0.0428317806725318","","","","","","","","",""
"06-059-0001","Trichloroethylene","33.8213539123535","-117.914268493652","Anaheim","","RESIDENTIAL","","MATES: Anaheim","meanRos_ug_m3","No","Undetermined","California","Anaheim","Suburban","Anaheim (1010 Harbor Blvd)","No","Trichloroethylene","","0.0639895007919242","0.0667179942530246","","","","","","","","","","","","","","",""
"06-071-2002","Trichloroethylene","34.1000213623047","-117.492012023926","Fontana","","INDUSTRIAL","","MATES: Inland Valley San Bernardino","meanRos_ug_m3","No","Undetermined","California","Fontana","Suburban","Fontana","No","Trichloroethylene","","0.0901492715270323","0.0881406989498301","","","","","","","","","","","","","","",""
"06-073-0001","Trichloroethylene","32.6312294006348","-117.059074401855","Chula Vista","","RESIDENTIAL","","Chula Vista","meanRos_ug_m3","No","Decreasing","California","Chula Vista","Suburban","Chula Vista","No","Trichloroethylene","0.339791896724085","0.421491662057685","0.417207775429841","0.300405390756368","0.217702405821228","0.120715898289973","0.0930061198006078","0.135568105535507","","0.0986819497525492","","0.0834584524869605","0.131231975595364","0.121737046844136","","","",""
"06-073-0003","Trichloroethylene","32.7911949157715","-116.942092895508","El Cajon","","COMMERCIAL","","El Cajon","meanRos_ug_m3","No","No Trend","California","El Cajon","Suburban","El Cajon","No","Trichloroethylene","0.116596111570286","0.0877968710677506","0.109999730955499","0.0677746797137837","0.0755899413670571","","","","","","","","","","","","",""
"06-073-1002","Trichloroethylene","33.1277122497559","-117.075325012207","ESCONDIDO","","COMMERCIAL","","Escondido","meanRos_ug_m3","No","No Trend","California","Escondido","Urban And Center City","Escondido","No","Trichloroethylene","","","","","","","0.0798645816828243","0.0686765435761427","0.0334272987713972","0.0227352906472403","0.059638108731581","","","","","","",""
"06-073-1010","Trichloroethylene","32.7014923095703","-117.14965057373","SAN DIEGO","","COMMERCIAL","","Downtown","meanRos_ug_m3","No","Decreasing","California","San Diego","Urban And Center City","San Diego - Beardsley Street","No","Trichloroethylene","","","","","","","0.100024720091683","0.0801707974768286","0.0485023444664765","0.0274419640309143","0.0188015005965988","0.0159084074279356","0.011349394216534","","","","",""
"06-073-1014","Trichloroethylene","32.5793609619141","-116.929489135742","Otay Mesa","","COMMERCIAL","","Donovan","meanRos_ug_m3","No","Undetermined","California","Otay Mesa","Rural","Donovan","No","Trichloroethylene","","","","","","","","","","","","","0.151482370809551","","","0.145989860970682","0.093379674712196","0.288891575020819"
"06-073-1018","Trichloroethylene","32.8179779052734","-116.968132019043","El Cajon","","COMMERCIAL","","El Cajon - Floyd Smith Drive","meanRos_ug_m3","No","Undetermined","California","El Cajon","Suburban","El Cajon - Floyd Smith Dr.","No","Trichloroethylene","","","","","","","","","","","","","0.0697217568989856","","","","",""
"06-073-1026","Trichloroethylene","32.7101783752441","-117.14266204834","SAN DIEGO","","COMMERCIAL","","San Diego - Sherman Elementary School","meanRos_ug_m3","No","Undetermined","California","San Diego","Urban And Center City","San Diego - Sherman Elementary School","No","Trichloroethylene","","","","","","","","","","","","","","","","","","0.0449443944304696"
"06-073-2007","Trichloroethylene","32.5521621704102","-116.937774658203","SAN DIEGO","","MOBILE","","Otay Mesa","meanRos_ug_m3","No","No Trend","California","San Diego","Rural","Otay Mesa","No","Trichloroethylene","","","","","","","2.14303118644812","1.24585739257741","0.709111387855704","0.521463275546766","0.992066685075336","0.696684607902556","","","","","",""
"06-075-0005","Trichloroethylene","37.7659454345703","-122.399040222168","San Francisco","","INDUSTRIAL","","San Francisco - Arkansas St.","meanRos_ug_m3","No","Undetermined","California","San Francisco","Urban And Center City","San Francisco","No","Trichloroethylene","","","","","","0.0387620978180718","","0.0309690886662382","","","","","","","","","",""
"06-081-1001","Trichloroethylene","37.4829330444336","-122.203369140625","REDWOOD CITY","","INDUSTRIAL","","Redwood City","meanRos_ug_m3","Yes","No Trend","California","Redwood City","Suburban","Redwood City","No","Trichloroethylene","0.532796215044263","0.450289797241034","0.316442628223784","0.260268044229013","0.423974158491108","0.513322331020607","0.278001699136383","0.411972107633156","0.296305891272693","0.642819250281681","0.264039522266523","0.282955767179211","0.34208426924017","0.148548171649523","","0.122742442592016","0.3536773427148","0.651727269105984"
"06-085-2007","Trichloroethylene","37.3554763793945","-122.050842285156","SUNNYVALE","","RESIDENTIAL","","LOCATED NEAR TICONDEROGA & MARY STREETS IN SUNNAYVALE.","meanRos_ug_m3","No","Undetermined","California","Sunnyvale","Urban And Center City","Sunnyvale - Ticonderoga","No","Trichloroethylene","","","","","","0.0624826928510789","","","","","","","","","","","",""
"06-085-2009","Trichloroethylene","37.3184356689453","-122.069702148438","CUPERTINO","","RESIDENTIAL","","Cupertino Monta Vista","meanRos_ug_m3","No","Undetermined","California","Cupertino","Suburban","Cupertino Monta Vista","No","Trichloroethylene","","","","","","","","","0.0429341630374064","","","","","","","","",""
"06-095-0004","Trichloroethylene","38.1025085449219","-122.237976074219","VALLEJO","","COMMERCIAL","","Vallejo - Tuolumne St.","meanRos_ug_m3","No","Undetermined","California","Vallejo","Urban And Center City","Vallejo","No","Trichloroethylene","","","","","","0.0369595155105683","","0.0416269400115948","0.0346889657402424","","","","","","","","",""
"06-097-0003","Trichloroethylene","38.4435043334961","-122.710166931152","SANTA ROSA","","COMMERCIAL","","Santa Rosa - 5th St","meanRos_ug_m3","No","Undetermined","California","Santa Rosa","Urban And Center City","Santa Rosa - 5th St","No","Trichloroethylene","","","","","","","","0.0516274530568614","0.0320503356937563","","","","","","","","",""
"10-001-0002","Trichloroethylene","38.9866714477539","-75.5568008422852","NOT IN A CITY","","AGRICULTURAL","","PROPERTY OF KILLENS POND STATE PARK; BEHIND FARM BUILDINGS","meanRos_ug_m3","No","Undetermined","Delaware","Not in a city","Rural","PROPERTY OF KILLENS POND STATE PARK; BEHIND FARM BUILDINGS","No","Trichloroethylene","0.0839934619629048","0.0435259341588169","0.0446888115322657","","","","","","","","","","","","","","",""
"10-003-1007","Trichloroethylene","39.5513000488281","-75.7320022583008","NOT IN A CITY","","AGRICULTURAL","","PAMS: Lums Pond; NADP: DE99","meanRos_ug_m3","No","Undetermined","Delaware","Not in a city","Rural","Lums Pond","No","Trichloroethylene","0.051588372387763","0.0380238058574821","0.0536900673271619","","","","","","","","","","","","","","",""
"10-003-1008","Trichloroethylene","39.5776786804199","-75.6035995483398","DELAWARE CITY","","AGRICULTURAL","","Route 9 Delaware City","meanRos_ug_m3","No","No Trend","Delaware","Delaware City","Rural","Route 9 Delaware City","No","Trichloroethylene","0.0879652854392324","0.0481724340887084","0.0743391215151137","0.0653006597553073","0.0537786568039836","","0.0405242040607444","0.0529886298251718","","","","","","","","","",""
"10-003-2004","Trichloroethylene","39.739444732666","-75.5580596923828","Wilmington","","COMMERCIAL","","CORNER OF MLK BLVD AND JUSTISON ST, NO TRAFFIC DATA AVAILABLE","meanRos_ug_m3","No","No Trend","Delaware","Wilmington","Urban And Center City","MLK  CORNER OF MLK BLVD AND JUSTISON ST","No","Trichloroethylene","0.112513664772373","0.0803926414882811","0.111142951771789","0.067010383480383","0.0910172243310565","0.0428269140921324","0.0574963232957193","0.0674154659982025","","","","","","","","1.44364329052376","",""
"10-005-1002","Trichloroethylene","38.6539001464844","-75.6106033325195","Seaford","","RESIDENTIAL","","Seaford Shipley State Service Center","meanRos_ug_m3","No","Undetermined","Delaware","Seaford","Suburban","Seaford Shipley State Service Center","No","Trichloroethylene","0.0667791541324555","0.0418852456686628","0.0834896818002046","","","","","","","","","","","","","","",""
"12-011-0010","Trichloroethylene","26.1286106109619","-80.1672210693359","FORT LAUDERDALE","","RESIDENTIAL","","SITE # 28","meanRos_ug_m3","No","No Trend","Florida","Fort Lauderdale","Suburban","Lincoln Park Elementary","No","Trichloroethylene","","","","","","","","0.074710426073914","0.117587677152381","0.102264890149329","0.0656660808456024","","0.0578303525348304","","","","",""
"12-011-0033","Trichloroethylene","26.0735359191895","-80.3384475708008","Davie","","RESIDENTIAL","","Vista View Park","meanRos_ug_m3","No","Undetermined","Florida","Davie","Suburban","Vista View Park","No","Trichloroethylene","","","","","","","","","","","","","0.0507558579823428","","","","",""
"12-011-1002","Trichloroethylene","26.0831432342529","-80.2375869750977","Davie","","COMMERCIAL","","UATMP: FLFL","meanRos_ug_m3","No","Decreasing","Florida","Davie","Suburban","U of F Ag Research Center","No","Trichloroethylene","","","0.326077153588211","","0.205608001789166","0.0839076606401256","0.115370763386034","0.0862445789204469","0.105431248177851","0.0795513942512321","0.0759511935199627","","","","","","",""
"12-011-2004","Trichloroethylene","26.2175827026367","-80.1275482177734","Pompano Beach","","COMMERCIAL","","UATMP: FLFL(2)","meanRos_ug_m3","No","Undetermined","Florida","Pompano Beach","Suburban","UATMP: FLFL(2)","No","Trichloroethylene","","","0.379572288337327","0.173400432917878","0.178153344883079","","","","","","","","","","","","",""
"12-011-3002","Trichloroethylene","26.0012016296387","-80.1603240966797","Holleywood","","COMMERCIAL","","SITE #18","meanRos_ug_m3","No","Undetermined","Florida","Hollywood","Suburban","SITE #18","No","Trichloroethylene","","","0.288763813695815","","0.178112205884633","","","","","","","","","","","","",""
"12-011-5005","Trichloroethylene","26.2941665649414","-80.1763916015625","Coconut Creek","","RESIDENTIAL","","UATMP: CCFL; SITE #30","meanRos_ug_m3","No","No Trend","Florida","Coconut Creek","Suburban","Coconut Creek","No","Trichloroethylene","","","0.444507288781853","","0.140455850758109","0.0462475981925915","0.0762442436948668","0.0828787240906078","0.121639839050809","","","","","","","","",""
"12-011-8002","Trichloroethylene","26.0884208679199","-80.1111907958984","J.U.Lloyd State Park","","RESIDENTIAL","","SITE # 25","meanRos_ug_m3","No","No Trend","Florida","Hollywood","Suburban","Dr. Von Mizell-Eula Johnson State Park (prev. John U Lloyd State Park)","No","Trichloroethylene","","","","","","","","0.0949923412156543","0.102342346983417","0.0783311492062428","0.0615185798415429","","0.0673053678957046","","","","",""
"12-057-1065","Trichloroethylene","27.8925228118896","-82.5384292602539","Tampa","","COMMERCIAL","","UATMP: GAFL; NADP: FL18; PILOT CITY: Gandy","meanRos_ug_m3","No","Undetermined","Florida","Tampa","Suburban","USMC Reserve Center (Gandy)","No","Trichloroethylene","0.10604648794859","","","","0.026935661579263","0.0274853964931244","","","","","","","","","","","",""
"12-057-1075","Trichloroethylene","28.0502967834473","-82.3778686523438","Tampa","","RESIDENTIAL","","UATMP: LEFL; PILOT CITY: Lewis","meanRos_ug_m3","No","Undetermined","Florida","Tampa","Urban And Center City","WHITEWAY DRIVE TAMPA","No","Trichloroethylene","0.0899616438911143","","","","","","","","","","","","","","","","",""
"12-073-0012","Trichloroethylene","30.4397220611572","-84.3463897705078","TALLAHASSEE","","COMMERCIAL","","Tallahassee Community College","meanRos_ug_m3","No","No Trend","Florida","Tallahassee","Suburban","Tallahassee Community College","No","Trichloroethylene","","","","","0.0168868396095427","0.0710159396552004","0.192750477987291","0.0822044518364559","0.0489822458696472","","","","","","","","",""
"12-086-0029","Trichloroethylene","25.5873260498047","-80.3259201049805","CUTLER BAY","","FOREST","","Perdue","meanRos_ug_m3","No","Undetermined","Florida","Cutler Ridge","Rural","Perdue","No","Trichloroethylene","0.176132801901309","0.124902990601278","","","","","","","","","","","","","","","",""
"12-095-2002","Trichloroethylene","28.5963897705078","-81.3625030517578","Winter Park","","COMMERCIAL","","UATMP: ORFL","meanRos_ug_m3","No","Decreasing","Florida","Winter Park","Urban And Center City","WINTER PARK","No","Trichloroethylene","","","0.0807919516471779","0.102011580605847","0.0742493418328485","0.0475639629415651","","0.0350034417835539","0.0432295418875545","0.0260894646885956","","","","","","","",""
"12-103-0004","Trichloroethylene","27.9466876983643","-82.7317657470703","Clearwater","","COMMERCIAL","","UATMP: CWFL","meanRos_ug_m3","No","Undetermined","Florida","Clearwater","Suburban","St. Petersburg College","No","Trichloroethylene","0.124021833883229","","","","","","","","","","","","","","","","",""
"12-103-0018","Trichloroethylene","27.7858657836914","-82.739875793457","SAINT PETERSBURG","","RESIDENTIAL","","UATMP: AZFL; PILOT CITY: Azalea Park","meanRos_ug_m3","No","Decreasing","Florida","Saint Petersburg","Suburban","Azalea Park","No","Trichloroethylene","0.0963679193282519","0.0805715702977672","","0.0790326230077107","0.0335660455201439","0.0309167567835098","0.0282429296897213","0.0199482553031","","","","","","","","","",""
"13-021-0012","Trichloroethylene","32.805362701416","-83.5435180664063","Macon","","INDUSTRIAL","","Macon SE","meanRos_ug_m3","No","Undetermined","Georgia","Macon","Rural","Macon-Forestry","No","Trichloroethylene","","","","","","","","","","","","","","","0.0494338266539526","0.0553000061168343","",""
"13-051-0021","Trichloroethylene","32.0691833496094","-81.0487442016602","Savannah","","COMMERCIAL","","Savannah-E. President Street","meanRos_ug_m3","No","Undetermined","Georgia","Savannah","Suburban","Savannah-E. President","No","Trichloroethylene","","","","","","","","","","","","","","0.0508188440998409","0.0388276418614745","0.0580684548716547","",""
"13-069-0002","Trichloroethylene","31.513126373291","-82.7500076293945","Douglas","","AGRICULTURAL","","General Coffee","meanRos_ug_m3","No","Undetermined","Georgia","Not in a city","Rural","General Coffee","No","Trichloroethylene","","","","","","","","","","","","","","","","0.0383293468307735","",""
"13-089-0003","Trichloroethylene","33.6985511779785","-84.2726669311523","ATLANTA","","COMMERCIAL","","DMRC","meanRos_ug_m3","No","Undetermined","Georgia","Atlanta","Suburban","NR-285","No","Trichloroethylene","","","","","","","","","","","","","","","","0.0341856081621437","0.0201602093534021","0.019368053225092"
"13-223-0003","Trichloroethylene","33.9285011291504","-85.0453414916992","Yorkville","","AGRICULTURAL","","PAMS: Yorkville (Near Rockmart)","meanRos_ug_m3","No","Undetermined","Georgia","Not in a city","Rural","Yorkville, King Farm","No","Trichloroethylene","","","","","","","","","","","","","","0.0427655812528204","","","",""
"16-069-0006","Trichloroethylene","46.4295616149902","-116.99242401123","Lewiston","","INDUSTRIAL","","","meanRos_ug_m3","No","Undetermined","Idaho","Lewiston","Suburban","","No","Trichloroethylene","","","","0.0738590264962558","","","","","","","","","","","","","",""
"16-069-0009","Trichloroethylene","46.4177780151367","-117.018608093262","Lewiston","","COMMERCIAL","","","meanRos_ug_m3","No","Undetermined","Idaho","Lewiston","Urban And Center City","","No","Trichloroethylene","","","","0.0535086805755671","","","","","","","","","","","","","",""
"16-069-0012","Trichloroethylene","46.4083518981934","-116.992530822754","Lewiston","","RESIDENTIAL","","SUNSET PARK LOCATION, BETWEEN CITY CENTER AND POTLACH CORP.,","meanRos_ug_m3","No","Undetermined","Idaho","Lewiston","Suburban","Lewiston","No","Trichloroethylene","","","","0.0344224841077806","","","","","","","","","","","","","",""
"16-069-0013","Trichloroethylene","46.3972015380859","-116.806198120117","Lapwei","","RESIDENTIAL","","","meanRos_ug_m3","No","Undetermined","Idaho","Not in a city","Rural","","No","Trichloroethylene","","","","0.0378299984026316","","","","","","","","","","","","","",""
"16-069-0222","Trichloroethylene","46.4380874633789","-116.905181884766","NOT IN A CITY","","COMMERCIAL","","","meanRos_ug_m3","No","Undetermined","Idaho","Not in a city","Rural","","No","Trichloroethylene","","","","0.0473920221618947","","","","","","","","","","","","","",""
"17-031-3103","Trichloroethylene","41.9651947021484","-87.8762664794922","Schiller Park","","MOBILE","","UATMP: SPIL","meanRos_ug_m3","Yes","Decreasing","Illinois","Schiller Park","Suburban","IEPA TRAILER","No","Trichloroethylene","2.99539423936088","0.742102780170875","0.7446916464936","0.423904312652231","0.527679235707788","0.511016164972203","0.354355715149206","0.794557469962585","0.647421154997529","0.721932166978671","0.272404789956867","0.450599550705779","0.292447969510046","0.326333091439891","0.35657476251304","0.496282986650985","0.184611119355192","0.219532197995694"
"18-003-0004","Trichloroethylene","41.0949668884277","-85.1018142700195","Fort Wayne","","COMMERCIAL","","Ft. Wayne- Beacon St.","meanRos_ug_m3","No","Undetermined","Indiana","Fort Wayne","Suburban","Ft. Wayne- Beacon St.","No","Trichloroethylene","","0.0733158933411953","0.0762893444662181","0.10511962827111","0.094674932772148","","","","","","","","","","","","",""
"18-019-0009","Trichloroethylene","38.276683807373","-85.7637634277344","CLARKSVILLE","","RESIDENTIAL","","Clarksville","meanRos_ug_m3","No","Decreasing","Indiana","Clarksville","Urban And Center City","Clarksville","No","Trichloroethylene","","","","","","0.174688422767707","0.0497374970336217","","0.0487437568867267","0.0443852189442606","","","0.031042036663617","","","","",""
"18-039-0003","Trichloroethylene","41.6678276062012","-85.9694442749023","Elkhart","","COMMERCIAL","","SAMPLERS ARE ON THE ROOF ON THE WEST SIDE OF THE SCHOOL","meanRos_ug_m3","No","No Trend","Indiana","Elkhart","Urban And Center City","SAMPLERS ARE ON THE ROOF ON THE WEST SIDE OF THE SCHOOL","No","Trichloroethylene","0.0745912246671047","0.0500362398675402","0.0559259329535919","0.108409841542574","0.064085882012581","","","","","","","","","","","","",""
"18-089-0022","Trichloroethylene","41.6066818237305","-87.3047256469727","Gary","","INDUSTRIAL","","UATMP: INDEM","meanRos_ug_m3","No","Undetermined","Indiana","Gary","Urban And Center City","Gary-IITRI/ 1219.5 meters east of Tennessee St.- old ammuntion bunker","No","Trichloroethylene","0.0332673199955536","0.0482409579393561","","0.0687810947220254","","","","","","","17.6388040285745","","","","","","",""
"18-089-0023","Trichloroethylene","41.6527404785156","-87.4395523071289","East Chicago","","INDUSTRIAL","","East Chicago Water Flitration Plant","meanRos_ug_m3","No","No Trend","Indiana","East Chicago","Urban And Center City","SITE MOVED FROM EAST CHICAGO FIELD SCHOOL","No","Trichloroethylene","0.0643754245011628","0.0520095537737643","0.028382217044071","0.0595888563920291","0.049174077986833","","0.0285439967091288","0.153388561064772","0.115355522947922","","","","","","","","",""
"18-089-0030","Trichloroethylene","41.6814002990723","-87.4947357177734","WHITING","","RESIDENTIAL","","Whiting- Whiting HS","meanRos_ug_m3","No","No Trend","Indiana","Whiting","Urban And Center City","Whiting- Whiting HS","No","Trichloroethylene","","0.0544256835755447","0.0432293206930986","0.061161199716922","0.0724373871474557","0.0667793417403134","0.0497008235298139","","0.0605503341208407","","0.0616476067589395","","","","","","",""
"18-089-0034","Trichloroethylene","41.6534805297852","-87.4355850219727","East Chicago","","COMMERCIAL","","East Chicago-Marina","meanRos_ug_m3","No","Undetermined","Indiana","East Chicago","Urban And Center City","East Chicago-Marina","No","Trichloroethylene","","","","","","","","","","","0.051314295173612","","","0.0511868721947897","","0.0373847770031656","",""
"18-089-0035","Trichloroethylene","41.6813926696777","-87.490234375","Whiting","","RESIDENTIAL","","Whiting- Center St.","meanRos_ug_m3","No","Undetermined","Indiana","Whiting","Urban And Center City","Whiting- Center St.","No","Trichloroethylene","","","","","","","","","","","","","","","","0.0430246616587419","",""
"18-089-2008","Trichloroethylene","41.639461517334","-87.4936218261719","Hammond","","COMMERCIAL","","HAMMOND CAAP- Hammond- 141st St.","meanRos_ug_m3","No","Decreasing","Indiana","Hammond","Suburban","HAMMOND CAAP- Hammond- 141st St.","No","Trichloroethylene","0.054023103943168","0.0528542288914824","0.081259642565768","0.104591449780703","0.180313537199501","","0.0522993942988426","0.041234601402817","0.0501299196505251","","0.0426412208598373","0.0504926151993605","0.0510399474304145","","0.0270783178515402","","",""
"18-097-0057","Trichloroethylene","39.7490196228027","-86.1863174438477","INDIANAPOLIS","","RESIDENTIAL","","UATMP: ININ","meanRos_ug_m3","No","Undetermined","Indiana","Indianapolis (Remainder)","Urban And Center City","Indpls- Harding St.","No","Trichloroethylene","","","","","0.0597804011506687","","","","","","","","","","","","",""
"18-097-0078","Trichloroethylene","39.8110961914063","-86.1144714355469","Indianapolis","","RESIDENTIAL","","UATMP: WPIN","meanRos_ug_m3","No","No Trend","Indiana","Indianapolis (Remainder)","Suburban","Indpls- Washington Park/  in parking lot next to police station","No","Trichloroethylene","0.0427269192386332","0.0534604515583048","0.0375689827675355","0.056291837850239","0.0402290325619114","","0.0839564674406122","","0.0391441358016203","","","0.0468924304151244","","","","","",""
"18-097-0084","Trichloroethylene","39.7588539123535","-86.1154174804688","Indianapolis","","RESIDENTIAL","","Indpls-  School 21/ Florence Fay School 21","meanRos_ug_m3","No","Undetermined","Indiana","Indianapolis (Remainder)","Urban And Center City","Indpls-  School 21/ Florence Fay School 21","No","Trichloroethylene","0.112208672199465","0.0699357250063493","","","","","","","","","","","","","","","",""
"18-097-0085","Trichloroethylene","39.7403831481934","-86.2259521484375","INDIANAPOLIS","","MILITARY RESERVATION","","UATMP: IDIN","meanRos_ug_m3","No","Undetermined","Indiana","Indianapolis (Remainder)","Urban And Center City","Stout Field 2","No","Trichloroethylene","","","","","0.0929824712480877","0.0992759064657093","","","","","","","","","","","",""
"18-097-0087","Trichloroethylene","39.7879333496094","-86.1308822631836","Indianapolis (Remainder)","","RESIDENTIAL","","Indpls.- I 70","meanRos_ug_m3","No","Undetermined","Indiana","Indianapolis (Remainder)","Urban And Center City","Indpls.- I 70","No","Trichloroethylene","","","","","","","","","","","","","","","0.0443721579401723","","","0.0521092383479946"
"18-127-0024","Trichloroethylene","41.6175575256348","-87.1992492675781","NOT IN A CITY","","RESIDENTIAL","","Ogden Dunes- Water Treatment Plant","meanRos_ug_m3","No","No Trend","Indiana","Ogden Dunes (Wickliffe)","Suburban","Ogden Dunes- Water Treatment Plant","No","Trichloroethylene","0.0561936080250895","0.0515459223779175","","0.0643289531800318","0.0294541148005886","","","","","0.0406399139220868","0.0487530012593516","","0.043550468466877","0.12886602188648","0.0514440991493817","0.108548604427375","",""
"18-157-0008","Trichloroethylene","40.431640625","-86.8525009155273","LAFAYETTE","","INDUSTRIAL","","Lafayette- Greenbush St./ Cinergy Substation","meanRos_ug_m3","No","Undetermined","Indiana","Lafayette","Suburban","Lafayette- Greenbush St./ Cinergy Substation","No","Trichloroethylene","","","","","","","0.0394563338673526","","0.0723863600165804","","","","","","","","",""
"18-163-0016","Trichloroethylene","37.974437713623","-87.5322875976563","Evansville","","COMMERCIAL","","Evansville- U of E/  University of Evansville-Carson Center","meanRos_ug_m3","No","No Trend","Indiana","Evansville","Urban And Center City","Evansville- U of E/  University of Evansville-Carson Center","No","Trichloroethylene","0.0602321784211294","0.0537687449977899","0.0868183751697058","0.208246734939543","0.212669236143581","0.0950207229578087","0.0484188088239863","0.127220946367086","0.0919307171162224","","","","","","","","",""
"21-139-0004","Trichloroethylene","37.0715103149414","-88.3338928222656","NOT IN A CITY","","AGRICULTURAL","","UATMP: BLKY","meanRos_ug_m3","No","Undetermined","Kentucky","Smithland","Rural","BLOODWORTH","No","Trichloroethylene","","","","","","","","","","","","","","0.0312028392439698","0.0322482832970318","0.0299662986769425","",""
"21-157-0014","Trichloroethylene","37.0452003479004","-88.3308715820313","GRAND RIVERS","","INDUSTRIAL","","UATMP: TVKY; TVA SUBSTATION","meanRos_ug_m3","No","Undetermined","Kentucky","Calvert City (RR name Calvert)","Suburban","TVA SUBSTATION","No","Trichloroethylene","","","","","","","","","","","","0.0350191771160621","","0.0455164290462379","0.0299104913882159","0.0304115249160642","",""
"21-157-0016","Trichloroethylene","37.0417594909668","-88.3540725708008","GRAND RIVERS","","INDUSTRIAL","","UATMP: ATKY; ATMOS ENERGY","meanRos_ug_m3","No","Undetermined","Kentucky","Calvert City (RR name Calvert)","Suburban","ATMOS ENERGY","No","Trichloroethylene","","","","","","","","","","","","0.0394920449954057","","0.0481132826849458","","","",""
"21-157-0018","Trichloroethylene","37.0270195007324","-88.3438720703125","CALVERT CITY","","RESIDENTIAL","","UATMP: CCKY; CALVERT CITY ELEMENTARY","meanRos_ug_m3","No","Undetermined","Kentucky","Calvert City (RR name Calvert)","Suburban","Calvert City Elementary","No","Trichloroethylene","","","","","","","","","","","","0.034186867572345","","","","","",""
"23-001-0011","Trichloroethylene","44.0894050598145","-70.2142181396484","LEWISTON","","COMMERCIAL","","LEWISTON","meanRos_ug_m3","No","No Trend","Maine","Lewiston","Urban And Center City","COUNTRY KITCHEN BAKERY PARKING LOT","No","Trichloroethylene","","","","","0.0144544513537768","0.01138928365565","0.0416283634619379","0.0148570775927256","0.0220924642490092","0.0197195472666599","","","","","","","",""
"23-003-1011","Trichloroethylene","46.682300567627","-68.0161972045898","PRESQUE ISLE","","COMMERCIAL","","RIVERSIDE STREET MONITORING SHELTER","meanRos_ug_m3","No","Undetermined","Maine","Presque Isle","Urban And Center City","RIVERSIDE","No","Trichloroethylene","","","","","","","0.0246496595968944","","","","","","","","","0.0900227899616979","",""
"23-005-0029","Trichloroethylene","43.6602478027344","-70.2689666748047","PORTLAND","","COMMERCIAL","","PDO - Portland Deering Oaks","meanRos_ug_m3","No","Increasing","Maine","Portland","Urban And Center City","PDO - Portland Deering Oaks","No","Trichloroethylene","","","","","","","0.0585402735083135","0.0134713728414441","0.0222091738084947","0.0315011550861492","0.0635727406912844","","0.083669914345579","","","0.0940353761761679","",""
"23-005-6607","Trichloroethylene","43.6455574035645","-70.2622222900391","","","COMMERCIAL","","","meanRos_ug_m3","No","Undetermined","Maine","Portland","Urban And Center City","","No","Trichloroethylene","","","","","","","","","","","","","","","","","","0.0715323584320463"
"23-017-2011","Trichloroethylene","44.5514183044434","-70.5463180541992","RUMFORD","","INDUSTRIAL","","IN 8 X 8 ECTO SHELTER LOCATED IN PARKING LOT EAST OF RUMFORD AVENUE.","meanRos_ug_m3","No","Undetermined","Maine","Rumford (census name for Rumford Compact)","Rural","Rumford Avenue Parking Lot (RAP)","No","Trichloroethylene","","","","","","","0.0306294734766514","","","0.0262947191088417","","","","","","","",""
"23-019-0002","Trichloroethylene","44.7988586425781","-68.7696762084961","BANGOR","","COMMERCIAL","","BANGOR","meanRos_ug_m3","No","Undetermined","Maine","Bangor","Urban And Center City","KENDUSKEAG PUMP STATION (BUILDING ROOF)","No","Trichloroethylene","","","","","0.0266388598227043","","","","","","","","","","","0.0947893011662607","",""
"23-019-0017","Trichloroethylene","44.8173980712891","-68.7727584838867","Bangor","","RESIDENTIAL","","Mary Snow School","meanRos_ug_m3","No","Undetermined","Maine","Bangor","Urban And Center City","Mary Snow School","No","Trichloroethylene","","","","","","","","","","","","","","","","0.0988893469057135","",""
"24-003-0019","Trichloroethylene","39.1011123657227","-76.7294464111328","Fort Meade","","COMMERCIAL","","PAMS: Fort Meade","meanRos_ug_m3","No","Undetermined","Maryland","Fort Meade (U.S. Army)","Suburban","FT MEADE LAT/LONG POINT IS OF THE SAMPLING INLET","No","Trichloroethylene","0.0488179176623138","0.0365611775633927","","","","","","","","","","","","","","","",""
"24-005-3001","Trichloroethylene","39.3108329772949","-76.4744415283203","Essex","","RESIDENTIAL","","PAMS: Essex","meanRos_ug_m3","No","No Trend","Maryland","Essex","Suburban","Essex","No","Trichloroethylene","0.0713091345025509","0.05126474103771","0.064746335380097","0.0541558596834777","0.0528606486039115","0.0535739966902192","0.0596062951046937","0.0703185817318217","","","","","0.0499026668792596","0.0473507655342543","0.0402620044584175","","","0.177699084484118"
"24-027-0006","Trichloroethylene","39.1431312561035","-76.8461074829102","North Laurel","","RESIDENTIAL","","Howard County Near Road","meanRos_ug_m3","No","Undetermined","Maryland","North Laurel","Suburban","Howard County Near Road","No","Trichloroethylene","","","","","","","","","","","","","0.0281937797970563","0.0882619543313871","0.049703110003333","","",""
"24-033-0030","Trichloroethylene","39.0552787780762","-76.8783340454102","BELTSVILLE","","RESIDENTIAL","","HU-Beltsville","meanRos_ug_m3","No","No Trend","Maryland","Beltsville","Suburban","HU-Beltsville","No","Trichloroethylene","","","0.0554103228609042","0.052290166907087","0.0511503699503077","","0.0562944612455735","0.0504737423998189","","","","","0.0548579346001203","0.0522869404208549","","","",""
"24-510-0006","Trichloroethylene","39.3405570983887","-76.5822219848633","Baltimore","","RESIDENTIAL","","Northeast Police","meanRos_ug_m3","No","Decreasing","Maryland","Baltimore","Suburban","Northeast Police","No","Trichloroethylene","0.097073065037042","0.0672096915441273","0.0860727270408467","0.0735343543878964","0.0761204710245498","0.0542192531699927","0.058214619818058","0.0516925544039801","","","","","","","","","",""
"24-510-0040","Trichloroethylene","39.2977333068848","-76.604606628418","Baltimore","","RESIDENTIAL","","Oldtown","meanRos_ug_m3","No","No Trend","Maryland","Baltimore","Urban And Center City","Oldtown","No","Trichloroethylene","0.119973050716885","0.0669927834413927","0.0818174286957188","0.0725775891994388","0.0840669908205001","0.0562529277680765","0.0608551122485226","0.0530771571227151","","","","","0.0376494388225656","0.0938662644794499","0.0640382442890923","","",""
"25-009-2006","Trichloroethylene","42.4746437072754","-70.970817565918","Lynn","","COMMERCIAL","","LYNN WATER TREATMENT PLANT","meanRos_ug_m3","Yes","Decreasing","Massachusetts","Lynn","Urban And Center City","LYNN WATER TREATMENT PLANT","No","Trichloroethylene","0.117415237119829","0.0298369720112866","0.0245861786946886","0.0214666201077157","0.0124482480783051","0.0461577524904765","0.0318944896370658","0.0202055246716882","0.0240663858218905","0.021656618643257","0.0167171820927911","0.0158697419995581","0.0151440276973863","0.0162498608425973","0.0153830754306993","0.012772572501991","0.0104796020944351","0.0167668292031027"
"25-021-2004","Trichloroethylene","42.2458648681641","-70.9627685546875","North Weymouth","","INDUSTRIAL","","","meanRos_ug_m3","No","Undetermined","Massachusetts","Not in a city","Suburban","Weymouth","No","Trichloroethylene","","","","","","","","","","","","","","","","","","0.0102220989635908"
"26-081-0021","Trichloroethylene","42.9386367797852","-85.671142578125","Grand Rapids","","INDUSTRIAL","","1270 RANDOLPH, GRAND RAPIDS","meanRos_ug_m3","No","Undetermined","Michigan","Grand Rapids","Urban And Center City","1270 RANDOLPH, GRAND RAPIDS","No","Trichloroethylene","0.309252853338057","0.376861559623984","","","","","","","","","","","","","","","",""
"26-111-0953","Trichloroethylene","43.5914154052734","-84.2094345092773","Midland","","INDUSTRIAL","","WOOD PLATFORM","meanRos_ug_m3","No","Undetermined","Michigan","Midland","Rural","WOOD PLATFORM","No","Trichloroethylene","","","","","","","","","","","","","","0.0376353352677538","","","",""
"26-111-0955","Trichloroethylene","43.589469909668","-84.2210998535156","Midland","","INDUSTRIAL","","WOOD PLATFORM","meanRos_ug_m3","No","Undetermined","Michigan","Midland","Rural","WOOD PLATFORM","No","Trichloroethylene","","","","","","","","","","","","","","0.0445624766488565","","","",""
"26-111-0959","Trichloroethylene","43.5762138366699","-84.3216094970703","MIDLAND","","AGRICULTURAL","","","meanRos_ug_m3","No","Undetermined","Michigan","Midland","Rural","","No","Trichloroethylene","","","","","","","","","","","","","","0.0454098147026506","","","",""
"26-111-0960","Trichloroethylene","43.6000213623047","-84.2001419067383","Midland","","COMMERCIAL","","","meanRos_ug_m3","No","Undetermined","Michigan","Midland","Rural","","No","Trichloroethylene","","","","","","","","","","","","","","0.095683829063114","","","",""
"26-163-0001","Trichloroethylene","42.2286186218262","-83.2081985473633","Allen Park","","COMMERCIAL","","UATMP: APMI; IMPROVE: DETR1; PILOT CITY: Allen Park","meanRos_ug_m3","No","Undetermined","Michigan","Allen Park","Suburban","Allen Park","No","Trichloroethylene","","","0.0492535717825352","","","","","","","","","","","","","","",""
"26-163-1005","Trichloroethylene","42.2894477844238","-83.153434753418","Detroit","","INDUSTRIAL","","NORTHWEST","meanRos_ug_m3","No","Undetermined","Michigan","Detroit","Urban And Center City","NORTHWEST","No","Trichloroethylene","","","","","","","","","","0.722141803779456","0.521572163811185","","","","","","",""
"26-163-1006","Trichloroethylene","42.2830696105957","-83.1611480712891","Detroit","","INDUSTRIAL","","West corner","meanRos_ug_m3","No","Undetermined","Michigan","Detroit","Urban And Center City","West corner","No","Trichloroethylene","","","","","","","","","","1.16064231815964","","","","","","","",""
"26-163-1008","Trichloroethylene","42.281867980957","-83.1514129638672","Detroit","","INDUSTRIAL","","(Northeast corner)","meanRos_ug_m3","No","Undetermined","Michigan","Detroit","Urban And Center City","(Northeast corner)","No","Trichloroethylene","","","","","","","","","","1.0548961421755","","","","","","","",""
"27-003-1002","Trichloroethylene","45.1376800537109","-93.2076187133789","Blaine","","COMMERCIAL","","Anoka Airport6010","meanRos_ug_m3","No","No Trend","Minnesota","Blaine","Suburban","Anoka County Airport","No","Trichloroethylene","","","","","","","","","","0.0623913103296591","0.049359129197966","0.0456535229465387","0.0764718012997142","0.050921598102365","0.0555828823650964","","",""
"27-007-2303","Trichloroethylene","47.8772201538086","-95.0122222900391","Red Lake","","RESIDENTIAL","","Red Lake","meanRos_ug_m3","No","Undetermined","Minnesota","Red Lake","Rural","Red Lake District","No","Trichloroethylene","","","","","","","","","0.0111494163053495","","","","","","","","",""
"27-017-7416","Trichloroethylene","46.7052688598633","-92.5237731933594","CLOQUET","","FOREST","","Cloquet","meanRos_ug_m3","No","Undetermined","Minnesota","Cloquet","Rural","Fond du Lac Band 7416","No","Trichloroethylene","","","","","","","","0.0170680952990506","","","","","","","","","",""
"27-019-0052","Trichloroethylene","44.8506546020508","-93.5918121337891","Chaska","","RESIDENTIAL","","CHASKA","meanRos_ug_m3","No","No Trend","Minnesota","Chaska","Rural","Chaska","No","Trichloroethylene","0.109913268109586","0.185765868661208","0.150360102998093","0.168637417708897","0.0915419151725589","","","","","","","","","","","","",""
"27-021-0001","Trichloroethylene","47.1599426269531","-94.1509857177734","NOT IN A CITY","","RESIDENTIAL","","Leech Lake","meanRos_ug_m3","No","Undetermined","Minnesota","Not in a city","Rural","Leech Lake Nation: Chatfield","No","Trichloroethylene","","","","","","","","","0.00899876708267759","","","","","","","","",""
"27-037-0020","Trichloroethylene","44.7632293701172","-93.0325469970703","NOT IN A CITY","","INDUSTRIAL","","FHR 420","meanRos_ug_m3","No","No Trend","Minnesota","Rosemount","Rural","Flint Hills Refinery 420","No","Trichloroethylene","0.041766576549557","0.0454449602826825","0.0546820472848291","0.0448547873920837","0.0471123550718619","0.049744987307131","0.0285818382321401","0.0245794921728895","0.0343752322232347","0.0176659846258843","0.00802684363006817","0.0173882299655271","0.0523632986262201","","0.0333884480844808","","",""
"27-037-0423","Trichloroethylene","44.7755317687988","-93.06298828125","Rosemount","","INDUSTRIAL","","FHR 423","meanRos_ug_m3","No","No Trend","Minnesota","Inver Grove Heights (RR name Inver Grove)","Rural","Flint Hills Refinery 423","No","Trichloroethylene","0.0365142422228946","0.0448737141879677","0.053303248497347","0.0613382337698048","0.0387315062657048","0.137918284574449","0.0229313622168328","0.0212133944836082","0.0315110445088363","0.0184730965452857","0.00576442293330061","0.017139729536801","0.0477886908062517","0.0609245660844914","0.0417912474883522","","",""
"27-037-0441","Trichloroethylene","44.7467994689941","-93.0261077880859","Rosemount","","INDUSTRIAL","","FHR 441","meanRos_ug_m3","No","No Trend","Minnesota","Rosemount","Rural","Flint Hills Refinery 441","No","Trichloroethylene","0.0240933208736604","0.0269421395081425","0.0358901707921177","0.0275980341975879","0.0231138984600218","","","","","","","","","","","","",""
"27-037-0442","Trichloroethylene","44.7385711669922","-93.0049591064453","Rosemount","","AGRICULTURAL","","FHR 442","meanRos_ug_m3","No","No Trend","Minnesota","Rosemount","Rural","Flint Hills Refinery 442","No","Trichloroethylene","0.0152462270144062","0.0214840780802621","0.0347718172835398","0.0285278200345051","0.0234212377996193","0.032215036153995","0.0196177548213609","0.0172427371977145","0.0262161344754318","0.0135346082496701","0.00563538431266812","","","","","","",""
"27-037-0443","Trichloroethylene","44.745662689209","-93.0554122924805","ROSEMOUNT","","INDUSTRIAL","","FHR 443","meanRos_ug_m3","No","No Trend","Minnesota","Rosemount","Rural","Flint Hills Refinery 443","No","Trichloroethylene","","","","","","0.0778460132665778","0.0270438402841309","0.0189688194166203","0.0324131889144283","0.0130707670535812","0.00542026627436301","0.0178088596233261","0.0578620877637151","0.0608183385185171","0.0381519361767571","","",""
"27-037-0470","Trichloroethylene","44.7384605407715","-93.2372512817383","Apple Valley","","RESIDENTIAL","","Apple Valley","meanRos_ug_m3","No","No Trend","Minnesota","Apple Valley","Suburban","Apple Valley","No","Trichloroethylene","0.030808038803366","0.0598072905824053","0.0554467881635084","0.0530310010664617","0.0399921499135668","0.0263426665623236","0.0273657984658487","0.0242144303247645","0.027277366926563","0.0136081437255693","0.00527843017900945","0.0266557798799554","0.0448975089329153","","0.0314334706194685","","",""
"27-053-0050","Trichloroethylene","45.0012283325195","-93.2671203613281","Minneapolis","","COMMERCIAL","","NE Fire Station","meanRos_ug_m3","No","Undetermined","Minnesota","Minneapolis","Urban And Center City","Minneapolis Fire Station 2","No","Trichloroethylene","0.206293781832777","0.242341457458935","0.259739356572952","0.338389337754574","","","","","","","","","","","","","",""
"27-053-0909","Trichloroethylene","45.0121002197266","-93.2766952514648","Minneapolis","","INDUSTRIAL","","Lowry Ave","meanRos_ug_m3","No","Undetermined","Minnesota","Minneapolis","Urban And Center City","Lowry Avenue","No","Trichloroethylene","","","","","","","","","","","","","0.0944423088706511","0.120842577913632","0.0616906183695398","","",""
"27-053-0961","Trichloroethylene","44.8755111694336","-93.258918762207","RICHFIELD","","RESIDENTIAL","","RICHFIELD INTERMEDIATE SCHOOL","meanRos_ug_m3","No","No Trend","Minnesota","Richfield","Suburban","Richfield Intermediate School","No","Trichloroethylene","","","","0.105555917778663","0.0790794504103823","0.55526048270755","0.0317889716869077","0.0500608792144974","0.0426879593078507","0.0325394851551633","0.0146920733663408","0.0317060323860878","0.0588784644578676","","0.0402459629199169","","",""
"27-053-0962","Trichloroethylene","44.9652404785156","-93.2547607421875","Minneapolis","","RESIDENTIAL","","Minneapolis Near Roadway NOx","meanRos_ug_m3","No","Undetermined","Minnesota","Minneapolis","Urban And Center City","Near Road I-35/I-94","No","Trichloroethylene","","","","","","","","","","","","0.0894485443570665","0.0862778443984902","0.0717576425159762","0.0718359607863629","","",""
"27-053-0963","Trichloroethylene","44.9536590576172","-93.2582092285156","Minneapolis","","RESIDENTIAL","","HC Anderson School","meanRos_ug_m3","No","Decreasing","Minnesota","Minneapolis","Urban And Center City","Andersen School","No","Trichloroethylene","0.157985282854365","0.309315611865243","0.351856680744785","0.261744479897122","0.177385252097557","0.129198279020921","0.21170419297018","0.201333122569015","0.0943726679480963","0.150118442888085","0.0734274362834599","0.0921482116624662","0.0816847577992634","0.0771083458808642","0.0713932779653699","","",""
"27-053-0964","Trichloroethylene","44.8885498046875","-93.1953735351563","NOT IN A CITY","","COMMERCIAL","","MSP AIRPORT","meanRos_ug_m3","No","Undetermined","Minnesota","Not in a city","Suburban","MSP Airport","No","Trichloroethylene","0.0661297515535034","","","","","","","","","","","","","","","","",""
"27-053-0965","Trichloroethylene","45.0044784545898","-93.2400436401367","Minneapolis","","RESIDENTIAL","","Putnam School","meanRos_ug_m3","No","Undetermined","Minnesota","Minneapolis","Urban And Center City","Putnam Elementary School","No","Trichloroethylene","0.716351970193434","1.40846699678292","0.609434850989504","0.263889245178673","","","","","","","","","","","","","",""
"27-053-0966","Trichloroethylene","44.9794387817383","-93.2661285400391","Minneapolis","","COMMERCIAL","","UATMP: MIMN; City of Lakes Bldg","meanRos_ug_m3","No","Decreasing","Minnesota","Minneapolis","Urban And Center City","City of Lakes Building","No","Trichloroethylene","0.178202462781099","0.188752795200584","0.176369612833037","0.180672001297262","0.163461335153335","0.129160862479169","0.125736790055638","0.130901494028293","0.117959442719216","0.0830289647117472","0.0764766231485883","0.0619965860615286","0.0808492018126577","0.069074498254481","0.0678163989026702","","",""
"27-053-0968","Trichloroethylene","44.8930053710938","-93.2332305908203","MINNEAPOLIS","","COMMERCIAL","","MSP Airport 968","meanRos_ug_m3","No","Undetermined","Minnesota","Minneapolis","Urban And Center City","Metropolitan Airports Commission","No","Trichloroethylene","","","0.111045593129737","0.0791578898520854","","","","","","","","","","","","","",""
"27-053-0969","Trichloroethylene","44.9005699157715","-93.23828125","MINNEAPOLIS","","RESIDENTIAL","","WENONAH SCHOOL","meanRos_ug_m3","No","No Trend","Minnesota","Minneapolis","Suburban","Wenonah Elementary School","No","Trichloroethylene","","","0.0863593653775752","0.106528364241275","0.0622539198247053","0.0687054787275485","0.0554284881831822","","","","","","","","","","",""
"27-053-1007","Trichloroethylene","45.0397186279297","-93.2987365722656","Minneapolis","","RESIDENTIAL","","Humboldt Ave","meanRos_ug_m3","No","Decreasing","Minnesota","Minneapolis","Suburban","Humboldt Avenue","No","Trichloroethylene","0.124210838250001","0.125546890108385","0.115152265206633","0.100339659345071","0.0910567881432004","0.0849869377847858","0.0762550732350323","0.10392928331913","0.0713815185805096","0.0625794158968535","0.0824285775186978","0.0820355336152364","0.0735601115349325","0.0903970073264341","0.0613894445104903","","",""
"27-053-1909","Trichloroethylene","45.0136108398438","-93.2720489501953","Minneapolis","","COMMERCIAL","","Bottineau / Marshall Terrace","meanRos_ug_m3","No","Undetermined","Minnesota","Minneapolis","Urban And Center City","Bottineau / Marshall Terrace","No","Trichloroethylene","","","","","","","","","","","","","","","0.0777842174944552","","",""
"27-053-2006","Trichloroethylene","44.9480514526367","-93.343147277832","ST LOUIS PARK","","RESIDENTIAL","","St. Louis Park","meanRos_ug_m3","No","No Trend","Minnesota","St. Louis Park","Suburban","St. Louis Park City Hall","No","Trichloroethylene","","","","","","0.0451376078390852","0.0606862868663996","0.0761859069709326","0.072677309777249","0.0401365825562097","0.0348089336320295","0.036384811062774","0.0608090644899971","0.0415353036120776","0.0529957433372806","","",""
"27-075-0005","Trichloroethylene","47.9486236572266","-91.4955749511719","NOT IN A CITY","","UNKNOWN","","Fernberg Road","meanRos_ug_m3","No","Undetermined","Minnesota","Not in a city","Rural","Boundary Waters","No","Trichloroethylene","","","","","","","","0.00424809160817264","","","","","","","","","",""
"27-095-3051","Trichloroethylene","46.2052993774414","-93.7594528198242","ONAMIA","","FOREST","","Mille Lacs","meanRos_ug_m3","No","Undetermined","Minnesota","Onamia","Rural","Mille Lacs Band","No","Trichloroethylene","","","","","","","","","","0.00457318782474296","","","","","","","",""
"27-123-0017","Trichloroethylene","44.9441337585449","-93.0651245117188","SAINT PAUL","","INDUSTRIAL","","Holman Field","meanRos_ug_m3","No","Undetermined","Minnesota","St. Paul","Suburban","Holman Field","No","Trichloroethylene","0.120535279967752","0.133265209272158","0.178817842799154","0.171158390079423","","","","","","","","","","","","","",""
"27-123-0021","Trichloroethylene","44.9655494689941","-93.0568389892578","SAINT PAUL","","COMMERCIAL","","Ross Avenue","meanRos_ug_m3","No","No Trend","Minnesota","St. Paul","Urban And Center City","Ross Avenue","No","Trichloroethylene","0.094758227764982","0.569874834483151","0.117393009155452","0.106273072683939","0.128181844443918","","","","","","","","","","","","",""
"27-123-0868","Trichloroethylene","44.9507217407227","-93.0982666015625","SAINT PAUL","","COMMERCIAL","","Ramsey Health Center","meanRos_ug_m3","No","No Trend","Minnesota","St. Paul","Urban And Center City","Ramsey Health Center","No","Trichloroethylene","","","","","0.115798936667457","0.117975526646404","0.11092771505937","0.126711133293092","0.116568169417071","0.168467432576812","0.10419344352387","0.145135593767303","0.140868111274531","0.168351866696405","0.116319746880809","","",""
"27-123-0871","Trichloroethylene","44.9593887329102","-93.0358734130859","SAINT PAUL","","RESIDENTIAL","","Harding High School","meanRos_ug_m3","No","No Trend","Minnesota","St. Paul","Suburban","Harding High School","No","Trichloroethylene","","","","","","0.0462034432240194","0.0614776959371982","0.0581482989912075","0.0649807998777659","0.0713950682299844","0.0430212613756299","0.0254533704414544","0.0868596655279931","0.0516148248302396","0.115866588670369","","",""
"27-123-1908","Trichloroethylene","44.9730949401855","-93.1998825073242","SAINT PAUL","","RESIDENTIAL","","South St. Anthony Park","meanRos_ug_m3","No","Undetermined","Minnesota","St. Paul","Urban And Center City","South St. Anthony Park","No","Trichloroethylene","","","","","","","","","","","","","","0.238321909609062","","","",""
"27-137-7549","Trichloroethylene","46.771068572998","-92.117317199707","Duluth","","INDUSTRIAL","","Michigan St.","meanRos_ug_m3","No","No Trend","Minnesota","Duluth","Urban And Center City","Michigan Street","No","Trichloroethylene","0.0739982136032927","0.077269633954353","0.0630870901640843","0.0435852385257615","0.0337235637209521","0.0381057290933167","0.0216023438107","0.0148910628888908","0.0454261165174214","0.0168107909976207","0.0158278002619948","0.0434874632868214","0.0469121066569917","","","","",""
"27-163-0436","Trichloroethylene","44.8473701477051","-92.9953994750977","SAINT PAUL","","INDUSTRIAL","","MPC 436","meanRos_ug_m3","No","No Trend","Minnesota","St. Paul Park","Suburban","Saint Paul Park Refinery 436","No","Trichloroethylene","0.0480948949419536","0.0282619646050936","0.0474481040193985","0.0752133526152275","0.0375036758441795","0.0343241300284641","0.0400091337780979","0.0304277672898612","0.0487673673074995","0.0276164966208726","0.0131335393167837","0.0420682447984413","0.0595194300950513","","0.058237104818443","","",""
"27-163-0438","Trichloroethylene","44.8571090698242","-93.0035171508789","Newport","","INDUSTRIAL","","MPC 438","meanRos_ug_m3","No","No Trend","Minnesota","Newport","Suburban","Saint Paul Park Refinery 438","No","Trichloroethylene","","0.0358650762949585","0.0800175391266058","0.0584731952806539","0.0402031678481606","0.0552367280543915","0.0364247713931694","0.0395826754028809","0.04622624985035","0.0331410933545018","0.015735097080908","0.0249752329907183","0.0513736146449468","","0.0576657595468475","","",""
"27-163-0445","Trichloroethylene","45.0187606811523","-92.7802734375","BAYPORT","","RESIDENTIAL","","Anderson School","meanRos_ug_m3","No","Undetermined","Minnesota","Bayport","Suburban","Anderson School","No","Trichloroethylene","","","","","0.162048509819713","","","","","","","","","","","","",""
"27-163-0446","Trichloroethylene","45.0279808044434","-92.7741470336914","Bayport","","INDUSTRIAL","","Point Rd.","meanRos_ug_m3","No","No Trend","Minnesota","Bayport","Suburban","Point Road","No","Trichloroethylene","","","","","","0.0254594310207656","0.0201935918068594","0.0239572588106616","0.0401873178575449","0.0154028934057753","0.0151370044462623","0.0167024791101394","0.0463564332148547","","0.0407767882143004","","",""
"28-087-0002","Trichloroethylene","33.5095863342285","-88.4089279174805","Columbus","","RESIDENTIAL","","UATMP: KMMS","meanRos_ug_m3","No","Undetermined","Mississippi","Columbus","Urban And Center City","UATMP: KMMS","No","Trichloroethylene","","","","","","","","","","","0.0520305762720975","","","","","","",""
"28-087-0003","Trichloroethylene","33.4995880126953","-88.4036483764648","Columbus","","RESIDENTIAL","","UATMP: SSMS","meanRos_ug_m3","No","Undetermined","Mississippi","Columbus","Urban And Center City","UATMP: SSMS","No","Trichloroethylene","","","","","","","","","","","0.0385282896776685","","","","","","",""
"33-011-0020","Trichloroethylene","42.995777130127","-71.4625244140625","Manchester","","COMMERCIAL","","PEARL ST MUNICIPAL PARKING LOT","meanRos_ug_m3","No","No Trend","New Hampshire","Manchester","Urban And Center City","PEARL ST MUNICIPAL PARKING LOT","No","Trichloroethylene","","0.0926841417184243","0.107204792124254","0.126591429974024","0.108956137094004","0.784749595224857","","","","","","","","","","","",""
"33-013-1003","Trichloroethylene","43.177303314209","-71.4620132446289","Pembroke","","RESIDENTIAL","","","meanRos_ug_m3","No","Undetermined","New Hampshire","Pembroke","Rural","","No","Trichloroethylene","0.274621615635938","","","","","","","","","","","","","","","","",""
"33-013-1006","Trichloroethylene","43.1324615478516","-71.4582443237305","Pembroke","","RESIDENTIAL","","PEMBROKE HIGHWAY DEPARTMENT","meanRos_ug_m3","No","Undetermined","New Hampshire","Suncook","Suburban","PEMBROKE HIGHWAY DEPARTMENT","No","Trichloroethylene","0.245268541787352","","","","","","","","","","","","","","","","",""
"33-015-0014","Trichloroethylene","43.0753707885742","-70.7480163574219","Portsmouth","","RESIDENTIAL","","PORTSMOUTH - PEIRCE ISLAND","meanRos_ug_m3","No","Undetermined","New Hampshire","Portsmouth","Urban And Center City","PORTSMOUTH - PEIRCE ISLAND","No","Trichloroethylene","","0.0973469215844359","0.104110107596578","0.130389273406998","0.0758478569984436","","","","","","","","","","","","",""
"33-019-0003","Trichloroethylene","43.3645172119141","-72.3378677368164","Claremont","","RESIDENTIAL","","","meanRos_ug_m3","No","No Trend","New Hampshire","Claremont","Urban And Center City","","No","Trichloroethylene","1.20341330587864","0.0877811208899532","0.105281644597136","0.128177252908548","0.115497765346215","0.832993288214008","","","","","","","","","","","",""
"34-007-0002","Trichloroethylene","39.9344444274902","-75.1252899169922","Camden","","INDUSTRIAL","","UATMP: CSNJ; Camden Spruce Street","meanRos_ug_m3","No","No Trend","New Jersey","Camden","Urban And Center City","Camden Spruce Street","No","Trichloroethylene","","","","","","","","","","","0.0585307936777184","0.0548586989847918","0.084466630271869","0.0671768270618018","0.0693454881474211","0.0609864221743275","0.0485001669082746","0.0553519144015133"
"34-007-0003","Trichloroethylene","39.9230422973633","-75.0976181030273","Camden","","RESIDENTIAL","","UATMP: CANJ","meanRos_ug_m3","No","No Trend","New Jersey","Camden","Suburban","CAMDEN LAB","No","Trichloroethylene","","0.338201508162372","0.402070241287155","0.428375821974367","0.221912621182212","0.17685151848759","","","","","","","","","","","",""
"34-023-0006","Trichloroethylene","40.4728240966797","-74.4224014282227","NOT IN A CITY","","AGRICULTURAL","","UATMP: NBNJ","meanRos_ug_m3","No","Decreasing","New Jersey","North Brunswick Township","Rural","New Brunswick","No","Trichloroethylene","","","0.0593654095068993","0.072485704457931","0.061247596490541","0.0798169151546455","0.042996525460411","0.0279334898582755","0.0365228813998278","0.0415948432358845","","0.038699680949788","","","","","",""
"34-023-0011","Trichloroethylene","40.4621810913086","-74.4294357299805","NOT IN A CITY","","AGRICULTURAL","","Rutgers University","meanRos_ug_m3","No","Undetermined","New Jersey","East Brunswick (Township of)","Rural","Rutgers University","No","Trichloroethylene","","","","","","","","","","","","","","0.042047035720832","","0.0283754645142053","0.0208359470017942","0.0474103594496558"
"34-027-3001","Trichloroethylene","40.7876281738281","-74.6763000488281","NOT IN A CITY","","AGRICULTURAL","","UATMP: CHNJ","meanRos_ug_m3","No","Undetermined","New Jersey","Chester","Rural","Chester","No","Trichloroethylene","","","","","0.0283652998026928","0.035448013358779","","","","","","","","","","","0.0138921893864397","0.0380195279189959"
"34-031-0005","Trichloroethylene","40.9183807373047","-74.1680908203125","PATERSON","","COMMERCIAL","","UATMP: PANJ; PATERSON","meanRos_ug_m3","No","Undetermined","New Jersey","Paterson","Urban And Center City","Paterson","No","Trichloroethylene","","","","0.0604204177683176","","","","","","","","","","","","","",""
"34-031-0006","Trichloroethylene","40.9157485961914","-74.1767349243164","Paterson","","MOBILE","","Paterson Public School - PS2","meanRos_ug_m3","No","Undetermined","New Jersey","Paterson","Urban And Center City","Paterson Public School - PS2","No","Trichloroethylene","","","","0.0641736023999909","","","","","","","","","","","","","",""
"34-031-0007","Trichloroethylene","40.9274597167969","-74.1606140136719","Paterson","","INDUSTRIAL","","Paterson Public School - PS10","meanRos_ug_m3","No","Undetermined","New Jersey","Paterson","Urban And Center City","Paterson Public School - PS10","No","Trichloroethylene","","","","0.0819524118980003","","","","","","","","","","","","","",""
"34-039-0004","Trichloroethylene","40.6414413452148","-74.208366394043","Elizabeth","","INDUSTRIAL","","UATMP: ELNJ; NADP: NJ54","meanRos_ug_m3","Yes","Decreasing","New Jersey","Elizabeth","Suburban","Elizabeth Lab","No","Trichloroethylene","0.124195980662576","","0.104960643569689","0.0957803268222775","0.0935544679414999","0.0772383607052484","0.0856862834674031","0.0400685083129251","0.103455788911931","0.0476399946636674","0.0420576701061165","0.0486376974082537","0.0297968953038782","0.0392621495422944","0.0456249467435054","0.0398746453581621","0.0284294798945384","0.0493756653103749"
"36-001-0013","Trichloroethylene","42.6409301757813","-73.7565078735352","Albany","","RESIDENTIAL","","S. Pearl Street","meanRos_ug_m3","No","Undetermined","New York","Not in a city","Urban And Center City","S. Pearl Street","No","Trichloroethylene","","","","","","","","","","","","","0.0145609582480703","0.0144060773440312","0.0126813618532084","0.00906666919833068","",""
"36-005-0083","Trichloroethylene","40.8658485412598","-73.8808288574219","New York City","","COMMERCIAL","","UATMP: BXNY","meanRos_ug_m3","No","Undetermined","New York","New York","Urban And Center City","BOTANICAL GARDEN","No","Trichloroethylene","0.379776485863009","","","","","","","","","","","","","","","","",""
"36-005-0133","Trichloroethylene","40.8679008483887","-73.8780899047852","NEW YORK CITY","","COMMERCIAL","","PFIZER LAB SITE; NADP: NY06","meanRos_ug_m3","No","Decreasing","New York","New York","Urban And Center City","PFIZER LAB SITE","No","Trichloroethylene","","","","","0.0884464408540369","0.0826802766860652","0.0558092979339989","0.0216850198749224","0.0181612578949607","0.0260007515022551","0.0262553305007478","0.0247752306145101","0.028676144603277","0.0351516512655066","0.0208332427509384","0.0214859785947652","0.0174298304435684",""
"36-029-0005","Trichloroethylene","42.8769073486328","-78.8095245361328","BUFFALO","","RESIDENTIAL","","BUFFALO","meanRos_ug_m3","No","Decreasing","New York","Buffalo","Urban And Center City","BUFFALO","No","Trichloroethylene","","","","","","","","","","","","0.0734884219865004","0.0655582886016897","0.0300417869749165","0.0185542404182463","0.0130822226892476","0.0258486704604501","0.0154783169065021"
"36-029-1007","Trichloroethylene","42.8273010253906","-78.8498382568359","Lackawanna","","INDUSTRIAL","","SIMON STREET","meanRos_ug_m3","No","Decreasing","New York","Lackawanna","Urban And Center City","SIMON STREET","No","Trichloroethylene","0.110799539139512","","0.0532052048729276","0.0422346202530101","0.037067084154249","0.0383463831343216","0.0221287201962901","0.0216663461253626","","","","","","","","","",""
"36-029-1013","Trichloroethylene","42.9884414672852","-78.918586730957","Tonawanda","","INDUSTRIAL","","UATMP: TONY; GRAND ISLE BOULDVARD","meanRos_ug_m3","No","Decreasing","New York","Tonawanda","Urban And Center City","GRAND ISLE BOULDVARD","No","Trichloroethylene","","","","","","0.115365344647779","0.0664165096581389","0.0446980779614522","0.020224254137184","0.0241778165445556","0.0472955598824287","0.0298910020321777","0.0357956579191332","0.0278107594715465","0.0234910232117701","0.0220407181961302","0.0142585327865976",""
"36-029-1014","Trichloroethylene","42.9981307983398","-78.8992614746094","Tonawanda","","RESIDENTIAL","","BROOKSIDE TERRACE","meanRos_ug_m3","No","Decreasing","New York","Tonawanda","Suburban","BROOKSIDE TERRACE","No","Trichloroethylene","","","","","","0.121795568459978","0.0672733506679618","0.0451952584511099","0.0222077908116534","0.0332151049052096","0.0456525414660646","0.0296349412994258","0.030922169581892","0.0239106596885465","0.0230706968275973","0.0310257056590025","0.011891980586028","0.00962132032267352"
"36-031-0003","Trichloroethylene","44.3930816650391","-73.8589019775391","SUNY","","FOREST","","WHITEFACE BASE","meanRos_ug_m3","No","No Trend","New York","Not in a city","Rural","WHITEFACE BASE","No","Trichloroethylene","0.0335322520475447","0.0373519556216452","0.0327954626215018","","0.0200604350014177","","0.0077513652598849","0.00310339143279956","","0.00632309220377571","","0.0110768638087315","0.00941148593780214","0.0845062529921499","0.00731899363239795","","",""
"36-047-0118","Trichloroethylene","40.6945381164551","-73.9276885986328","New York City","","RESIDENTIAL","","PS 274","meanRos_ug_m3","Yes","Decreasing","New York","New York","Suburban","PS 274","No","Trichloroethylene","0.178257839662618","","0.140351829230785","","0.0963016643273408","0.0823589126342646","0.0723333542489193","0.0454951011599776","0.0308336526909575","0.0341920393118341","","0.0353516454479712","0.032613048170144","0.0407438190294462","0.0198578769654829","0.0197395813078092","0.0200052905517992","0.0137800278490675"
"36-061-0056","Trichloroethylene","40.7591209411621","-73.9666137695313","New York","","COMMERCIAL","","PS 59","meanRos_ug_m3","No","Decreasing","New York","New York","Urban And Center City","PS 59","No","Trichloroethylene","0.40908085181942","0.338550192518876","0.287588516915483","0.235095548513013","0.220248756735997","","","","","","","","","","","","",""
"36-063-2008","Trichloroethylene","43.0821800231934","-79.0010604858398","Niagara Falls","","INDUSTRIAL","","NIAGARA FALLS","meanRos_ug_m3","No","Decreasing","New York","Niagara Falls","Suburban","NIAGARA FALLS","No","Trichloroethylene","0.146539508076064","0.132342473603785","0.133363686455102","0.0987842986391584","0.0823283550456711","0.0965312613527526","0.0595640663580136","0.0536464159444395","","","","","","","","","",""
"36-063-7001","Trichloroethylene","43.0963745117188","-79.0114440917969","Niagara Falls","","RESIDENTIAL","","Packard Court Community Center","meanRos_ug_m3","No","Undetermined","New York","Niagara Falls","Suburban","Packard Court Community Center","No","Trichloroethylene","","","","","","","","","","","","","","","0.0678820538401138","0.0601857525460875","0.0395319522735451","0.0340814619817363"
"36-081-0098","Trichloroethylene","40.7841987609863","-73.8475723266602","New York City","","RESIDENTIAL","","COLLEGE POINT POST OFFICE","meanRos_ug_m3","No","Undetermined","New York","New York","Urban And Center City","COLLEGE POINT POST OFFICE","No","Trichloroethylene","0.193743460796407","0.169377021125436","0.170496016298815","","","","","","","","","","","","","","",""
"36-081-0124","Trichloroethylene","40.736141204834","-73.821533203125","New York City","","COMMERCIAL","","PM Supersite: Queensborough","meanRos_ug_m3","Yes","Decreasing","New York","New York","Urban And Center City","QUEENS COLLEGE 2","No","Trichloroethylene","0.155518101697075","0.109242892671715","0.0888604460503802","0.0670032734112485","0.0629394810005511","0.0663633564155282","0.0456795728206551","0.0264023643890079","0.0417818493378305","0.0401463704077294","0.0446644672182804","0.0279823146230573","0.0241314765557387","0.0288739764256149","0.0173501702429409","0.0203026643596883","0.0167399649398559","0.0153786577059445"
"36-083-1003","Trichloroethylene","42.7319412231445","-73.6890869140625","Troy","","COMMERCIAL","","TROY","meanRos_ug_m3","No","Decreasing","New York","Troy","Urban And Center City","TROY","No","Trichloroethylene","0.153097723888098","0.242641460148006","0.0766732553981357","0.0404873137115427","0.0689894779534242","0.0766290464650114","0.0351182139141983","0.0315174255886922","","","","","","","","","",""
"36-085-0106","Trichloroethylene","40.5781097412109","-74.1843032836914","New York City","","INDUSTRIAL","","UNLOADING ZONE FRESHKILLLS LANDFILL","meanRos_ug_m3","No","Undetermined","New York","New York","Urban And Center City","UNLOADING ZONE FRESHKILLLS LANDFILL","No","Trichloroethylene","0.171414720692805","","","","","","","","","","","","","","","","",""
"36-085-0111","Trichloroethylene","40.5802688598633","-74.1983184814453","New York City","","COMMERCIAL","","FRESHKILLS WEST","meanRos_ug_m3","Yes","Decreasing","New York","New York","Suburban","FRESHKILLS WEST","No","Trichloroethylene","0.150557445983092","0.100670044107388","0.102783974218963","0.0627525629240043","0.0750304285886232","0.0611981080436139","0.0404005992012829","0.0235737368496874","0.0161399109811724","","0.0387163015310172","","0.0278520724830971","0.033501410072691","0.0192674765050615","0.0169615057293529","0.0111224516210643","0.00962178400961062"
"36-085-0131","Trichloroethylene","40.5880584716797","-74.1688232421875","New York City","","INDUSTRIAL","","FRESHKILLS EAST","meanRos_ug_m3","No","Undetermined","New York","New York","Urban And Center City","FRESHKILLS EAST","No","Trichloroethylene","0.181755794833104","0.187333861590716","","","","","","","","","","","","","","","",""
"36-085-0132","Trichloroethylene","40.5805587768555","-74.1517791748047","New York City","","COMMERCIAL","","LATOURETTE GOLF COURSE","meanRos_ug_m3","No","Decreasing","New York","New York","Suburban","LATOURETTE GOLF COURSE","No","Trichloroethylene","0.147845156993489","0.0994799588461773","0.10605913698245","0.0606736538783341","0.0511038203601933","0.0676485515915953","0.0557616805752455","0.0404921361467819","0.0314751062652319","0.038194738491632","","","","","","","",""
"36-101-0003","Trichloroethylene","42.0914192199707","-77.2097778320313","NOT IN A CITY","","FOREST","","PM Supersite: Pinnacle State Park","meanRos_ug_m3","No","No Trend","New York","Not in a city","Rural","PINNACLE STATE PARK","No","Trichloroethylene","","","","","","","","","","","0.0161933138526874","0.0177798206676074","","0.0241506846754369","0.0100950262532372","0.00587155947050372","",""
"36-103-0009","Trichloroethylene","40.8279914855957","-73.0575408935547","HOLTSVILLE","","RESIDENTIAL","","HOLTSVILLE","meanRos_ug_m3","No","No Trend","New York","Holtsville","Suburban","HOLTSVILLE","No","Trichloroethylene","0.0215095535835496","0.0344108003387039","0.0350450147052704","0.043315400189384","0.0285714131880352","","","","","","","","","","","","",""
"37-021-0003","Trichloroethylene","35.5987091064453","-82.548469543457","ASHEVILLE","","COMMERCIAL","","","meanRos_ug_m3","No","Undetermined","North Carolina","Asheville","Urban And Center City","","No","Trichloroethylene","","0.299229806152786","","","","","","","","","","","","","","","",""
"37-021-0035","Trichloroethylene","35.5722198486328","-82.5588912963867","ASHEVILLE","","COMMERCIAL","","AB Tech","meanRos_ug_m3","No","Decreasing","North Carolina","Asheville","Suburban","AB Tech","No","Trichloroethylene","","","0.483165658307525","0.399992397371328","0.450718977604239","0.225751690820537","0.14712009791817","0.217262501675974","0.0955381423151508","0.068225606772015","","","","","","","0.0869334909061475","0.110191436823292"
"37-063-0014","Trichloroethylene","35.8928680419922","-78.8764419555664","DURHAM","","COMMERCIAL","","UATMP: RTPNC; NADP: NC99","meanRos_ug_m3","No","Undetermined","North Carolina","Not in a city","Suburban","UATMP: RTPNC; NADP: NC99","No","Trichloroethylene","","","0.303790166749266","0.312309485147981","0.305215169524038","","","","","","","","","","","","",""
"37-067-0022","Trichloroethylene","36.1106948852539","-80.2264404296875","WINSTON-SALEM","","RESIDENTIAL","","Hattie Avenue","meanRos_ug_m3","No","No Trend","North Carolina","Winston-Salem","Urban And Center City","Hattie Avenue","No","Trichloroethylene","0.174907663946643","0.158230677305466","0.320965013720772","0.28693462908268","0.278840949847585","0.237140565259116","0.183970163627104","0.24184626413911","0.438389412210616","0.106717775798936","","","","","","","0.10266729662131","0.085549450980671"
"37-119-0041","Trichloroethylene","35.2401008605957","-80.7856826782227","Charlotte","","RESIDENTIAL","","Garinger High School","meanRos_ug_m3","No","No Trend","North Carolina","Charlotte","Urban And Center City","Garinger High School","No","Trichloroethylene","0.25154659897089","0.276994212987748","0.396990685137334","0.365093071399064","0.501088060438633","0.68245085204641","0.193923905358783","0.227419385686517","","0.0515625330515372","","","","","","","0.110903934883724",""
"37-123-0001","Trichloroethylene","35.2631988525391","-79.8366165161133","Candor","","FOREST","","UATMP: CANC","meanRos_ug_m3","No","Decreasing","North Carolina","Candor","Rural","Candor: EPA CASTNet Site","No","Trichloroethylene","","0.273066167173714","0.301202237050523","0.329625202549828","0.377828805611051","0.233830581176216","0.159116173163056","0.249529656105571","0.259470499370922","","","","","","","","0.0980894729144944","0.0905986644696845"
"37-129-0010","Trichloroethylene","34.2358283996582","-77.9546966552734","WILMINGTON","","AGRICULTURAL","","BATTLESHIP","meanRos_ug_m3","No","No Trend","North Carolina","Wilmington","Rural","Eagles Island","No","Trichloroethylene","","","0.760949697507464","0.377291785553098","0.454458212801095","0.231692507490516","0.144945260811726","0.244795120849803","0.154336684268184","","","","","","","","0.0858982242928564","1.75399500463997"
"37-183-0014","Trichloroethylene","35.8561096191406","-78.5741653442383","RALEIGH","","RESIDENTIAL","","Millbrook Middle School","meanRos_ug_m3","No","No Trend","North Carolina","Raleigh","Suburban","Millbrook School","No","Trichloroethylene","","","0.276845654627929","0.272912516238842","0.29182553001576","0.275768826829224","0.150538022250489","0.246629212473361","0.445414718856408","0.0415728142118925","","","","","","","0.09746155393984","0.0777227091833632"
"39-017-0019","Trichloroethylene","39.4788475036621","-84.4076766967773","Middletown","","RESIDENTIAL","","AMANDA","meanRos_ug_m3","No","Undetermined","Ohio","Middletown","Suburban","Amanda Elem","No","Trichloroethylene","","","","","","","","","","","","","0.476660190685216","","","","",""
"39-017-0020","Trichloroethylene","39.4724349975586","-84.3949508666992","Middletown","","INDUSTRIAL","","YANKEE","meanRos_ug_m3","No","Undetermined","Ohio","Middletown","Suburban","Yankee","No","Trichloroethylene","","","","","","","","","","","","","0.104139554492765","","","","",""
"39-035-0038","Trichloroethylene","41.4770126342773","-81.6823806762695","Cleveland","","INDUSTRIAL","","ST. THEODO","meanRos_ug_m3","No","Undetermined","Ohio","Cleveland","Urban And Center City","St Theodosius","No","Trichloroethylene","","","","","","","","","","","","","0.16147800869607","0.065700430149332","","","","0.08149843938321"
"39-035-1002","Trichloroethylene","41.3962898254395","-81.8186645507813","Brook Park","","RESIDENTIAL","","BROOKPARK","meanRos_ug_m3","No","Undetermined","Ohio","Brook Park","Suburban","Brookpark","No","Trichloroethylene","","","","","","","","","","","","","","0.0499418183331148","","","",""
"39-049-0039","Trichloroethylene","39.9285316467285","-82.9801025390625","Columbus","","INDUSTRIAL","","Barack Rec Center","meanRos_ug_m3","No","Undetermined","Ohio","Columbus","Urban And Center City","Barack Rec Center","No","Trichloroethylene","","","","","","","","","","","","","","0.0318346372424016","","","",""
"39-061-0041","Trichloroethylene","39.1860275268555","-84.5136642456055","Cincinnati","","INDUSTRIAL","","WINTON","meanRos_ug_m3","No","Undetermined","Ohio","Cincinnati","Urban And Center City","WINTON","No","Trichloroethylene","","0.381275899856951","","","","","","","","","","","","","","","",""
"39-061-0045","Trichloroethylene","39.1709251403809","-84.5186614990234","CINCINNATI","","RESIDENTIAL","","WALDORF","meanRos_ug_m3","No","Undetermined","Ohio","Cincinnati","Urban And Center City","WALDORF","No","Trichloroethylene","","","","0.451085893555272","","","","","","","","","","","","","",""
"39-061-0046","Trichloroethylene","39.1141242980957","-84.5363006591797","CINCINNATI","","COMMERCIAL","","DALTON","meanRos_ug_m3","No","Undetermined","Ohio","Cincinnati","Urban And Center City","DALTON","No","Trichloroethylene","0.477387731826774","","","1.10166975399052","0.701992530455535","","","","","","","","","","","","",""
"39-113-0035","Trichloroethylene","39.7386093139648","-84.2108612060547","DAYTON","","RESIDENTIAL","","","meanRos_ug_m3","No","Undetermined","Ohio","Dayton","Urban And Center City","","No","Trichloroethylene","","0.0775285652072423","","","","","","","","","","","","","","","",""
"39-113-0036","Trichloroethylene","39.7473258972168","-84.293342590332","DAYTON","","COMMERCIAL","","","meanRos_ug_m3","No","Undetermined","Ohio","Dayton","Urban And Center City","","No","Trichloroethylene","","0.0479479351579095","","","","","","","","","","","","","","","",""
"39-145-0020","Trichloroethylene","38.6093368530273","-82.822509765625","FRANKLIN FURNACE","","FOREST","","BACK ROAD","meanRos_ug_m3","No","Undetermined","Ohio","Franklin Furnace","Rural","Back Road","No","Trichloroethylene","","","","","","","","","0.71575458547155","","","","","","","","",""
"39-145-0022","Trichloroethylene","38.5880355834961","-82.8349761962891","FRANKLIN FURNACE","","INDUSTRIAL","","Gallia Pike South","meanRos_ug_m3","No","Undetermined","Ohio","Franklin Furnace","Rural","Gallia Pike South","No","Trichloroethylene","","","","","","","","","0.502668504025177","","","","","","","","",""
"40-097-9014","Trichloroethylene","36.2284088134766","-95.2499465942383","NOT IN A CITY","","AGRICULTURAL","","UATMP: CNEP; NADP: OK19","meanRos_ug_m3","No","Undetermined","Oklahoma","Not in a city","Rural","CHEROKEE HEIGHTS","No","Trichloroethylene","","","","","0.0382623363511044","","","","","","","","","","","","",""
"40-109-0097","Trichloroethylene","35.5030708312988","-97.5779800415039","Oklahoma City","","COMMERCIAL","","Near Road","meanRos_ug_m3","No","Undetermined","Oklahoma","Oklahoma City","Urban And Center City","Near Road","No","Trichloroethylene","","","","","","","","","","","","","","","","","0.0370780115248742",""
"40-109-1037","Trichloroethylene","35.6141319274902","-97.4750823974609","OKLAHOMA CITY","","RESIDENTIAL","","UATMP: OCOK","meanRos_ug_m3","No","Undetermined","Oklahoma","Oklahoma City","Suburban","OKC NORTH","No","Trichloroethylene","","","","","","","","","","","","","","0.0447185909990034","","0.0493477261488707","0.0118959479272183","0.0331352589555765"
"40-121-0417","Trichloroethylene","34.8853302001953","-95.9488983154297","HAYWOOD","","RESIDENTIAL","","Haywood Toxics","meanRos_ug_m3","No","Undetermined","Oklahoma","Not in a city","Rural","Haywood Toxics","No","Trichloroethylene","","","","","","","","","","","","","","","","","0.0336114128887579",""
"40-143-0172","Trichloroethylene","36.1645278930664","-95.985481262207","TULSA","","RESIDENTIAL","","UATMP: TSOK","meanRos_ug_m3","No","Undetermined","Oklahoma","Tulsa","Suburban","EMMERSON SCHOOL","No","Trichloroethylene","","","","","0.154880494747573","0.0654006590872797","","","","","","","","","","","",""
"40-143-0179","Trichloroethylene","36.1548309326172","-96.0158462524414","Tulsa","","INDUSTRIAL","","UATMP: TROK","meanRos_ug_m3","No","Undetermined","Oklahoma","Tulsa","Urban And Center City","UATMP: TROK","No","Trichloroethylene","","","","","","","","","","","","","","0.0296015331636064","","0.0321980217812444","0.0490952082872623",""
"40-143-0191","Trichloroethylene","36.1416969299316","-95.9837951660156","TULSA","","RESIDENTIAL","","UATMP: TUOK","meanRos_ug_m3","No","Undetermined","Oklahoma","Tulsa","Urban And Center City","CINCINNATI","No","Trichloroethylene","","","","","0.0900950182239533","0.0475077837419334","","","","","","","","","","","",""
"40-143-0235","Trichloroethylene","36.1269454956055","-95.9989395141602","TULSA","","INDUSTRIAL","","UATMP: TOOK","meanRos_ug_m3","No","No Trend","Oklahoma","Tulsa","Urban And Center City","CENTER OF PARKING LOT OF PUBLIC WORKS BUILDING 1/4 MI N OF SINCLAIR","No","Trichloroethylene","","","","0.041062661813331","0.104155806786106","0.0469121028274991","0.0347672603315731","","","","","","","0.0335927356770603","0.0315787590196206","0.0383598998663772","0.0683336455674138","0.0869192783220138"
"40-143-1127","Trichloroethylene","36.2049026489258","-95.9765396118164","Tulsa","Tulsa, OK","RESIDENTIAL","Urban","UATMP: TMOK","meanRos_ug_m3","No","No Trend","Oklahoma","Tulsa","Urban And Center City","NORTH TULSA - FIRE STATION#24","No","Trichloroethylene","","","","","","","0.036026463659489","","","0.0373438933773131","","","","0.035747590132887","0.0232654140786633","0.0386932081222066","0.0301924456723439","0.0559481066528971"
"41-009-0004","Trichloroethylene","45.7685317993164","-122.772102355957","NOT IN A CITY","","AGRICULTURAL","","SAUVIE ISLAND-SIS","meanRos_ug_m3","No","Undetermined","Oregon","Not in a city","Rural","SAUVIE ISLAND-SIS","No","Trichloroethylene","","","","","0.546464190161977","","","","","","","","","","","","",""
"41-029-2129","Trichloroethylene","42.3315505981445","-122.880264282227","Medford","","RESIDENTIAL","","Medford, Welch and Jackson.","meanRos_ug_m3","No","Undetermined","Oregon","Medford","Urban And Center City","Medford, Welch and Jackson.","No","Trichloroethylene","","","","","","","","","","","","","","","","","0.120100311645783",""
"42-003-0002","Trichloroethylene","40.4997673034668","-80.0713348388672","Avalon","","RESIDENTIAL","","Avalon","meanRos_ug_m3","No","Undetermined","Pennsylvania","Avalon","Suburban","Avalon","No","Trichloroethylene","","","","0.0519542641397154","0.0502364034736843","","","","","","","","","","","","",""
"42-003-0031","Trichloroethylene","40.4433670043945","-79.9902954101563","PITTSBURGH","","COMMERCIAL","","PITTSBURGH","meanRos_ug_m3","No","Decreasing","Pennsylvania","Pittsburgh","Urban And Center City","Flag Plaza","No","Trichloroethylene","6.94850494578236","1.78433609839346","4.97722355337417","5.69938971031294","0.0734949383664025","0.0495950365297368","0.115027417051099","0.0756957913752829","","0.0405787504874892","","","","0.0431647737676199","0.0371944347645705","","","0.0346062991575308"
"42-003-0067","Trichloroethylene","40.3756446838379","-80.1699447631836","South Fayette","","RESIDENTIAL","","South Fayette","meanRos_ug_m3","No","Undetermined","Pennsylvania","McDonald","Suburban","South Fayette","No","Trichloroethylene","","","","0.0489968318087749","0.050109294860527","","","","","","","","","","","","",""
"42-003-0116","Trichloroethylene","40.4736785888672","-80.0770034790039","MCKEES ROCKS","","RESIDENTIAL","","STOWE TOWNSHIP","meanRos_ug_m3","No","Undetermined","Pennsylvania","Stowe (Township of)","Suburban","SOUTH OF NEVILLE ISLAND (UPWIND)","No","Trichloroethylene","","","","0.0474373126009025","0.0487242969920633","","","","","","","","","","","","",""
"42-011-0011","Trichloroethylene","40.3833503723145","-75.9685974121094","NOT IN A CITY","","COMMERCIAL","","Reading Airport","meanRos_ug_m3","No","Undetermined","Pennsylvania","Not in a city","Suburban","Reading Airport","No","Trichloroethylene","","","","","","0.125302258862507","","","","","","","","","","","",""
"42-029-0005","Trichloroethylene","40.1913986206055","-75.5699005126953","Spring City","","RESIDENTIAL","","","meanRos_ug_m3","No","Undetermined","Pennsylvania","Not in a city","Suburban","","No","Trichloroethylene","","","","","","0.155560876012999","","","","","","","","","","","",""
"42-045-0002","Trichloroethylene","39.8355560302734","-75.3724975585938","Chester","","INDUSTRIAL","","A420450002LAT/LON POINT IS OF CORNER OF TRAILER","meanRos_ug_m3","No","Undetermined","Pennsylvania","Chester","Urban And Center City","A420450002LAT/LON POINT IS OF CORNER OF TRAILER","No","Trichloroethylene","","","","0.128328890898884","","0.172474134296201","","","","","","","","","","","",""
"42-045-0003","Trichloroethylene","39.896900177002","-75.3538970947266","Swarthmore","","RESIDENTIAL","","Swarthmore","meanRos_ug_m3","No","Undetermined","Pennsylvania","Swarthmore","Urban And Center City","Swarthmore","No","Trichloroethylene","","","","0.247632119385826","","","","","","","","","","","","","",""
"42-071-0007","Trichloroethylene","40.0466651916504","-76.283332824707","Lancaster City","","INDUSTRIAL","","A420710007LAT/LON POINT AT CORNER OF TRAILER","meanRos_ug_m3","No","Decreasing","Pennsylvania","Lancaster","Suburban","A420710007LAT/LON POINT AT CORNER OF TRAILER","No","Trichloroethylene","0.123283559721324","0.122548243718104","0.0926995358110809","0.0775590698839379","0.075578462904684","0.0828234451236877","0.0834570904120035","","","0.0509569256405393","","","","","","","",""
"42-091-0002","Trichloroethylene","40.1180992126465","-75.4113998413086","West Norriton","","RESIDENTIAL","","Evansburg State Park","meanRos_ug_m3","No","Undetermined","Pennsylvania","West Norriton","Suburban","Evansburg State Park","No","Trichloroethylene","","","","0.680372110684694","0.410153313133213","0.1313476038831","","","","","","","","","","","",""
"42-091-0005","Trichloroethylene","40.1925506591797","-75.4575424194336","Collegeville","","RESIDENTIAL","","","meanRos_ug_m3","No","Decreasing","Pennsylvania","Collegeville","Suburban","","No","Trichloroethylene","","","","","4.06034645005688","0.449773678994511","","","","","0.473346723815902","0.538854706760059","0.452917411760601","0.356833169187751","0.339586337633289","0.286540320950365","",""
"42-091-0006","Trichloroethylene","40.1833000183105","-75.434196472168","COLLEGEVILLE","","RESIDENTIAL","","Evansburg UM","meanRos_ug_m3","No","No Trend","Pennsylvania","Evansburg","Suburban","Evansburg UM","No","Trichloroethylene","","","","","","","","","","","0.154837201884275","","0.126912686675431","0.141290985842509","0.0874591598363554","0.121952239201474","",""
"42-091-0015","Trichloroethylene","40.1963996887207","-75.4657974243164","COLLEGEVILLE","","RESIDENTIAL","","","meanRos_ug_m3","No","Undetermined","Pennsylvania","Trappe","Suburban","","No","Trichloroethylene","","","","1.23229513454509","","","","","","","","","","","","","",""
"42-101-0004","Trichloroethylene","40.0088882446289","-75.0977783203125","Philadelphia","","RESIDENTIAL","","Air Management Services Laboratory (AMS LAB)","meanRos_ug_m3","No","Decreasing","Pennsylvania","Philadelphia","Urban And Center City","Air Management Services Laboratory (AMS LAB)","No","Trichloroethylene","0.276301247999072","0.304735010331962","0.219822805241301","0.176496200816629","0.140583956882411","0.0981532112520047","0.087771564723797","0.074004078379547","0.0743867252503561","0.0435106923924374","0.249997621674894","","","","","","",""
"42-101-0014","Trichloroethylene","40.049617767334","-75.2408218383789","PHILADELPHIA","","RESIDENTIAL","","Roxborough (ROX)","meanRos_ug_m3","No","Decreasing","Pennsylvania","Philadelphia","Suburban","Roxborough (ROX)","No","Trichloroethylene","0.344415209805354","0.227134199038983","0.156066032250196","0.127233247685905","0.101633201822295","0.0910253566485888","0.0771645974374535","0.0473014107517575","","","","","","","0.077160824830524","","",""
"42-101-0047","Trichloroethylene","39.944652557373","-75.1652069091797","Philadelphia","","RESIDENTIAL","","COMMUNITY HEALTH SERVICES (CHS)","meanRos_ug_m3","No","Decreasing","Pennsylvania","Philadelphia","Urban And Center City","COMMUNITY HEALTH SERVICES (CHS)","No","Trichloroethylene","0.269259559197558","0.147658699941104","0.168845380304931","0.0863189218974275","0.091755366969107","0.0719469789232405","0.0595548573862684","0.0683188790337631","","","0.0467332365730914","","","","","","",""
"42-101-0048","Trichloroethylene","39.9913902282715","-75.0808334350586","Philadelphia","","RESIDENTIAL","","LAT/LONG IS OF SAMPLING INLET","meanRos_ug_m3","No","Undetermined","Pennsylvania","Philadelphia","Urban And Center City","North East Waste (NEW)","No","Trichloroethylene","","","","","","","","","","","","","","","0.170148275698313","0.126394987593707","0.0607182775062861","0.0365187320692056"
"42-101-0055","Trichloroethylene","39.9228668212891","-75.1869201660156","PHILADELPHIA","","RESIDENTIAL","","Ritner (RIT); Philadelphia Air Toxics Study: Passive  Sampler Location 3","meanRos_ug_m3","No","Decreasing","Pennsylvania","Philadelphia","Urban And Center City","Ritner (RIT)","No","Trichloroethylene","","","0.154505427597316","0.0917829655146931","0.0840421398991842","0.0653972250485391","0.0749773901883602","0.0566174115264088","0.055452828308281","","","","","","","","",""
"42-101-0063","Trichloroethylene","39.8829383850098","-75.2196502685547","NOT IN A CITY","","INDUSTRIAL","","SW WASTE TREATMENT PLANT","meanRos_ug_m3","No","No Trend","Pennsylvania","Philadelphia","Urban And Center City","SW WASTE TREATMENT PLANT","No","Trichloroethylene","","","","","","","","0.0615524469443093","0.0474086869576638","","","","","","0.183770852571159","2.70769721743448","0.668506929345619",""
"42-101-0136","Trichloroethylene","39.9276123046875","-75.2224044799805","Philadelphia","","RESIDENTIAL","","ON AMTRAK RIGHT OF WAY - NEAR AIRPORT HI SPEED LINE (ELECTRIFIED)","meanRos_ug_m3","No","Decreasing","Pennsylvania","Philadelphia","Urban And Center City","ON AMTRAK RIGHT OF WAY - NEAR AIRPORT HI SPEED LINE (ELECTRIFIED)","No","Trichloroethylene","0.162326851176719","0.154465621657789","","0.128787749558085","0.101911501438241","0.0866594297507831","","","","","","","","","","","",""
"42-119-0001","Trichloroethylene","40.9551696777344","-76.8818893432617","Lewisburg","","RESIDENTIAL","","","meanRos_ug_m3","No","Undetermined","Pennsylvania","Not in a city","Suburban","","No","Trichloroethylene","","","","","0.227647852138501","0.174487835329055","","","","","","","","","","","",""
"44-003-0002","Trichloroethylene","41.6152381896973","-71.7200012207031","NOT IN A CITY","","UNKNOWN","","PILOT CITY: Alton Jones","meanRos_ug_m3","No","No Trend","Rhode Island","Not in a city","Unknown","AJ","No","Trichloroethylene","0.112748760790298","","","","","0.0207558581999876","0.0150027390101835","0.0101446532717426","0.010889806758028","0.0122518262716601","0.0106759451024951","0.0225910414010286","0.0238199238401699","0.0198339155883905","0.0357582344347886","0.0324133754630263","0.00775969026981519","0.00900571834442877"
"44-003-0011","Trichloroethylene","41.7366905212402","-71.4363479614258","WARWICK","","RESIDENTIAL","","Fire Station #8","meanRos_ug_m3","No","Undetermined","Rhode Island","Warwick (RR name Apponaug)","Suburban","Fire Station #8","No","Trichloroethylene","","","0.289775734224394","","","","","","","","","","","","","","",""
"44-003-0012","Trichloroethylene","41.7379684448242","-71.4144134521484","WARWICK","","RESIDENTIAL","","Lydick","meanRos_ug_m3","No","Undetermined","Rhode Island","Warwick (RR name Apponaug)","Suburban","Lydick","No","Trichloroethylene","","","0.16427364309658","","","","","","","","","","","","","","",""
"44-003-0013","Trichloroethylene","41.7055015563965","-71.3775177001953","WARWICK","","RESIDENTIAL","","Draper Avenue","meanRos_ug_m3","No","Undetermined","Rhode Island","Warwick (RR name Apponaug)","Suburban","Draper Avenue","No","Trichloroethylene","","","0.0232772517984035","","","","","","","","","","","","","","",""
"44-003-0014","Trichloroethylene","41.7054901123047","-71.4417572021484","WARWICK","","RESIDENTIAL","","Smith Street","meanRos_ug_m3","No","Undetermined","Rhode Island","Warwick (RR name Apponaug)","Suburban","Gertrude","No","Trichloroethylene","","","0.0736551849910203","","","","","","","","","","","","","","",""
"44-003-0015","Trichloroethylene","41.7158126831055","-71.4375534057617","WARWICK","","RESIDENTIAL","","Field View","meanRos_ug_m3","No","Undetermined","Rhode Island","Warwick (RR name Apponaug)","Suburban","Field View","No","Trichloroethylene","","","0.1211348269283","","","","","","","","","","","","","","",""
"44-007-0025","Trichloroethylene","41.8001708984375","-71.4163513183594","Providence","","RESIDENTIAL","","PILOT CITY: West End Comm Center","meanRos_ug_m3","No","Undetermined","Rhode Island","Providence","Suburban","109 BUCKLIN STREET","No","Trichloroethylene","0.563500163765099","","","","","","","","","","","","","","","","",""
"44-007-0026","Trichloroethylene","41.8746681213379","-71.3799743652344","Pawtucket","","RESIDENTIAL","","PILOT CITY: Vernon Street","meanRos_ug_m3","Yes","Decreasing","Rhode Island","Pawtucket","Urban And Center City","Vernon St, Pawtucket","No","Trichloroethylene","0.465443108985889","0.293751156787807","0.31847995743283","0.272864043874106","0.135132096327298","0.159333106756974","0.0880035072924537","0.0592647491938482","0.0764613684224243","","0.0532991096366958","0.0787035332806408","0.0731934979225376","0.0732618758943589","0.0588870355293201","0.0801002478612394","0.0420728059252724","0.051774688652854"
"44-007-0029","Trichloroethylene","41.816535949707","-71.4374008178711","PROVIDENCE","","RESIDENTIAL","","Bridgham School site","meanRos_ug_m3","No","Undetermined","Rhode Island","Providence","Urban And Center City","Bridgham School site","No","Trichloroethylene","","0.742290841731823","","","","","","","","","","","","","","","",""
"44-007-0030","Trichloroethylene","41.8294944763184","-71.4174575805664","Providence","","COMMERCIAL","","Near Rd","meanRos_ug_m3","No","Undetermined","Rhode Island","Providence","Urban And Center City","Near Rd","No","Trichloroethylene","","","","","","","","","","","","","","","0.028666873639893","","",""
"44-007-0031","Trichloroethylene","41.7973594665527","-71.4179306030273","Providence","","COMMERCIAL","","Providence Community Healh Center","meanRos_ug_m3","No","Undetermined","Rhode Island","Providence","Urban And Center City","Providence Community Healh Center","No","Trichloroethylene","","","","","","","","","","","","","","","0.0268456097356983","","",""
