"site_id","site","latitude","longitude","local_site_name","noaa_region","POC","statistic","val2000","val2001","val2002","val2003","val2004","val2005","val2006","val2007","val2008","val2009","val2010","val2011","val2012","val2013","val2014","val2015","val2016","val2017","val2018","val2019","val2020","val2021","val2022","val2023","val2024","trendsite_2000_2024","nyrs","region","state","cbsa","used_in_nat_agg_2000_2024","parameter_name","trend_2000_2024","beta_2000_2024","prob_2000_2024","trendsite_2010_2024","used_in_nat_agg_2010_2024","trend_2010_2024","beta_2010_2024","prob_2010_2024"
01-003-0010,010030010,30.497478001,-87.880258,"FAIRHOPE, Alabama",Southeast,0,P98V,36,21.5,22.9,29.1,27.5,26,25.7,22.4,20.2,,20,20.3,18.4,16.8,17.3,18,13.8,18.9,17.1,15.1,16.7,14.6,14.6,18,15.1,1,24,6,Alabama,"Daphne-Fairhope-Foley, AL",Yes,PM2.5,Decreasing,-0.519090909,7.2627555E-9,1,Yes,Decreasing,-0.3,0.0103953077
01-027-0001,010270001,33.284928001,-85.803608,ASHLAND,Southeast,0,P98V,43.1,28.5,27,30.5,31.4,35.5,28.7,39.7,21.2,20.7,21.7,22.3,19.8,16.3,17.2,25.1,13.1,16.8,14.8,15.1,14.2,15.9,15.4,19.6,14.7,1,25,6,Alabama,,Yes,PM2.5,Decreasing,-0.792822967,9.870597E-7,1,Yes,Decreasing,-0.4,0.0231462377
01-033-1002,010331002,34.762619001,-87.638097,MUSCLE SHOALS,Southeast,0,P98V,32.4,28.7,33.5,29.1,30.6,31.7,28.9,34.9,25.4,20.9,21.4,21.3,18.2,17.3,21.2,16.2,15.8,15.5,16.2,,,,,,,0,19,6,Alabama,"Florence-Muscle Shoals, AL",No,PM2.5,Undetermined/Insufficient Data,,,0,No,Undetermined/Insufficient Data,,
01-049-1003,010491003,34.288567001,-85.969858,CROSSVILLE,Southeast,0,P98V,50.8,31.1,31.8,31.4,33,33.1,31.7,30,26,21.1,21.5,23.4,16.8,18.6,19.2,18.5,13.4,16.9,15.8,15.1,16.6,17.8,13.5,21.2,17,1,25,6,Alabama,"Fort Payne, AL",Yes,PM2.5,Decreasing,-0.9,2.8024935E-7,1,Yes,No Trend,-0.321428571,0.0697314296
01-053-0002,010530002,31.106566823,-87.07108058,BREWTON (CLOSED 12/30/07),Southeast,0,P98V,39,23.5,25.1,29.7,29.7,28,31.5,31.1,,,,,,,,,,,,,,,,,,0,8,6,Alabama,,No,PM2.5,Undetermined/Insufficient Data,,,,,,,
01-055-0010,010550010,33.98821,-85.992556,GADSDEN C. COLLEGE,Southeast,0,P98V,50.5,,33.7,29.4,35.2,39.2,32.9,37.8,28.3,21.4,28.2,24.7,16.5,18.8,19.1,18.2,14.2,17.5,14.9,15.7,22.7,20.2,17.8,21.5,19.9,1,24,6,Alabama,"Gadsden, AL",Yes,PM2.5,Decreasing,-1.051470588,9.2693632E-6,1,Yes,No Trend,-0.114285714,0.3852478349
01-069-0002,010690002,31.228786649,-85.37548921,DOTHAN,Southeast,0,P98V,34.6,26.6,26.7,34.3,,,,,,,,,,,,,,,,,,,,,,0,4,6,Alabama,"Dothan, AL",No,PM2.5,Undetermined/Insufficient Data,,,,,,,
01-069-0003,010690003,31.224783001,-85.390789,DOTHAN (CIVIC CENTER),Southeast,0,P98V,,,,,,32.3,26.6,46.3,20.8,21,24,22,16,18.2,19.5,14.9,13,18.3,16.5,16.8,,,,,,0,15,6,Alabama,"Dothan, AL",No,PM2.5,Undetermined/Insufficient Data,,,0,No,Undetermined/Insufficient Data,,
01-073-0023,010730023,33.553056001,-86.815,North Birmingham,Southeast,0,P98V,52.5,42.8,37.6,39.1,42.3,50.3,39.6,49.4,33.5,24.4,28.7,27.9,22.6,21.9,25.5,22.8,20.2,21.7,21.4,21.3,20.3,19.1,21,20,28.6,1,25,6,Alabama,"Birmingham-Hoover, AL",Yes,PM2.5,Decreasing,-1.102941176,1.610353E-8,1,Yes,Decreasing,-0.35,0.0029507931
01-073-1005,010731005,33.331111001,-87.003611,McAdory,Southeast,0,P98V,38.1,32.9,35.7,33.7,37.3,35.5,33.9,42.1,25.8,21.3,22.7,26.2,20.8,19.6,,18.5,14.4,19.6,17.5,16,14.4,20.2,15.6,17.3,,1,23,6,Alabama,"Birmingham-Hoover, AL",Yes,PM2.5,Decreasing,-0.981092437,3.4474044E-8,1,Yes,Decreasing,-0.475,0.0041349995
01-073-1009,010731009,33.459722001,-87.305556,,Southeast,0,P98V,38.5,29.7,34.2,29.5,32.4,39.8,32.7,40.6,27.3,22.1,18.4,26.6,,,,,,,,,,,,,,0,12,6,Alabama,"Birmingham-Hoover, AL",No,PM2.5,Undetermined/Insufficient Data,,,0,No,Undetermined/Insufficient Data,,
01-073-1010,010731010,33.545278001,-86.549167,Leeds,Southeast,0,P98V,,,,,31.8,37.6,32.5,39,24.6,19.1,22.3,26.1,20.8,19,22,19.9,15.7,15.6,21.6,15.3,15.4,15.8,17.5,24.4,19.1,0,21,6,Alabama,"Birmingham-Hoover, AL",No,PM2.5,Undetermined/Insufficient Data,,,1,Yes,No Trend,-0.3,0.0842889368
01-073-2003,010732003,33.499722001,-86.924167,Wylam,Southeast,0,P98V,50.4,42.7,35.8,35.3,37.8,44.5,40.3,44.2,33.5,25.2,25.4,25.9,22.7,20.6,21.5,18.6,16.8,19.1,17,16.1,19.4,18.1,15.6,21.8,21.7,1,25,6,Alabama,"Birmingham-Hoover, AL",Yes,PM2.5,Decreasing,-1.2,1.4352418E-7,1,Yes,Decreasing,-0.485714286,0.0294979225
01-073-2006,010732006,33.386389001,-86.816667,Hoover,Southeast,0,P98V,39.9,32.2,34.4,29.9,36.1,34.3,31.9,40.2,25.9,20.4,21.6,25.5,,,,,,,,,,,,,,0,12,6,Alabama,"Birmingham-Hoover, AL",No,PM2.5,Undetermined/Insufficient Data,,,0,No,Undetermined/Insufficient Data,,
01-073-2059,010732059,33.521427486,-86.844112,Arkadelphia/Near Road,Southeast,0,P98V,,,,,,,,,,,,,,,22,23.6,21.4,21.2,22.2,19.1,25.4,19.1,19.8,20.2,23.7,0,11,6,Alabama,"Birmingham-Hoover, AL",No,PM2.5,Undetermined/Insufficient Data,,,0,No,Undetermined/Insufficient Data,,
01-073-5002,010735002,33.704722001,-86.669167,,Southeast,0,P98V,40.3,28.7,32.7,26.7,29.3,37.2,33.2,38.3,26.4,21.3,20,23.6,,,,,,,,,,,,,,0,12,6,Alabama,"Birmingham-Hoover, AL",No,PM2.5,Undetermined/Insufficient Data,,,0,No,Undetermined/Insufficient Data,,
01-073-5003,010735003,33.801667001,-86.9425,Corner,Southeast,0,P98V,39.3,32.3,33.3,28.6,34.5,41.8,33.4,38.6,30,21.3,18.3,26.6,,,,,,,,,,,,,,0,12,6,Alabama,"Birmingham-Hoover, AL",No,PM2.5,Undetermined/Insufficient Data,,,0,No,Undetermined/Insufficient Data,,
01-089-0014,010890014,34.68547,-86.58816,HUNTSVILLE OLD AIRPORT,Southeast,0,P98V,41.5,29.7,34.1,26.9,32.2,40.4,29.8,34,27.5,20.5,20.2,25.1,18.5,16.2,21.2,17.2,12.5,16.8,15.9,14.4,17.1,16.6,14.2,20.7,15,1,25,6,Alabama,"Huntsville, AL",Yes,PM2.5,Decreasing,-0.936666667,2.012533E-7,1,Yes,Decreasing,-0.366666667,0.0294979225
01-097-0002,010970002,30.766519723,-88.07572735,ST. THOMAS,Southeast,0,P98V,33.4,26.2,23.9,30.5,31.7,27.9,,,,,,,,,,,,,,,,,,,,0,6,6,Alabama,"Mobile, AL",No,PM2.5,Undetermined/Insufficient Data,,,,,,,
01-097-0003,010970003,30.770181001,-88.087761,CHICKASAW,Southeast,0,P98V,,,,28,31,29.2,28,23.7,19.9,21.6,17.8,19,17.8,17,18,19,15.7,17.4,16.9,16.6,16.3,15.5,14.8,19.2,17.1,0,22,6,Alabama,"Mobile, AL",No,PM2.5,Undetermined/Insufficient Data,,,1,Yes,Decreasing,-0.1875,0.0371674904
01-097-2005,010972005,30.474305001,-88.141022,BAY ROAD,Southeast,0,P98V,39.7,26.7,22.8,29.4,35.7,25.8,25.9,22.1,22.4,21.1,19.3,19.6,,,,,,,,,,,,,,0,12,6,Alabama,"Mobile, AL",No,PM2.5,Undetermined/Insufficient Data,,,0,No,Undetermined/Insufficient Data,,
01-101-0007,011010007,32.425969936,-86.28524719,MONTGOMERY RCC CLOSED AND RELOCATED TO MOMS ON 01/15/2009,Southeast,0,P98V,42.2,29,28.4,32.3,36.3,32,29.1,37.5,26,,,,,,,,,,,,,,,,,0,9,6,Alabama,"Montgomery, AL",No,PM2.5,Undetermined/Insufficient Data,,,,,,,
01-101-1002,011011002,32.412811001,-86.263394,"MOMS, ADEM",Southeast,0,P98V,,,,,,,,,,21.1,23.1,24.1,20.3,19.4,17.4,18.7,17,20.3,17.8,15.9,13.9,16.1,17.7,21.3,17.5,0,16,6,Alabama,"Montgomery, AL",No,PM2.5,Undetermined/Insufficient Data,,,1,Yes,Decreasing,-0.4,0.0231462377
01-103-0011,011030011,34.530717001,-86.967536,"DECATUR, Alabama",Southeast,0,P98V,,,30.9,29.5,28.7,36.1,29.3,40.3,27.3,22.4,21.1,23.9,18.2,15.8,21.1,17.4,13.3,15.5,16.3,14.4,15.3,20.7,17.9,17.2,15.2,1,23,6,Alabama,"Decatur, AL",Yes,PM2.5,Decreasing,-0.791666667,2.012533E-7,1,Yes,Decreasing,-0.3,0.0463212835
01-113-0001,011130001,32.472136001,-85.005028,PHENIX CITY,Southeast,0,P98V,41.6,33.8,35,32,40.1,38.8,29.3,53,34.3,26.7,26.3,29.5,24.2,22,20.4,17,,,,,,,,,,0,16,6,Alabama,"Columbus, GA-AL",No,PM2.5,Undetermined/Insufficient Data,,,0,No,Undetermined/Insufficient Data,,
01-113-0003,011130003,32.437028,-84.999653,PHENIX CITY - SOUTH GIRARD SCHOOL,Southeast,0,P98V,,,,,,,,,,,,,,,,,,22.2,20.8,20.7,19.4,27.6,23.6,24.5,19.5,0,8,6,Alabama,"Columbus, GA-AL",No,PM2.5,Undetermined/Insufficient Data,,,0,No,Undetermined/Insufficient Data,,
01-117-0006,011170006,33.312926505,-86.821104,PELHAM,Southeast,0,P98V,39.1,29.6,32.7,30.8,35.6,32.9,30,39.7,24.8,21.2,20,25,18.2,17.3,20.4,,,,,,,,,,,0,15,6,Alabama,"Birmingham-Hoover, AL",No,PM2.5,Undetermined/Insufficient Data,,,0,No,Undetermined/Insufficient Data,,
01-119-0002,011190002,32.364009942,-88.20186465,GASTON (SUMTER),Southeast,0,P98V,37.2,27,25.5,31.3,28.7,26.7,,,,,,,,,,,,,,,,,,,,0,6,6,Alabama,,No,PM2.5,Undetermined/Insufficient Data,,,,,,,
01-119-0003,011190003,32.362606001,-88.277992,"Ward, Sumter Co.",Southeast,0,P98V,,,,,,,,,,,,,,,,,,,,,,15.4,14.5,18,14.5,0,4,6,Alabama,,No,PM2.5,Undetermined/Insufficient Data,,,0,No,Undetermined/Insufficient Data,,
01-121-0002,011210002,33.279470001,-86.349438,CHILDERSBURG,Southeast,0,P98V,44.7,31.1,30.4,31,35.4,34,,34.5,28.5,23.9,20.9,24.9,20.6,16.8,18.5,21.6,13.9,18.8,,,,,,,,0,17,6,Alabama,"Talladega-Sylacauga, AL",No,PM2.5,Undetermined/Insufficient Data,,,0,No,Undetermined/Insufficient Data,,
01-125-0003,011250003,33.217062271,-87.53889497,TUSC. (CLOSED),Southeast,0,P98V,38.3,,,,,,,,,,,,,,,,,,,,,,,,,0,1,6,Alabama,"Tuscaloosa, AL",No,PM2.5,Undetermined/Insufficient Data,,,,,,,
01-125-0004,011250004,33.189931001,-87.484189,"VA, TUSCALOOSA",Southeast,0,P98V,,,,33.7,31.5,31.3,27.6,35.9,22.9,22.7,24.9,27.7,19.2,19.9,20.1,17.1,13.2,18.4,17,15.4,16.6,19.6,16.8,,,0,20,6,Alabama,"Tuscaloosa, AL",No,PM2.5,Undetermined/Insufficient Data,,,1,Yes,Decreasing,-0.366666667,0.0077554116
01-125-0011,011250011,33.095379,-87.481507,"Duncanville Middle School, Duncanville (Tuscaloosa) Alabama",Southeast,0,P98V,,,,,,,,,,,,,,,,,,,,,,,,20.8,15,0,2,6,Alabama,"Tuscaloosa, AL",No,PM2.5,Undetermined/Insufficient Data,,,0,No,Undetermined/Insufficient Data,,
01-127-0002,011270002,33.832885387,-87.27250524,JASPER,Southeast,0,P98V,,,,31.5,31.8,33.2,34.9,35.1,24.3,22.1,18.8,25.3,,,,,,,,,,,,,,0,9,6,Alabama,"Birmingham-Hoover, AL",No,PM2.5,Undetermined/Insufficient Data,,,0,No,Undetermined/Insufficient Data,,
02-020-0018,020200018,61.205861001,-149.824602,GARDEN/TRINITY CHRISTIAN CHURCH,None,0,P98V,12.2,20,15.8,16,31.9,17.9,26.9,14.5,17.3,24.6,23.9,17.3,28.4,15.7,19.2,18.4,16.1,26.9,17.7,42.2,22.2,18.7,24,14.2,16.8,1,25,0,Alaska,"Anchorage, AK",Yes,PM2.5,No Trend,0.09375,0.2815392864,1,Yes,No Trend,-0.17,0.3485907127
02-020-0044,020200044,61.181083001,-149.817389,ON THE ROOF OF THE ALLSTATE BUILDING,None,0,P98V,20.2,16.3,18.2,,,,,,,,,,,,,,,,,,,,,,,0,3,0,Alaska,"Anchorage, AK",No,PM2.5,Undetermined/Insufficient Data,,,,,,,
02-020-0052,020200052,61.215027001,-149.903111,DHHS,None,0,P98V,,,,,,,,,,15.3,17.2,11.6,16.7,,,,,,,,,,,,,0,4,0,Alaska,"Anchorage, AK",No,PM2.5,Undetermined/Insufficient Data,,,0,No,Undetermined/Insufficient Data,,
02-020-1004,020201004,61.326700001,-149.569707,PARKGATE/EAGLE RIVER,None,0,P98V,,,,,,,,,,22.4,17,15.7,17.9,15,14.7,17.2,13.8,15.4,14.4,,,,,,,0,10,0,Alaska,"Anchorage, AK",No,PM2.5,Undetermined/Insufficient Data,,,0,No,Undetermined/Insufficient Data,,
02-068-0003,020680003,63.7232,-148.9676,Denali NP,None,0,P98V,,5.2,14.2,,,,,,,,,,,,,,,,,,,,,,,0,2,0,Alaska,,No,PM2.5,Undetermined/Insufficient Data,,,,,,,
02-090-0010,020900010,64.840672025,-147.7224613,STATE OFFICE BUILDING,None,0,P98V,63.5,43.4,43.4,32.7,468.6,,42.2,33.1,46.7,89.7,51.8,38,49.6,39.4,34.5,57.1,39.7,38,27.5,,,,,,,0,18,0,Alaska,"Fairbanks, AK",No,PM2.5,Undetermined/Insufficient Data,,,0,No,Undetermined/Insufficient Data,,
02-090-0029,020900029,64.846505683,-147.6924611,,None,0,P98V,,,,,,,,,55.5,,,,,,,,,,,,,,,,,0,1,0,Alaska,"Fairbanks, AK",No,PM2.5,Undetermined/Insufficient Data,,,,,,,
02-090-0033,020900033,64.752336,-147.347208,NORTH POLE ELEMENTARY SCHOOL,None,0,P98V,,,,,,,,,,114,53,,68.1,,,,,,,,,,,,,0,3,0,Alaska,"Fairbanks, AK",No,PM2.5,Undetermined/Insufficient Data,,,0,No,Undetermined/Insufficient Data,,
02-090-0034,020900034,64.84569,-147.727413,NCORE,None,0,P98V,,,,,,,,,,,50.7,33.1,50,52.7,31.6,60,30.3,34.9,26.2,60,26.6,27.5,76.3,30.7,35.8,0,15,0,Alaska,"Fairbanks, AK",No,PM2.5,Undetermined/Insufficient Data,,,1,Yes,No Trend,-0.56,0.3485907127
02-090-0035,020900035,64.762641,-147.310279,North Pole Fire Station #3,None,0,P98V,,,,,,,,,,,,,158.4,,,111.6,66.8,75.5,52.8,78.3,71.4,65.5,72.5,62.5,57.3,0,11,0,Alaska,"Fairbanks, AK",No,PM2.5,Undetermined/Insufficient Data,,,0,No,Undetermined/Insufficient Data,,
02-090-0040,020900040,64.845930001,-147.69327,A Street,None,0,P98V,,,,,,,,,,,,,,,,,,,,,36.1,,84.2,34.4,35.9,0,4,0,Alaska,"Fairbanks, AK",No,PM2.5,Undetermined/Insufficient Data,,,0,No,Undetermined/Insufficient Data,,
02-110-0004,021100004,58.388497124,-134.5672365,Floyd Dryden Middle School,None,0,P98V,24.1,25.9,19.8,,26.1,35.4,33,39.6,30.2,29,27.3,24.8,23.5,22.7,27.5,21,23.9,22.4,22.1,24.9,17.2,17,22.1,15.9,16.9,1,24,0,Alaska,"Juneau, AK",Yes,PM2.5,Decreasing,-0.472727273,0.0003361551,1,Yes,Decreasing,-0.690909091,0.0006429304
02-110-0026,021100026,58.358874631,-134.5104265,THE SAMPLERS ARE LOCATED ON THE ROOF OF AN EIGHT FOOT TALL SHED,None,0,P98V,19.6,,,,,,,,,,,,,,,,,,,,,,,,,0,1,0,Alaska,"Juneau, AK",No,PM2.5,Undetermined/Insufficient Data,,,,,,,
02-122-0008,021220008,60.48916667,-151.0693,"Kenai Peninsula Borough Building site, Soldotna",None,0,P98V,,,,,,,,,,,,,7.4,,,,,,,,,,,,,0,1,0,Alaska,,No,PM2.5,Undetermined/Insufficient Data,,,0,No,Undetermined/Insufficient Data,,
02-170-0004,021700004,61.532508092,-150.2522289,,None,0,P98V,,12,9.9,,,,,,,,,,,,,,,,,,,,,,,0,2,0,Alaska,"Anchorage, AK",No,PM2.5,Undetermined/Insufficient Data,,,,,,,
02-170-0008,021700008,61.534163,-149.031655,BUTTE,None,0,P98V,27.8,29.3,34.6,30.3,,25.2,40,20.1,30.8,,37.5,30.2,33.4,27.9,39.5,37.9,29.2,29.7,19.2,27.7,24,21.2,21.2,17.5,,1,22,0,Alaska,"Anchorage, AK",Yes,PM2.5,Decreasing,-0.478362573,0.0075081487,1,Yes,Decreasing,-1.4,0.00009995
02-170-0010,021700010,61.52275,-149.083639,,None,0,P98V,,,,,,,,,,,,,,,,,,,,,,,,,16.2,0,1,0,Alaska,"Anchorage, AK",No,PM2.5,Undetermined/Insufficient Data,,,0,No,Undetermined/Insufficient Data,,
02-170-0012,021700012,61.598897649,-149.1062196,Palmer,None,0,P98V,,,,,,,,,,,11.6,9.1,13.7,11.1,10.3,9.9,9.2,11.1,8.5,,,,,,,0,9,0,Alaska,"Anchorage, AK",No,PM2.5,Undetermined/Insufficient Data,,,0,No,Undetermined/Insufficient Data,,
02-170-0013,021700013,61.598795943,-149.455255,Wasilla,None,0,P98V,,,,,,,,,,,,15.1,22.8,16,18.5,,,,,,,,,,,0,4,0,Alaska,"Anchorage, AK",No,PM2.5,Undetermined/Insufficient Data,,,0,No,Undetermined/Insufficient Data,,
02-232-0002,022320002,59.46008,-135.31053,SKAGWAY CITY SITE,None,0,P98V,,,,,33.5,,,,,,,,,,,,,,,,,,,,,0,1,0,Alaska,,No,PM2.5,Undetermined/Insufficient Data,,,,,,,
04-001-1235,040011235,35.880403811,-109.4380032,Nazlini,Southwest,0,P98V,,,,,,,,,,13.4,6.2,,,,7.3,,,6.7,7.5,7.1,12.5,,8.1,5.7,,0,9,7,Arizona,,No,PM2.5,Undetermined/Insufficient Data,,,0,No,Undetermined/Insufficient Data,,
04-003-1005,040031005,31.3492,-109.539683,DOUGLAS RED CROSS,Southwest,0,P98V,38.5,,13.9,,22.5,16,14,10.7,13.6,13.5,13.5,13,12.1,12.2,15.9,10.5,9.1,14,12,9.7,,,,,,0,18,7,Arizona,"Sierra Vista-Douglas, AZ",No,PM2.5,Undetermined/Insufficient Data,,,0,No,Undetermined/Insufficient Data,,
04-005-1008,040051008,35.206111,-111.652777,FLAGSTAFF MIDDLE SCHOOL,Southwest,0,P98V,24.5,,,,20.7,12.7,13.7,30.2,10.3,17.3,10.4,14,11.9,10.2,,,,,,,,,,,,0,11,7,Arizona,"Flagstaff, AZ",No,PM2.5,Undetermined/Insufficient Data,,,0,No,Undetermined/Insufficient Data,,
04-007-0008,040070008,34.229733,-111.3295,PAYSON WELL SITE,Southwest,0,P98V,27.3,24,21.2,23.1,19.3,22.9,23.4,21.9,,,,,,,,,,,,,,,,,,0,8,7,Arizona,"Payson, AZ",No,PM2.5,Undetermined/Insufficient Data,,,,,,,
04-012-8000,040128000,34.2439,-113.5586,ALAMO LAKE,Southwest,0,P98V,,,,,,,,,,,,,,,8.2,6.8,10.2,10.5,11.3,7,10.9,10.5,12.2,9.7,10.2,0,11,7,Arizona,,No,PM2.5,Undetermined/Insufficient Data,,,0,No,Undetermined/Insufficient Data,,
04-013-0019,040130019,33.483780001,-112.14256,WEST PHOENIX,Southwest,0,P98V,,30.4,36.2,25.9,31.5,40.5,28.8,27.2,24.3,29.4,21.8,30.5,26.1,28.5,28.3,27.5,23.8,30.2,30.6,23.4,33.9,26,33,31.7,32.2,1,24,7,Arizona,"Phoenix-Mesa-Scottsdale, AZ",Yes,PM2.5,No Trend,0.0073232323,0.4907841088,1,Yes,Increasing,0.425,0.0371674904
04-013-1003,040131003,33.410180001,-111.86536,MESA,Southwest,0,P98V,,,,,,,20.1,18.3,14.5,17.2,11.8,20.4,,12.8,19.4,16.6,14,19,19.1,11.1,17.4,18.1,16.7,14.8,18.8,0,18,7,Arizona,"Phoenix-Mesa-Scottsdale, AZ",No,PM2.5,Undetermined/Insufficient Data,,,1,Yes,No Trend,0.0142857143,0.4612850452
04-013-1004,040131004,33.560310001,-112.06619,NORTH PHOENIX,Southwest,0,P98V,,,,,,,,,,,,,21.2,17.2,20.3,17.8,16.3,18.9,18.7,14.5,18.4,16.2,21.5,17.6,20,0,13,7,Arizona,"Phoenix-Mesa-Scottsdale, AZ",No,PM2.5,Undetermined/Insufficient Data,,,1,Yes,No Trend,-0.22,0.1197294078
04-013-2001,040132001,33.574530001,-112.19193,GLENDALE,Southwest,0,P98V,,,,,,,,,,,,,18.6,16.6,18.6,18.9,17.7,16.7,19.5,15.1,19,17.8,19.1,22.9,19,0,13,7,Arizona,"Phoenix-Mesa-Scottsdale, AZ",No,PM2.5,Undetermined/Insufficient Data,,,1,Yes,No Trend,0.0416666667,0.1009214121
04-013-4003,040134003,33.403140001,-112.07526,SOUTH PHOENIX,Southwest,0,P98V,,,,,,36.4,28.8,29.2,22.7,34.5,24,27.2,20.9,25.8,26.5,27.7,22.8,25,27.8,21.4,34.1,30.5,29.5,26,29.5,0,20,7,Arizona,"Phoenix-Mesa-Scottsdale, AZ",No,PM2.5,Undetermined/Insufficient Data,,,1,Yes,Increasing,0.3928571429,0.0371674904
04-013-4005,040134005,33.411230001,-111.93471,TEMPE,Southwest,0,P98V,,,,,,,,,,,,,19.5,17.9,17.4,,14.9,16.2,16.3,11.9,15.6,21.9,17.1,16.1,17.7,0,12,7,Arizona,"Phoenix-Mesa-Scottsdale, AZ",No,PM2.5,Undetermined/Insufficient Data,,,1,Yes,No Trend,-0.2,0.0842889368
04-013-4019,040134019,33.396230001,-111.96799,Diablo,Southwest,0,P98V,,,,,,,,,,,,,,,,17,16.6,21.3,21.9,13.7,,,,,,0,5,7,Arizona,"Phoenix-Mesa-Scottsdale, AZ",No,PM2.5,Undetermined/Insufficient Data,,,0,No,Undetermined/Insufficient Data,,
04-013-4020,040134020,33.461730001,-112.12796,Thirty-Third,Southwest,0,P98V,,,,,,,,,,,,,,,,,,,,,36.7,,,,,0,1,7,Arizona,"Phoenix-Mesa-Scottsdale, AZ",No,PM2.5,Undetermined/Insufficient Data,,,0,No,Undetermined/Insufficient Data,,
04-013-4021,040134021,33.41046,-112.00264,Eastwood,Southwest,0,P98V,,,,,,,,,,,,,,,,,,,,,,16.2,17.7,16.1,18.9,0,4,7,Arizona,"Phoenix-Mesa-Scottsdale, AZ",No,PM2.5,Undetermined/Insufficient Data,,,0,No,Undetermined/Insufficient Data,,
04-013-7020,040137020,33.488130785,-111.8554428,Senior Center Air Monitoring Station,Southwest,0,P98V,,,,,,,15.5,13.5,14.7,10.5,9.1,10.8,,10.5,11,8.2,21.5,14.9,14.7,10.1,17.3,13.6,14.4,13.3,12,0,18,7,Arizona,"Phoenix-Mesa-Scottsdale, AZ",No,PM2.5,Undetermined/Insufficient Data,,,1,Yes,No Trend,0.28,0.1197294078
04-013-9812,040139812,33.426500001,-112.11821,DURANGO COMPLEX,Southwest,0,P98V,,,,,,,,,,,,31.2,24.9,27.2,24.1,27.1,22.7,30.6,25.7,21.7,28.8,27.2,28,31.7,32.9,0,14,7,Arizona,"Phoenix-Mesa-Scottsdale, AZ",No,PM2.5,Undetermined/Insufficient Data,,,1,Yes,No Trend,0.1307692308,0.2475254263
04-013-9990,040139990,33.39166,-111.926388,TEMPE COMMUNITY CENTER,Southwest,0,P98V,20.2,22.7,21.6,25,,,,,,,,,,,,,,,,,,,,,,0,4,7,Arizona,"Phoenix-Mesa-Scottsdale, AZ",No,PM2.5,Undetermined/Insufficient Data,,,,,,,
04-013-9992,040139992,33.476111,-112.199722,DESERT WEST,Southwest,0,P98V,34.1,35.3,,,,,,,,,,,,,,,,,,,,,,,,0,2,7,Arizona,"Phoenix-Mesa-Scottsdale, AZ",No,PM2.5,Undetermined/Insufficient Data,,,,,,,
04-013-9997,040139997,33.503833,-112.095767,JLG SUPERSITE,Southwest,0,P98V,32.1,25,31.9,24.2,27.6,28.2,24.6,23.5,17.8,24,15.9,27,19,21.6,22.5,23.2,19.4,20.7,23.7,19.9,25,19.4,22.5,19.3,23.2,1,25,7,Arizona,"Phoenix-Mesa-Scottsdale, AZ",Yes,PM2.5,Decreasing,-0.28,0.0027062737,1,Yes,No Trend,0.1,0.3485907127
04-015-1000,040151000,35.540017125,-113.410782,Peach Springs,Southwest,0,P98V,,,,,,,20.4,27,,,,,,,,,,,,,,,,,,0,2,7,Arizona,"Lake Havasu City-Kingman, AZ",No,PM2.5,Undetermined/Insufficient Data,,,,,,,
04-019-0011,040190011,32.322661419,-111.0383893,ORANGE GROVE,Southwest,0,P98V,12.8,20.4,16.7,13.7,12.4,12,11.2,13.6,11.7,10.8,10.1,12,12.5,12.2,20.3,,19.2,17.3,12.2,8.5,11.8,13.9,13.1,12,14.6,1,24,7,Arizona,"Tucson, AZ",Yes,PM2.5,No Trend,-0.022222222,0.3644105665,1,Yes,No Trend,0,0.5
04-019-1028,040191028,32.29515,-110.9823,CHILDREN'S PARK NCore,Southwest,0,P98V,11.1,15.1,20.2,13.2,10.3,10.7,12.1,12,11.7,12,11.5,13.1,10.4,15.5,12.5,10.4,10.6,16.1,10.5,8.2,14.2,11,12.7,14.2,12.5,1,25,7,Arizona,"Tucson, AZ",Yes,PM2.5,No Trend,-0.010795455,0.4357572029,1,Yes,No Trend,0.0333333333,0.3852478349
04-019-1036,040191036,32.194671,-111.033167,Ted Walker Park,Southwest,0,P98V,,,,,,,,,,,,,,,,,,,,,,,,15.7,19.1,0,2,7,Arizona,"Tucson, AZ",No,PM2.5,Undetermined/Insufficient Data,,,0,No,Undetermined/Insufficient Data,,
04-021-0001,040210001,32.877583001,-111.752222,CASA GRANDE DOWNTOWN,Southwest,0,P98V,18.9,16.7,20.8,26.7,13.7,16.9,15.4,22.4,22,17.3,21.4,22.3,18.5,16.6,16.8,16.8,16.8,23.3,24.5,13.9,19.8,15.9,14.2,14.7,18.4,1,25,7,Arizona,"Phoenix-Mesa-Scottsdale, AZ",Yes,PM2.5,No Trend,-0.116025641,0.1593746761,1,Yes,No Trend,-0.288888889,0.1009214121
04-021-3002,040213002,33.421194001,-111.503222,APACHE JUNCTION FIRE STATION,Southwest,0,P98V,18,13.1,13.1,21.1,10.3,10.6,9.3,14.6,15.4,11.9,11.9,41.9,14,12.5,11.8,8.6,11.8,12.8,11.2,7.6,12.4,11.5,11.2,9.7,10.5,1,25,7,Arizona,"Phoenix-Mesa-Scottsdale, AZ",Yes,PM2.5,Decreasing,-0.15952381,0.0049282981,1,Yes,Decreasing,-0.25,0.005704958
04-021-3013,040213013,33.010530001,-111.97205,COWTOWN,Southwest,0,P98V,,,,,,,48.9,53.9,40.7,24,27.1,27.2,29.3,41.8,37.1,22.6,,,,,,,,,,0,10,7,Arizona,"Phoenix-Mesa-Scottsdale, AZ",No,PM2.5,Undetermined/Insufficient Data,,,0,No,Undetermined/Insufficient Data,,
04-021-3015,040213015,32.884761,-112.03705,HIDDEN VALLEY,Southwest,0,P98V,,,,,,,,,,,,,,,,,34,38.2,34.4,30.4,41.4,35.6,26.7,25.5,27,0,9,7,Arizona,"Phoenix-Mesa-Scottsdale, AZ",No,PM2.5,Undetermined/Insufficient Data,,,0,No,Undetermined/Insufficient Data,,
04-023-0004,040230004,31.337204,-110.936718,NOGALES POST OFFICE,Southwest,0,P98V,34.4,25.7,25.4,35,25.1,33,56.2,28.2,35.8,29.7,31.6,27.2,25.9,27.2,29,27.2,26,30.3,21.8,24.7,32.2,30.3,28.2,25.6,34.9,1,25,7,Arizona,"Nogales, AZ",Yes,PM2.5,No Trend,-0.129166667,0.2365226508,1,Yes,No Trend,0.06,0.3852478349
04-025-2002,040252002,34.595,-112.331,PRESCOTT VALLEY,Southwest,0,P98V,,,,,,,,,12.4,13.1,6.8,10.2,10.8,8.4,,,,,,,,,,,,0,6,7,Arizona,"Prescott, AZ",No,PM2.5,Undetermined/Insufficient Data,,,0,No,Undetermined/Insufficient Data,,
04-027-0004,040270004,32.677001,-114.648905,YUMA COURTHOUSE,Southwest,0,P98V,,,,,,,,,21.1,15.4,,,,,,,,,,,,,,,,0,2,7,Arizona,"Yuma, AZ",No,PM2.5,Undetermined/Insufficient Data,,,,,,,
04-027-8011,040278011,32.690278,-114.61444,YUMA SUPERSITE,Southwest,0,P98V,,,,,,,,,,,13.5,15.6,15.8,17,22.9,14.7,23,19.6,25.7,15.9,22.6,19,23,21.7,17.2,0,15,7,Arizona,"Yuma, AZ",No,PM2.5,Undetermined/Insufficient Data,,,1,Yes,Increasing,0.3555555556,0.0371674904
05-001-0011,050010011,34.518514843,-91.5589605,STUTTGART,South,0,P98V,,,31.2,24.9,26.1,36.3,23.9,28.7,27.4,21.1,23.4,22.2,18.5,22.1,22.4,19.7,17.6,16.3,18.8,19.1,17.3,20.6,16.8,20.4,24.6,1,23,5,Arkansas,,Yes,PM2.5,Decreasing,-0.526538462,9.2693632E-6,1,Yes,No Trend,-0.17,0.189725198
05-003-0005,050030005,33.139471117,-91.93920761,CROSSETT,South,0,P98V,,,30.2,24.5,24.7,39.7,28.3,29.2,24.7,18.6,21.1,28.9,21.3,21.2,22.7,18,19.5,18.7,21.1,17.4,17.8,14.7,17,19.9,20.9,1,23,5,Arkansas,,Yes,PM2.5,Decreasing,-0.55,1.7857145E-6,1,Yes,Decreasing,-0.4,0.0103953077
05-031-0001,050310001,35.838685634,-90.70872354,,South,0,P98V,27.9,28.6,31.5,29.2,,,,,,,,,,,,,,,,,,,,,,0,4,5,Arkansas,"Jonesboro, AR",No,PM2.5,Undetermined/Insufficient Data,,,,,,,
05-035-0004,050350004,35.147590729,-90.1764832,,South,0,P98V,36.4,28.4,28.4,35.4,28.7,,,,,,,,,,,,,,,,,,,,,0,5,5,Arkansas,"Memphis, TN-MS-AR",No,PM2.5,Undetermined/Insufficient Data,,,,,,,
05-035-0005,050350005,35.197287632,-90.19314077,MARION,South,0,P98V,,,,,,39.9,31.2,34.4,26.5,21.8,22.7,22.1,24.7,21.9,24.7,18.3,17.3,13.7,19.7,18,17.2,18.4,18.3,19.1,17.2,0,20,5,Arkansas,"Memphis, TN-MS-AR",No,PM2.5,Undetermined/Insufficient Data,,,1,Yes,Decreasing,-0.392857143,0.0137476326
05-045-0002,050450002,35.105193,-92.427859,CONWAY,South,0,P98V,,29.6,29.5,28.7,25.7,37.4,25.1,26.4,23.5,20.6,18.5,21.4,,,,,,,,,,,,,,0,11,5,Arkansas,"Little Rock-North Little Rock-Conway, AR",No,PM2.5,Undetermined/Insufficient Data,,,0,No,Undetermined/Insufficient Data,,
05-051-0002,050510002,34.510367371,-93.05434647,,South,0,P98V,27.1,27,29.2,,,,,,,,,,,,,,,,,,,,,,,0,3,5,Arkansas,"Hot Springs, AR",No,PM2.5,Undetermined/Insufficient Data,,,,,,,
05-051-0003,050510003,34.469441081,-93.0001781,HOT SPRINGS,South,0,P98V,,,,26.5,28.6,35.4,24.6,32.5,23.4,22.8,21.3,27.1,22.4,20.3,21.3,19.3,16,17.9,21,19.9,19.1,22.7,22.5,17.8,20.7,0,22,5,Arkansas,"Hot Springs, AR",No,PM2.5,Undetermined/Insufficient Data,,,1,Yes,No Trend,-0.171428571,0.1641167938
05-067-0001,050670001,35.637282782,-91.18890596,NEWPORT,South,0,P98V,,,,,,,25.4,31.3,26.3,19.7,26.8,23.5,21.9,24.3,25.1,18.1,23.6,18.9,21,22.4,22,26.3,23.8,22.5,23.4,0,19,5,Arkansas,,No,PM2.5,Undetermined/Insufficient Data,,,1,Yes,No Trend,-0.045454545,0.4229205212
05-069-0005,050690005,34.220098017,-92.00097277,,South,0,P98V,26.8,,,,,,,,,,,,,,,,,,,,,,,,,0,1,5,Arkansas,"Pine Bluff, AR",No,PM2.5,Undetermined/Insufficient Data,,,,,,,
05-069-0006,050690006,34.190931229,-92.05853076,GROUND LEVEL,South,0,P98V,,,33.1,25.2,,,,,,,,,,,,,,,,,,,,,,0,2,5,Arkansas,"Pine Bluff, AR",No,PM2.5,Undetermined/Insufficient Data,,,,,,,
05-089-0001,050890001,36.084239252,-92.58683006,,South,0,P98V,23.9,22.1,20.6,,,,,,,,,,,,,,,,,,,,,,,0,3,5,Arkansas,,No,PM2.5,Undetermined/Insufficient Data,,,,,,,
05-091-0004,050910004,33.427625056,-94.04102097,BEHIND BUILDING AT 305 E. 6TH,South,0,P98V,,27.4,33.6,,,,,,,,,,,,,,,,,,,,,,,0,2,5,Arkansas,"Texarkana, TX-AR",No,PM2.5,Undetermined/Insufficient Data,,,,,,,
05-093-0007,050930007,35.929240236,-89.90091893,FIRESTATION,South,0,P98V,,30.5,33.2,27.3,25.3,38.4,,,,,,,,,,,,,,,,,,,,0,5,5,Arkansas,"Blytheville, AR",No,PM2.5,Undetermined/Insufficient Data,,,,,,,
05-107-0001,051070001,34.529765549,-90.58604896,HELENA,South,0,P98V,30,29.1,29.7,29.9,26.3,34.6,24.2,30.5,28.7,18.2,20.5,23.1,,,,,,,,,,,,,,0,12,5,Arkansas,"Helena-West Helena, AR",No,PM2.5,Undetermined/Insufficient Data,,,0,No,Undetermined/Insufficient Data,,
05-113-0002,051130002,34.583698588,-94.22623447,MENA,South,0,P98V,26.3,25.5,28.9,22.7,22.9,29.9,23.8,29.4,21.7,20.4,21.6,22.2,22.6,22.6,22,17.7,19.5,16.7,19.7,17.2,20.8,21.9,20.7,18.2,18.7,1,25,5,Arkansas,,Yes,PM2.5,Decreasing,-0.318333333,0.0000154155,1,Yes,No Trend,-0.2,0.0571235862
05-115-0003,051150003,35.259775016,-93.10004987,RUSSELLVILLE,South,0,P98V,28.9,28,30.2,22.8,25.1,34.5,25.6,27.2,24.6,23,21.7,23.7,,,,,,,,,,,,,,0,12,5,Arkansas,"Russellville, AR",No,PM2.5,Undetermined/Insufficient Data,,,0,No,Undetermined/Insufficient Data,,
05-119-0007,051190007,34.756188804,-92.28129586,PARR,South,0,P98V,33.5,32,31.9,26.1,28,39.3,25.5,29.5,25.6,22.8,22.2,24.9,22.6,20.7,21.9,20.4,19.2,18,20.7,18.5,17.7,20.9,19.7,22.5,23.4,1,25,5,Arkansas,"Little Rock-North Little Rock-Conway, AR",Yes,PM2.5,Decreasing,-0.561904762,9.870597E-7,1,Yes,No Trend,-0.1875,0.189725198
05-119-1004,051191004,34.729603427,-92.24358667,ADAMS FIELD,South,0,P98V,,32.7,32.5,29.1,30.4,37.7,25.1,34.2,29.4,24.2,22.8,25.8,25.8,28.6,22.1,21.4,,,,,,,,,,0,15,5,Arkansas,"Little Rock-North Little Rock-Conway, AR",No,PM2.5,Undetermined/Insufficient Data,,,0,No,Undetermined/Insufficient Data,,
05-119-1005,051191005,34.676268,-92.337164,ADEQ,South,0,P98V,,,,24.9,29.6,40,27.4,,,,,,,,,,,,,,,,,,,0,4,5,Arkansas,"Little Rock-North Little Rock-Conway, AR",No,PM2.5,Undetermined/Insufficient Data,,,,,,,
05-119-1008,051191008,34.681343363,-92.32869716,DOYLE SPRINGS ROAD,South,0,P98V,31.7,32.4,31.7,,,,,27.9,26.7,25.7,23.2,26.3,28.5,25,25.4,21.8,21.1,23.1,22.6,23.5,24.1,24.8,29.5,22.1,28.2,0,21,5,Arkansas,"Little Rock-North Little Rock-Conway, AR",No,PM2.5,Undetermined/Insufficient Data,,,1,Yes,No Trend,0.0375,0.4612850452
05-131-0008,051310008,35.389672114,-94.42428764,FT. SMITH,South,0,P98V,27.3,29.5,26.2,23,25.1,,22.7,29.2,21.7,22.8,23.7,,,,,,,,,,,,,,,0,10,5,Arkansas,"Fort Smith, AR-OK",No,PM2.5,Undetermined/Insufficient Data,,,0,No,Undetermined/Insufficient Data,,
05-139-0004,051390004,33.214018772,-92.66876743,,South,0,P98V,31.4,,,,,,,,,,,,,,,,,,,,,,,,,0,1,5,Arkansas,"El Dorado, AR",No,PM2.5,Undetermined/Insufficient Data,,,,,,,
05-139-0006,051390006,33.22056253,-92.67226274,EL DORADO,South,0,P98V,,,,,23.9,39.5,25.3,28.4,22.4,21.8,23.4,24.2,25.5,20.6,21,21.3,17.5,18.5,25.4,18.9,21.8,20,26.8,20.2,24.3,0,21,5,Arkansas,"El Dorado, AR",No,PM2.5,Undetermined/Insufficient Data,,,1,Yes,No Trend,-0.016666667,0.5
05-143-0003,051430003,36.052023662,-94.1627043,,South,0,P98V,31.4,25,25.8,,,,,,,,,,,,,,,,,,,,,,,0,3,5,Arkansas,"Fayetteville-Springdale-Rogers, AR-MO",No,PM2.5,Undetermined/Insufficient Data,,,,,,,
05-143-0004,051430004,36.045830797,-94.16918253,FAYETTEVILLE,South,0,P98V,,,,23,19.9,,,,,,,,,,,,,,,,,,,,,0,2,5,Arkansas,"Fayetteville-Springdale-Rogers, AR-MO",No,PM2.5,Undetermined/Insufficient Data,,,,,,,
05-143-0005,051430005,36.179700045,-94.11682738,SPRINGDALE,South,0,P98V,,,,,,,,,20.3,23.2,23,24.2,20,19.6,21.2,17.4,18.4,15.1,24.5,18.9,16.2,21.6,19.8,18.7,19.2,0,17,5,Arkansas,"Fayetteville-Springdale-Rogers, AR-MO",No,PM2.5,Undetermined/Insufficient Data,,,1,Yes,No Trend,-0.26,0.1197294078
05-145-0001,051450001,35.24894009,-91.71559649,SEARCY,South,0,P98V,,27.6,28.4,21.3,26.6,39.2,23,31.1,25.6,22.2,20.9,22.2,,,,,,,,,,,,,,0,11,5,Arkansas,"Searcy, AR",No,PM2.5,Undetermined/Insufficient Data,,,0,No,Undetermined/Insufficient Data,,
06-001-0007,060010007,37.687526,-121.784217,Livermore,West,0,P98V,49.7,77.7,51.6,27.1,38.1,29.2,49.7,49.2,34.5,33.6,28.4,27,22.2,32.3,25.3,26.5,16.2,31.3,72.2,17.6,59.1,23.1,20.1,22.3,,1,24,8,California,"San Francisco-Oakland-Hayward, CA",Yes,PM2.5,Decreasing,-0.946616541,0.0004914912,1,Yes,No Trend,-0.38,0.2175594555
06-001-0009,060010009,37.743065,-122.169935,Oakland,West,0,P98V,,,,,,,,,25.9,24.7,21.7,28,21.5,27.6,23.6,24.8,14.2,32.4,81.7,17,46.7,19.4,20.6,17.9,,0,16,8,California,"San Francisco-Oakland-Hayward, CA",No,PM2.5,Undetermined/Insufficient Data,,,1,Yes,No Trend,-0.327272727,0.189725198
06-001-0011,060010011,37.814781,-122.282347,Oakland West,West,0,P98V,,,,,,,,,,,,,,30,25.7,29.9,19.2,34.7,80.9,18.7,42.2,20.8,23,20.3,,0,11,8,California,"San Francisco-Oakland-Hayward, CA",No,PM2.5,Undetermined/Insufficient Data,,,0,No,Undetermined/Insufficient Data,,
06-001-0012,060010012,37.793624,-122.263376,Laney College,West,0,P98V,,,,,,,,,,,,,,,19.1,27.9,17.7,36.3,82.4,16.5,35.2,21.5,23.6,22.7,,0,10,8,California,"San Francisco-Oakland-Hayward, CA",No,PM2.5,Undetermined/Insufficient Data,,,0,No,Undetermined/Insufficient Data,,
06-001-0013,060010013,37.864767001,-122.302741,Berkeley- Aquatic Park,West,0,P98V,,,,,,,,,,,,,,,,,,29.7,78.5,18.8,33.3,,,,,0,4,8,California,"San Francisco-Oakland-Hayward, CA",No,PM2.5,Undetermined/Insufficient Data,,,0,No,Undetermined/Insufficient Data,,
06-001-0015,060010015,37.701222001,-121.903019,Pleasanton - Owens Ct,West,0,P98V,,,,,,,,,,,,,,,,,,,,17.5,65.4,22.4,21.3,22.9,,0,5,8,California,"San Francisco-Oakland-Hayward, CA",No,PM2.5,Undetermined/Insufficient Data,,,0,No,Undetermined/Insufficient Data,,
06-001-1001,060011001,37.535833,-121.961823,Fremont - Chapel Way,West,0,P98V,42.2,51,44.2,23.8,37,30.9,39.7,43.3,27,25.4,22.5,,,,,,,,,,,,,,,0,11,8,California,"San Francisco-Oakland-Hayward, CA",No,PM2.5,Undetermined/Insufficient Data,,,0,No,Undetermined/Insufficient Data,,
06-007-0002,060070002,39.757371488,-121.8432863,Chico-Manzanita Ave.,West,0,P98V,70,56,53,32,54,54,59,53,93.8,30,29,46.2,,,,,,,,,,,,,,0,12,8,California,"Chico, CA",No,PM2.5,Undetermined/Insufficient Data,,,0,No,Undetermined/Insufficient Data,,
06-007-0008,060070008,39.76168,-121.84047,Chico-East Avenue,West,0,P98V,,,,,,,,,,,,,,30.2,26,29.5,21.2,32.6,61.4,23,92.3,50.6,27.3,23.3,24.9,0,12,8,California,"Chico, CA",No,PM2.5,Undetermined/Insufficient Data,,,0,No,Undetermined/Insufficient Data,,
06-009-0001,060090001,38.20185,-120.680277,San Andreas-Gold Strike Road,West,0,P98V,30,18,30,19,21,18,23,24,48.8,9.7,14.7,25.5,15.5,24.4,18.1,22.7,19.5,,40.6,12.5,96.6,30.6,16.6,14.7,12.9,1,24,8,California,,Yes,PM2.5,No Trend,-0.125657895,0.3819225081,1,Yes,No Trend,-0.072727273,0.5
06-011-0007,060110007,39.021221001,-122.281803,Cortina Indian Rancheria,West,0,P98V,,,,,,,,,,,,,27.3,16.9,15.9,18,14.8,19.6,78.8,14,,56.3,,,18.8,0,10,8,California,,No,PM2.5,Undetermined/Insufficient Data,,,0,No,Undetermined/Insufficient Data,,
06-011-1002,060111002,39.18919,-121.99887,Colusa-Sunrise Blvd,West,0,P98V,26,31,54,27,34,16,30,28,35.2,14.6,,29.3,20.8,23,19.5,23.6,13,34.8,60.1,24.2,59.3,48.3,21.3,22.6,17.2,1,24,8,California,,Yes,PM2.5,No Trend,-0.229285714,0.2510839657,1,Yes,No Trend,-0.125,0.4612850452
06-013-0002,060130002,37.936013,-122.026154,Concord,West,0,P98V,45.8,67.2,63,36.1,42.5,40.5,38.5,37.8,31.1,32.5,30.9,27.6,22.5,21.7,20.5,28,16.2,32.8,70.8,16.7,66,20.7,18.9,19.5,,1,24,8,California,"San Francisco-Oakland-Hayward, CA",Yes,PM2.5,Decreasing,-1.223863636,0.0000403564,1,Yes,No Trend,-0.4,0.1407830351
06-013-1004,060131004,37.9604,-122.356811,San Pablo,West,0,P98V,,,,,,,,,,,,,,27.4,23.4,29.6,16.4,42.6,73,17.2,36.4,20.6,22.6,22.2,21.1,0,12,8,California,"San Francisco-Oakland-Hayward, CA",No,PM2.5,Undetermined/Insufficient Data,,,0,No,Undetermined/Insufficient Data,,
06-015-0007,060150007,41.756130001,-124.20347,Crescent City-Crescent Elk School,West,0,P98V,,,,,,,,,,,,,,,,,,17.3,,,,,,,,0,1,8,California,"Crescent City, CA",No,PM2.5,Undetermined/Insufficient Data,,,0,No,Undetermined/Insufficient Data,,
06-017-0011,060170011,38.944979,-119.970609,South Lake Tahoe-Sandy Way,West,0,P98V,21,26,22,19,,,,,,,,,,,,,,,,,,,,,,0,4,8,California,"Sacramento--Roseville--Arden-Arcade, CA",No,PM2.5,Undetermined/Insufficient Data,,,,,,,
06-017-0012,060170012,38.81161,-120.033084,Echo Summit,West,0,P98V,9,11,,,,,,,,,,,,,,,,,,,,,,,,0,2,8,California,"Sacramento--Roseville--Arden-Arcade, CA",No,PM2.5,Undetermined/Insufficient Data,,,,,,,
06-019-0008,060190008,36.781332852,-119.7731898,"3425 N FIRST ST, FRESNO",West,0,P98V,,75,75,56,52,71,51,67,57.4,55.8,48.8,67.8,,,,,,,,,,,,,,0,11,8,California,"Fresno, CA",No,PM2.5,Undetermined/Insufficient Data,,,0,No,Undetermined/Insufficient Data,,
06-019-0011,060190011,36.78538,-119.77321,Fresno - Garland,West,0,P98V,,,,,,,,,,,,,52.6,63.8,66.7,52,42.7,68,63.5,36.9,85,53.5,43.2,33.3,33.6,0,13,8,California,"Fresno, CA",No,PM2.5,Undetermined/Insufficient Data,,,1,Yes,No Trend,-1.257142857,0.1197294078
06-019-0500,060190500,36.985118557,-119.6583393,Table Mountain Air Monitoring Site,West,0,P98V,,,,,,,,,,,,,,,,,20.9,32.8,41.1,14.4,124.2,44.6,21.6,15,18,0,9,8,California,"Fresno, CA",No,PM2.5,Undetermined/Insufficient Data,,,0,No,Undetermined/Insufficient Data,,
06-019-2009,060192009,36.634225001,-120.382331,Tranquillity,West,0,P98V,,,,,,,,,,,27,27.5,26.9,35.7,31.2,35.8,27,34.4,51.4,17.1,92.5,32,22,21,18.7,0,15,8,California,"Fresno, CA",No,PM2.5,Undetermined/Insufficient Data,,,1,Yes,No Trend,-0.49,0.2794830361
06-019-2016,060192016,36.710833,-119.7775,Fresno-Foundry,West,0,P98V,,,,,,,,,,,,,,,,,,,,,88.8,53.5,40.6,34.6,37.8,0,5,8,California,"Fresno, CA",No,PM2.5,Undetermined/Insufficient Data,,,0,No,Undetermined/Insufficient Data,,
06-019-5001,060195001,36.819449,-119.716433,Clovis-Villa,West,0,P98V,72.5,76.2,53.5,,56,67.1,60.5,61.2,49.7,49,44.3,68.5,48,56.2,64.5,45.7,37.7,50,57,28,99.5,49.6,32.9,24,32.6,1,24,8,California,"Fresno, CA",Yes,PM2.5,Decreasing,-1.246153846,0.0016753606,1,Yes,No Trend,-1.642857143,0.0571235862
06-019-5025,060195025,36.72639,-119.733,Fresno-Pacific,West,0,P98V,65.1,72.1,73,52,52.1,74.1,65,57.9,46.4,52.3,40.2,67.5,51.3,71.6,61.8,42,40,73.2,65.5,37.1,81,48.6,42.4,39.5,43.1,1,25,8,California,"Fresno, CA",Yes,PM2.5,Decreasing,-0.816666667,0.0259291176,1,Yes,No Trend,-0.683333333,0.2475254263
06-023-0006,060230006,41.047116985,-123.6752334,Hoopa Valley Reservation,West,0,P98V,,,,,,,,,,,,,,,27.4,,,,,,,,,,18.2,0,2,8,California,"Eureka-Arcata-Fortuna, CA",No,PM2.5,Undetermined/Insufficient Data,,,0,No,Undetermined/Insufficient Data,,
06-023-1002,060231002,40.80178,-124.1621,Eureka I Street,West,0,P98V,21.5,29,22.6,,23.1,,25.7,27.2,21.5,23.2,17.4,18.7,17.3,24,,,,,,,,,,,,0,12,8,California,"Eureka-Arcata-Fortuna, CA",No,PM2.5,Undetermined/Insufficient Data,,,0,No,Undetermined/Insufficient Data,,
06-023-1004,060231004,40.776780001,-124.17949,Jacobs,West,0,P98V,,,,,,,,23.5,26.5,24.2,21.2,23.7,22.2,,17.9,17.2,16.4,28,30.2,18.3,28.5,15,20,19.7,14.6,0,17,8,California,"Eureka-Arcata-Fortuna, CA",No,PM2.5,Undetermined/Insufficient Data,,,1,Yes,No Trend,-0.33,0.1009214121
06-023-1005,060231005,40.71528,-124.20139,Humboldt Hill,West,0,P98V,,,,,,,,,,,,,16.9,17.4,7.7,12.4,9.5,20.8,,,,,,,,0,6,8,California,"Eureka-Arcata-Fortuna, CA",No,PM2.5,Undetermined/Insufficient Data,,,0,No,Undetermined/Insufficient Data,,
06-025-0003,060250003,32.978378648,-115.5341558,Brawley-401 Main St.,West,0,P98V,41.5,,22.3,28.7,,,,,,,,,,,,,,,,,,,,,,0,3,8,California,"El Centro, CA",No,PM2.5,Undetermined/Insufficient Data,,,,,,,
06-025-0005,060250005,32.67618,-115.48307,Calexico-Ethel Street,West,0,P98V,56,50.4,44.1,44.3,31.9,41.1,46,38.5,24,,31.7,32.4,30.7,27.4,36.3,34.6,34.2,30.7,40.1,27,34.4,29.3,32.4,29.6,38.1,1,24,8,California,"El Centro, CA",Yes,PM2.5,Decreasing,-0.569301471,0.0085941087,1,Yes,No Trend,0.05,0.4612850452
06-025-0007,060250007,32.97833,-115.53917,Brawley-220 Main Street,West,0,P98V,,,,,23.6,23.5,20.3,18.6,17.8,26,12.9,17.7,22.7,17.2,19.9,12.4,32.3,26.7,29.6,20.7,21,,31.5,28,17.7,0,20,8,California,"El Centro, CA",No,PM2.5,Undetermined/Insufficient Data,,,1,Yes,No Trend,0.81,0.0571235862
06-025-1003,060251003,32.79222,-115.56306,El Centro-9th Street,West,0,P98V,,17.6,23.4,21,25.1,22.1,27.1,18.2,17,17.9,13.4,29.4,18.3,19,19.6,14.1,25.8,20.8,17.9,17.5,23.7,18.7,20.5,18.8,18,1,24,8,California,"El Centro, CA",Yes,PM2.5,No Trend,-0.01302521,0.4357572029,1,Yes,No Trend,0.0166666667,0.5
06-027-0002,060270002,37.360684,-118.330783,WMRC/NCORE,West,0,P98V,,,,,,,,,,,,,,,,,13.3,14,42.9,10.9,122.6,75.7,11.6,8.3,12.9,0,9,8,California,"Bishop, CA",No,PM2.5,Undetermined/Insufficient Data,,,0,No,Undetermined/Insufficient Data,,
06-027-1003,060271003,36.487823,-117.871036,Keeler,West,0,P98V,,23,62,15,22,13,22,35,44,36,28,43.7,28.1,39,28.6,23.9,25.4,37.2,25,16.2,66.6,57.9,25.8,17.7,25.2,1,24,8,California,"Bishop, CA",Yes,PM2.5,No Trend,0.1341666667,0.2815392864,1,Yes,No Trend,-0.433333333,0.1641167938
06-027-1018,060271018,36.595556001,-118.049167,Lone Pine Paiute-Shoshone Reservation,West,0,P98V,,,,,,,,,,,,,,,,,,,,,,,11.2,,,0,1,8,California,"Bishop, CA",No,PM2.5,Undetermined/Insufficient Data,,,0,No,Undetermined/Insufficient Data,,
06-027-1023,060271023,37.362136969,-118.4174779,Bishop Tribe EMO,West,0,P98V,,,,,,,,,,,,,,,,,,,,,,55.4,29.9,27.4,27.4,0,4,8,California,"Bishop, CA",No,PM2.5,Undetermined/Insufficient Data,,,0,No,Undetermined/Insufficient Data,,
06-027-1033,060271033,37.155494,-118.293547,Stn.1 Big Pine Paiute site,West,0,P98V,,,,,,,,,,,,,,,,,,,,,,,7.2,,17.7,0,2,8,California,"Bishop, CA",No,PM2.5,Undetermined/Insufficient Data,,,0,No,Undetermined/Insufficient Data,,
06-029-0010,060290010,35.385574,-119.015009,Bakersfield-Golden / M St,West,0,P98V,102.5,96.3,81.6,57.1,54.6,77.9,75.2,69.4,,68.6,,,,,,51.5,51.4,71.3,60.9,44.3,76.9,54.3,51.8,37.5,53.9,0,19,8,California,"Bakersfield, CA",No,PM2.5,Undetermined/Insufficient Data,,,0,No,Undetermined/Insufficient Data,,
06-029-0011,060290011,35.050551349,-118.1472936,Mojave,West,0,P98V,,13.9,27.3,15,,15.7,12.5,19.9,17.8,11.2,9,17.6,21.8,33.7,25.4,12.7,20.6,16.6,25.9,14.3,,,,,,0,18,8,California,"Bakersfield, CA",No,PM2.5,Undetermined/Insufficient Data,,,0,No,Undetermined/Insufficient Data,,
06-029-0014,060290014,35.356615,-119.062613,Bakersfield-California,West,0,P98V,92.7,94.9,73,48.3,61.5,63.2,60.5,73,64.5,66.7,53.3,65.5,56.4,71.8,79.9,57.2,47,71.8,69.2,43.4,79.2,56.9,48.5,36,52.7,1,25,8,California,"Bakersfield, CA",Yes,PM2.5,Decreasing,-0.952380952,0.0162602212,1,Yes,No Trend,-1.1,0.1407830351
06-029-0015,060290015,35.62109,-117.67296,Ridgecrest-California Ave,West,0,P98V,25.4,,28,11.9,15.2,16.2,13,22.4,17.2,12.6,12,,,10.9,,11.2,,,,,,,,,,0,12,8,California,"Bakersfield, CA",No,PM2.5,Undetermined/Insufficient Data,,,0,No,Undetermined/Insufficient Data,,
06-029-0016,060290016,35.324636,-118.997627,Bakersfield-Airport (Planz),West,0,P98V,76.5,90.6,66.8,47.5,47.6,66.4,64.7,72.2,72.3,65.5,56.2,43.2,40.6,96.7,76.7,56.5,50.7,69.7,60.8,46.7,81.4,54.8,45.7,37.5,49.6,1,25,8,California,"Bakersfield, CA",Yes,PM2.5,Decreasing,-0.879605263,0.0289692579,1,Yes,No Trend,-0.875,0.189725198
06-029-0018,060290018,35.642943101,-117.7150665,Ridgecrest-Ward,West,0,P98V,,,,,,,,,,,,,,,,,,,26,10.3,48.1,47.1,10.8,11.4,14.1,0,7,8,California,"Bakersfield, CA",No,PM2.5,Undetermined/Insufficient Data,,,0,No,Undetermined/Insufficient Data,,
06-029-0019,060290019,35.046528001,-118.162833,Mojave - CA 58 Business,West,0,P98V,,,,,,,,,,,,,,,,,,,,,,27.1,10.2,,,0,2,8,California,"Bakersfield, CA",No,PM2.5,Undetermined/Insufficient Data,,,0,No,Undetermined/Insufficient Data,,
06-029-0020,060290020,35.04944,-118.18893,Mojave-Pat Avenue,West,0,P98V,,,,,,,,,,,,,,,,,,,,,,,,11.7,10.8,0,2,8,California,"Bakersfield, CA",No,PM2.5,Undetermined/Insufficient Data,,,0,No,Undetermined/Insufficient Data,,
06-031-0004,060310004,36.102244,-119.56565,Corcoran-Patterson,West,0,P98V,55.1,120.6,77.4,48.5,49.6,77.8,63.8,59.5,47.9,53.4,47.2,,,66,71,,45.9,69.7,78,45.1,82.6,51.6,41.8,29.9,29.2,1,22,8,California,"Hanford-Corcoran, CA",Yes,PM2.5,Decreasing,-0.772777778,0.0398601309,1,Yes,No Trend,-1.141666667,0.1009214121
06-031-1004,060311004,36.31567,-119.643447,Hanford-Irwin,West,0,P98V,,,,,,,,,,,48.5,64.6,48.3,67.6,81.9,51.4,43.3,68.7,78.2,41.1,86.9,56.4,42.7,37,36.7,0,15,8,California,"Hanford-Corcoran, CA",No,PM2.5,Undetermined/Insufficient Data,,,1,Yes,No Trend,-0.9,0.1009214121
06-033-3001,060333001,39.0327,-122.92229,Lakeport-Lakeport Blvd.,West,0,P98V,9.4,11.3,46.3,15.1,9,10.5,21.4,9.1,59.2,7.5,5.9,7.7,14,7.6,13.8,7,9.2,,,,,,,,,0,17,8,California,"Clearlake, CA",No,PM2.5,Undetermined/Insufficient Data,,,0,No,Undetermined/Insufficient Data,,
06-033-3002,060333002,39.018930001,-122.91333,Lakeport-S. Main Street,West,0,P98V,,,,,,,,,,,,,,,,,,,71.8,7.9,84.8,33.9,10.1,14,6.9,0,7,8,California,"Clearlake, CA",No,PM2.5,Undetermined/Insufficient Data,,,0,No,Undetermined/Insufficient Data,,
06-037-0002,060370002,34.1365,-117.92391,Azusa,West,0,P98V,61.6,61.4,52.6,55.5,53.8,53.2,38.4,49.2,34.8,42.9,35.4,30.6,25.6,26.4,,30,29,21.2,30.2,22.8,53.1,36.1,,,,0,21,8,California,"Los Angeles-Long Beach-Anaheim, CA",No,PM2.5,Undetermined/Insufficient Data,,,0,No,Undetermined/Insufficient Data,,
06-037-1002,060371002,34.17605,-118.31712,Burbank,West,0,P98V,,69.4,55.2,60.1,49.3,50.5,43.4,50.3,34.6,36.9,31.8,33.5,28.2,30.4,,,,,,,,,,,,0,13,8,California,"Los Angeles-Long Beach-Anaheim, CA",No,PM2.5,Undetermined/Insufficient Data,,,0,No,Undetermined/Insufficient Data,,
06-037-1103,060371103,34.066590001,-118.22688,Los Angeles-North Main Street,West,0,P98V,72.8,58.1,55.3,61.3,54.3,53.3,38.9,51.2,40.3,33.9,27.1,31.5,32,29,,38,27.3,30.9,34.1,28.3,47.1,45.2,21.9,23.4,34.8,1,24,8,California,"Los Angeles-Long Beach-Anaheim, CA",Yes,PM2.5,Decreasing,-1.2925,0.0000636281,1,Yes,No Trend,0.2333333333,0.3132472588
06-037-1201,060371201,34.19925,-118.53276,Reseda,West,0,P98V,50,56.9,45.4,44.7,53.2,35.7,31.9,33.3,26.1,27.2,33.8,23.6,31.2,23,,28.4,24.5,20.7,23.8,26.3,36,36.1,19.5,19.2,38.5,1,24,8,California,"Los Angeles-Long Beach-Anaheim, CA",Yes,PM2.5,Decreasing,-0.926666667,0.0005912845,1,Yes,No Trend,-0.24,0.5
06-037-1301,060371301,33.92899,-118.21071,Lynwood,West,0,P98V,62.8,66,52.5,52.4,53,48.4,44.4,46,,,,,,,,,,,,,,,,,,0,8,8,California,"Los Angeles-Long Beach-Anaheim, CA",No,PM2.5,Undetermined/Insufficient Data,,,,,,,
06-037-1302,060371302,33.901389001,-118.205,Compton,West,0,P98V,,,,,,,,,,37.7,31.8,31.5,30.3,24.3,,37.2,26.3,53.4,34.8,26.6,43.2,42.5,32.6,28.1,35.1,0,15,8,California,"Los Angeles-Long Beach-Anaheim, CA",No,PM2.5,Undetermined/Insufficient Data,,,1,Yes,No Trend,0.2571428571,0.2175594555
06-037-1601,060371601,34.01407,-118.06056,,West,0,P98V,70.8,66.6,57.9,50.4,52.1,,,,,,,,,,,,,,,,,,,,,0,5,8,California,"Los Angeles-Long Beach-Anaheim, CA",No,PM2.5,Undetermined/Insufficient Data,,,,,,,
06-037-1602,060371602,34.010290001,-118.0685,Pico Rivera #2,West,0,P98V,,,,,,,43,49.5,37.9,35.4,32,31.5,28.5,28.7,,41.8,25.1,29.5,35.4,27.5,48.5,47.9,25.6,27.8,37.7,0,18,8,California,"Los Angeles-Long Beach-Anaheim, CA",No,PM2.5,Undetermined/Insufficient Data,,,1,Yes,No Trend,0.2,0.3852478349
06-037-2005,060372005,34.1326,-118.1272,Pasadena,West,0,P98V,54,55.3,49.1,48.4,46.5,43,32,45.4,32.1,35.6,24,29.8,25.7,,,32.4,25.3,18.8,29.5,27.5,34.9,29.9,19,17.7,42.4,1,23,8,California,"Los Angeles-Long Beach-Anaheim, CA",Yes,PM2.5,Decreasing,-1.244285714,0.0000403564,1,Yes,No Trend,0.1333333333,0.3852478349
06-037-4002,060374002,33.82376,-118.18921,Long Beach (North),West,0,P98V,64.3,49.2,47.1,46.5,45.8,41.4,34.9,40.7,38.8,34.1,28.3,27.8,26.5,26.1,,32.1,23.5,32.3,33,20.7,45.7,31.2,,,,0,21,8,California,"Los Angeles-Long Beach-Anaheim, CA",No,PM2.5,Undetermined/Insufficient Data,,,0,No,Undetermined/Insufficient Data,,
06-037-4004,060374004,33.79236,-118.17533,Long Beach (South),West,0,P98V,,,,,42,37.7,35.2,33.7,36.4,31.2,26.5,26.6,25.6,24.6,,31.2,22,31.1,33.5,23.2,39,32.8,,,,0,17,8,California,"Los Angeles-Long Beach-Anaheim, CA",No,PM2.5,Undetermined/Insufficient Data,,,0,No,Undetermined/Insufficient Data,,
06-037-4008,060374008,33.859662001,-118.200707,Long Beach-Route 710 Near Road,West,0,P98V,,,,,,,,,,,,,,,,35.7,26.5,35.6,36.1,26.4,41.7,34.8,25.5,25.4,28.2,0,10,8,California,"Los Angeles-Long Beach-Anaheim, CA",No,PM2.5,Undetermined/Insufficient Data,,,0,No,Undetermined/Insufficient Data,,
06-037-4009,060374009,33.793713001,-118.171019,Signal Hill (LBSH),West,0,P98V,,,,,,,,,,,,,,,,,,,,,,,,22.3,24.9,0,2,8,California,"Los Angeles-Long Beach-Anaheim, CA",No,PM2.5,Undetermined/Insufficient Data,,,0,No,Undetermined/Insufficient Data,,
06-037-9002,060379002,34.689985309,-118.1328499,Lancaster-Ponderosa St.,West,0,P98V,21,,,,,,,,,,,,,,,,,,,,,,,,,0,1,8,California,"Los Angeles-Long Beach-Anaheim, CA",No,PM2.5,Undetermined/Insufficient Data,,,,,,,
06-037-9033,060379033,34.669739001,-118.130511,Lancaster-Division Street,West,0,P98V,,,20,17,15,16,13,20,,16,14,,,,,,20.5,15.7,16.4,11.6,39.8,21,13.8,,,0,15,8,California,"Los Angeles-Long Beach-Anaheim, CA",No,PM2.5,Undetermined/Insufficient Data,,,0,No,Undetermined/Insufficient Data,,
06-037-9035,060379035,34.725389,-118.178601,Lancaster - Fairgrounds,West,0,P98V,,,,,,,,,,,,,,,,,,,,,,,,8.5,11.8,0,2,8,California,"Los Angeles-Long Beach-Anaheim, CA",No,PM2.5,Undetermined/Insufficient Data,,,0,No,Undetermined/Insufficient Data,,
06-039-0500,060390500,37.213599578,-119.6990653,Picayune Rancheria,West,0,P98V,,,,,,,,,,,,,17.3,31.7,,,,,,,,,,,,0,2,8,California,"Madera, CA",No,PM2.5,Undetermined/Insufficient Data,,,0,No,Undetermined/Insufficient Data,,
06-039-2010,060392010,36.953256,-120.034203,Madera-City,West,0,P98V,,,,,,,,,,,,59.1,43.2,54.6,56,43.7,35.7,45.8,50.2,23.9,87.7,47,31.5,27.7,30.6,0,14,8,California,"Madera, CA",No,PM2.5,Undetermined/Insufficient Data,,,1,Yes,Decreasing,-1.875,0.0179486187
06-041-0001,060410001,37.97231,-122.520004,San Rafael,West,0,P98V,,,,,,,,,,,31,25,19.2,26.5,20.4,30.5,14.3,36.8,73.9,14.2,40.9,17.9,19.9,16.1,,0,14,8,California,"San Francisco-Oakland-Hayward, CA",No,PM2.5,Undetermined/Insufficient Data,,,1,Yes,No Trend,-0.6,0.1641167938
06-045-0006,060450006,39.15047,-123.20655,Ukiah-Library,West,0,P98V,18.7,27,39.7,15.2,14.4,15.2,17.4,13.3,31,19.6,14,15.4,15.4,,14.4,21.9,15.9,33.5,59.5,15.1,62.2,31.8,21.9,23,14.8,1,24,8,California,"Ukiah, CA",Yes,PM2.5,No Trend,0.1111111111,0.1956954585,1,Yes,No Trend,0.6583333333,0.0571235862
06-045-2002,060452002,39.41174,-123.35264,Willits-125 East Commercial Street,West,0,P98V,,,,,,,,,,,17.8,20.8,19.1,,22.3,24.1,14.8,34,45.2,15.9,55,,,,,0,10,8,California,"Ukiah, CA",No,PM2.5,Undetermined/Insufficient Data,,,0,No,Undetermined/Insufficient Data,,
06-045-2003,060452003,39.39861,-123.35872,Willits-Blosser Lane,West,0,P98V,,,,,,,,,,,,,,,,,,,,,,33.4,25.9,31.9,17.5,0,4,8,California,"Ukiah, CA",No,PM2.5,Undetermined/Insufficient Data,,,0,No,Undetermined/Insufficient Data,,
06-047-0003,060470003,37.281853,-120.433671,Merced-Coffee,West,0,P98V,,,,,,,,,,,39.9,47.4,35.6,42.3,43.8,40.3,32.8,44.7,56,23.4,78.3,40.7,28.7,28.6,,0,14,8,California,"Merced, CA",No,PM2.5,Undetermined/Insufficient Data,,,1,Yes,No Trend,-0.69,0.1407830351
06-047-2024,060472024,37.289732,-120.429718,Merced-Vierra,West,0,P98V,,,,,,,,,,,,,,,,,,,,,,,,,26.7,0,1,8,California,"Merced, CA",No,PM2.5,Undetermined/Insufficient Data,,,0,No,Undetermined/Insufficient Data,,
06-047-2510,060472510,37.30832,-120.480456,Merced-M St,West,0,P98V,68.4,49.3,57.6,44.7,46.9,48.6,52.5,53,,49.8,39.1,38.5,41.8,67.3,45.9,39,34.6,40.3,52.7,29.5,77.1,40.9,31.3,31.8,26.8,1,24,8,California,"Merced, CA",Yes,PM2.5,Decreasing,-0.933333333,0.0014194048,1,Yes,No Trend,-0.78,0.1009214121
06-049-0001,060490001,41.483225471,-120.5402336,Alturas-Fourth St.,West,0,P98V,37,,,,,,,,,,,,,,,,,,,,,,,,,0,1,8,California,,No,PM2.5,Undetermined/Insufficient Data,,,,,,,
06-051-0001,060510001,37.64571,-118.96652,Mammoth Lakes,West,0,P98V,,,,30,,,,,,,,,,,,,,,,30.9,309,55.4,19,22.1,13.6,0,7,8,California,,No,PM2.5,Undetermined/Insufficient Data,,,0,No,Undetermined/Insufficient Data,,
06-051-0005,060510005,37.962069,-119.120278,Lee Vining,West,0,P98V,,,,,,,,,,,,,,,,,,,,8.7,222.9,,15.3,9.5,8.9,0,5,8,California,,No,PM2.5,Undetermined/Insufficient Data,,,0,No,Undetermined/Insufficient Data,,
06-053-0002,060530002,36.481870001,-121.73333,Carmel Valley,West,0,P98V,,,,,,,,,,,,,12.3,13.1,12.3,13.2,56.6,13.5,23.8,9.2,63.7,9.1,9.5,9.9,9.2,0,13,8,California,"Salinas, CA",No,PM2.5,Undetermined/Insufficient Data,,,1,Yes,No Trend,-0.184615385,0.3132472588
06-053-0008,060530008,36.209286001,-121.126371,King City 2,West,0,P98V,,,,,,,,,,,,,14.3,14,11,12.9,16.1,17,24.9,12.4,61.6,14.2,13.3,14.7,11.8,0,13,8,California,"Salinas, CA",No,PM2.5,Undetermined/Insufficient Data,,,1,Yes,No Trend,0,0.5
06-053-1003,060531003,36.694261001,-121.623271,Salinas 3,West,0,P98V,21.5,21.7,22.8,14,15.5,14.2,13,15.6,13.8,13.6,14.3,13.6,13.2,15.8,11.8,11.9,12.8,16.5,29.2,10,44.2,12.9,13.4,18,13.7,1,25,8,California,"Salinas, CA",Yes,PM2.5,No Trend,-0.105882353,0.1091150292,1,Yes,No Trend,0.15,0.2475254263
06-055-0003,060550003,38.310942,-122.296189,Napa,West,0,P98V,,,,,,,,,,,,,,27.8,23.3,30,22,54.2,,,,,,,,0,5,8,California,"Napa, CA",No,PM2.5,Undetermined/Insufficient Data,,,0,No,Undetermined/Insufficient Data,,
06-055-0004,060550004,38.278849001,-122.275024,Napa Valley College,West,0,P98V,,,,,,,,,,,,,,,,,,,,13.7,56.8,,,,,0,2,8,California,"Napa, CA",No,PM2.5,Undetermined/Insufficient Data,,,0,No,Undetermined/Insufficient Data,,
06-057-0005,060570005,39.233477001,-121.055608,Grass Valley-Litton Building,West,0,P98V,,,23,,10,,24,15.4,65.1,10,,9.9,7.6,28.2,,11,11.7,32.4,45.7,11.6,90.1,65.4,31.2,11.9,11.2,1,19,8,California,"Truckee-Grass Valley, CA",Yes,PM2.5,No Trend,0.0954545455,0.3302357375,1,Yes,Increasing,0.3909090909,0.0463212835
06-057-1001,060571001,39.327830001,-120.184592,Truckee-Fire Station,West,0,P98V,22,26,18,20,18,16,15,15,45.9,19.5,12.6,,13,,,,17.1,27.6,35.6,16.1,,,,,,0,16,8,California,"Truckee-Grass Valley, CA",No,PM2.5,Undetermined/Insufficient Data,,,0,No,Undetermined/Insufficient Data,,
06-059-0001,060590001,33.821353001,-117.91427,Anaheim (1010 Harbor Blvd),West,0,P98V,66.3,,,,,,,,,,,,,,,,,,,,,,,,,0,1,8,California,"Los Angeles-Long Beach-Anaheim, CA",No,PM2.5,Undetermined/Insufficient Data,,,,,,,
06-059-0007,060590007,33.83062,-117.93845,Anaheim,West,0,P98V,,,48.1,51.8,48.2,41.8,36.9,46.5,31.2,32.1,25.2,28.1,25,22.7,,29.8,24,38.1,32.1,23.3,42.4,37.1,22.1,22.6,28.8,1,22,8,California,"Los Angeles-Long Beach-Anaheim, CA",Yes,PM2.5,Decreasing,-0.894444444,0.0001851981,1,Yes,No Trend,0.1,0.4612850452
06-059-2022,060592022,33.63003,-117.67593,Mission Viejo,West,0,P98V,36.5,45.6,45.8,37.6,38.5,31.4,25.7,35.7,27,23.8,17.3,28.8,17.6,17.5,,15.1,13.4,15,20.3,14.7,35,24.9,,,,0,21,8,California,"Los Angeles-Long Beach-Anaheim, CA",No,PM2.5,Undetermined/Insufficient Data,,,0,No,Undetermined/Insufficient Data,,
06-061-0003,060610003,38.93568,-121.09959,Auburn-Atwood,West,0,P98V,,,,,,,,,,,,,15.7,29.7,22.5,17,18.3,18,42.9,16.4,92.6,57,44.3,17.1,12.2,0,13,8,California,"Sacramento--Roseville--Arden-Arcade, CA",No,PM2.5,Undetermined/Insufficient Data,,,1,Yes,No Trend,0.3285714286,0.1407830351
06-061-0006,060610006,38.74643,-121.26498,Roseville-N Sunrise Ave,West,0,P98V,43,49,40,26,30,28,36,27,26.6,21.3,20.3,23,14.9,18.9,20.6,20.1,20.2,17.4,56.5,19.9,52.2,42,24.4,18.8,19,1,25,8,California,"Sacramento--Roseville--Arden-Arcade, CA",Yes,PM2.5,Decreasing,-0.569285714,0.0036724331,1,Yes,No Trend,0.1,0.4229205212
06-063-1006,060631006,39.939567001,-120.944376,Quincy-N Church Street,West,0,P98V,36,43,,,,27,25,36,85.5,35.4,21.4,37.6,29.1,40,30.2,30.5,28.8,56.2,37.3,23.9,108.6,,,22.5,21,0,20,8,California,,No,PM2.5,Undetermined/Insufficient Data,,,1,Yes,No Trend,0.2777777778,0.4612850452
06-063-1009,060631009,39.808333,-120.471667,Portola-161 Nevada Street,West,0,P98V,,43,,40,33,26,31,46,68.6,30.1,35.5,32.4,35.5,,,,,,,,,,,,,0,11,8,California,,No,PM2.5,Undetermined/Insufficient Data,,,0,No,Undetermined/Insufficient Data,,
06-063-1010,060631010,39.81336,-120.47069,Portola,West,0,P98V,,,,,,,,,,,,,,,53.8,50.4,46.1,54.9,37.1,43.1,76.3,70.1,40.8,40.2,35,0,11,8,California,,No,PM2.5,Undetermined/Insufficient Data,,,0,No,Undetermined/Insufficient Data,,
06-065-0009,060650009,33.447867001,-117.088649,Pechanga,West,0,P98V,,,,,,,,,,,,16.8,13.9,25.9,22.2,20.2,17.4,,,9.5,22.4,16.5,11.4,12,,0,11,8,California,"Riverside-San Bernardino-Ontario, CA",No,PM2.5,Undetermined/Insufficient Data,,,0,No,Undetermined/Insufficient Data,,
06-065-0010,060650010,33.747236001,-115.820124,Joshua Tree NP - Cottonwood Visitor Center,West,0,P98V,,,,,,,,,,,,,,,,,,,23.2,11.5,18.1,,,,,0,3,8,California,"Riverside-San Bernardino-Ontario, CA",No,PM2.5,Undetermined/Insufficient Data,,,0,No,Undetermined/Insufficient Data,,
06-065-0500,060650500,33.719690001,-116.1897,29 Palms,West,0,P98V,,,,,,,,,,,,,,,,,,,,11.9,25.4,16.5,31.1,37.1,18.6,0,6,8,California,"Riverside-San Bernardino-Ontario, CA",No,PM2.5,Undetermined/Insufficient Data,,,0,No,Undetermined/Insufficient Data,,
06-065-1003,060651003,33.94603,-117.40063,Riverside (Magnolia),West,0,P98V,66.8,65.8,63.7,56.2,53.7,41,47.7,58,39,33.9,27.3,28,26.8,29.2,,,,,,,,,,,,0,14,8,California,"Riverside-San Bernardino-Ontario, CA",No,PM2.5,Undetermined/Insufficient Data,,,0,No,Undetermined/Insufficient Data,,
06-065-1016,060651016,33.9447129,-116.830074,Morongo Air Monitoring Station,West,0,P98V,,,,,,,,,,,,,25.1,27,28.5,25.7,24.1,23.5,21.8,20,24.3,19.5,22.9,16.5,17.7,0,13,8,California,"Riverside-San Bernardino-Ontario, CA",No,PM2.5,Undetermined/Insufficient Data,,,1,Yes,Decreasing,-0.622222222,0.0004182042
06-065-2002,060652002,33.70853,-116.21537,Indio,West,0,P98V,26.2,29.8,22.2,24.9,26.8,25,19,26.5,18.7,17,12.2,15.6,16.4,15.9,,19.7,15,14.7,17,13.5,23.6,21,,,,0,21,8,California,"Riverside-San Bernardino-Ontario, CA",No,PM2.5,Undetermined/Insufficient Data,,,0,No,Undetermined/Insufficient Data,,
06-065-2007,060652007,33.72537,-116.206842,Indio Amistad High School,West,0,P98V,,,,,,,,,,,,,,,,,,,,,,,,,21.4,0,1,8,California,"Riverside-San Bernardino-Ontario, CA",No,PM2.5,Undetermined/Insufficient Data,,,0,No,Undetermined/Insufficient Data,,
06-065-5001,060655001,33.85275,-116.54101,Palm Springs,West,0,P98V,22.6,33,23.3,20,23.3,,15.8,20.5,17.1,14.6,12.6,12.5,13.7,13.8,,17.1,12.4,12.8,14.3,12.4,16.9,12.6,16.1,13.6,16.8,1,23,8,California,"Riverside-San Bernardino-Ontario, CA",Yes,PM2.5,Decreasing,-0.348076923,0.0005912845,1,Yes,No Trend,0.1,0.1407830351
06-065-8001,060658001,33.999580001,-117.41601,Rubidoux,West,0,P98V,77.1,74.3,66.3,76.6,59.5,58.3,53.7,54.3,41,39.6,32,31,33.7,34.6,,38.1,32,30.7,28.2,32.7,40.3,37.5,23.2,24.5,36.2,1,24,8,California,"Riverside-San Bernardino-Ontario, CA",Yes,PM2.5,Decreasing,-1.880555556,9.870597E-7,1,Yes,No Trend,-0.05,0.4612850452
06-065-8005,060658005,33.996360001,-117.4924,Mira Loma (Van Buren),West,0,P98V,,,,,,,52.5,60,47.1,40.6,36.1,36.6,35.1,37.5,,43.2,35.2,39.9,34.2,36.2,38.7,42.8,26.2,30.2,45.2,0,18,8,California,"Riverside-San Bernardino-Ontario, CA",No,PM2.5,Undetermined/Insufficient Data,,,1,Yes,No Trend,0.1571428571,0.4229205212
06-067-0006,060670006,38.613779001,-121.368014,Sacramento-Del Paso Manor,West,0,P98V,,,,49,45,67,58,60,54.9,38.7,27,39.8,27.1,39.7,28.1,37.8,28.2,34.9,47.6,29.6,71.4,31.8,36.5,28,27,0,22,8,California,"Sacramento--Roseville--Arden-Arcade, CA",No,PM2.5,Undetermined/Insufficient Data,,,1,Yes,No Trend,0,0.5387149548
06-067-0010,060670010,38.56844,-121.49311,Sacramento-1309 T Street,West,0,P98V,49,53,63,38,37,47,39,43,46.4,27.2,27.3,45.1,20.5,33.4,23.4,32.5,23.7,34.5,42.7,24.8,62.8,30.9,29.2,22.7,24.1,1,25,8,California,"Sacramento--Roseville--Arden-Arcade, CA",Yes,PM2.5,Decreasing,-0.91,0.0016753606,1,Yes,No Trend,-0.142857143,0.4229205212
06-067-0012,060670012,38.683304,-121.164457,Folsom-Natoma St.,West,0,P98V,,,,,,,,,,,,,,,18.1,22.5,18.8,21.3,45.5,,,39,21.6,16.4,15.5,0,9,8,California,"Sacramento--Roseville--Arden-Arcade, CA",No,PM2.5,Undetermined/Insufficient Data,,,0,No,Undetermined/Insufficient Data,,
06-067-0015,060670015,38.593322,-121.503795,Sacramento-Bercut Drive,West,0,P98V,,,,,,,,,,,,,,,,,,33.3,32.8,25.3,62.8,33.7,32.3,27.3,22.7,0,8,8,California,"Sacramento--Roseville--Arden-Arcade, CA",No,PM2.5,Undetermined/Insufficient Data,,,0,No,Undetermined/Insufficient Data,,
06-067-4001,060674001,38.556326,-121.458499,Sacramento Health Department-Stockton Blvd.,West,0,P98V,,,62,37,36,46,40,47,47.6,34.9,26.5,44.8,20.5,35.9,24,29.1,17.5,,,,,,,,,0,15,8,California,"Sacramento--Roseville--Arden-Arcade, CA",No,PM2.5,Undetermined/Insufficient Data,,,0,No,Undetermined/Insufficient Data,,
06-067-5003,060675003,38.494475,-121.211131,Sloughhouse,West,0,P98V,,,,,,,,,,,,,,,,,,,49.8,15,84.7,34.8,21.6,14.9,14.2,0,7,8,California,"Sacramento--Roseville--Arden-Arcade, CA",No,PM2.5,Undetermined/Insufficient Data,,,0,No,Undetermined/Insufficient Data,,
06-069-0002,060690002,36.843425001,-121.3621,Hollister,West,0,P98V,,,,,,,,19.4,16.3,15.5,13.2,15.7,12.5,15,12.2,10.5,13.1,19.6,38.4,10.8,59.1,13,11.7,14.7,14,0,18,8,California,"San Jose-Sunnyvale-Santa Clara, CA",No,PM2.5,Undetermined/Insufficient Data,,,1,Yes,No Trend,0.0571428571,0.4612850452
06-071-0025,060710025,34.03723364,-117.6908886,Ontario Fire Station,West,0,P98V,64.5,64.5,57.4,66.9,59.9,49.5,41.5,48.9,45,35.9,31.2,35.3,28.6,26.8,,,,,,,,,,,,0,14,8,California,"Riverside-San Bernardino-Ontario, CA",No,PM2.5,Undetermined/Insufficient Data,,,0,No,Undetermined/Insufficient Data,,
06-071-0027,060710027,34.030833,-117.61722,Ontario-Route 60 Near Road,West,0,P98V,,,,,,,,,,,,,,,,39.9,33,36.9,32.7,31.4,42.8,49.4,26.4,26.4,40.5,0,10,8,California,"Riverside-San Bernardino-Ontario, CA",No,PM2.5,Undetermined/Insufficient Data,,,0,No,Undetermined/Insufficient Data,,
06-071-0306,060710306,34.510961111,-117.32554,Victorville-Park Avenue,West,0,P98V,23,21,33,24,20,19,19,19,16,17,15,,,,,,18.4,19.6,17,14.1,30,20.8,17.6,15.1,18.8,0,20,8,California,"Riverside-San Bernardino-Ontario, CA",No,PM2.5,Undetermined/Insufficient Data,,,0,No,Undetermined/Insufficient Data,,
06-071-2002,060712002,34.10002,-117.49201,Fontana,West,0,P98V,64.7,69.5,56.5,53.6,62.6,48.2,43.7,64.9,47.1,32.6,30.8,28.2,35.6,33.1,,37.7,28.9,26.5,26.8,35.7,41.9,33.4,28.1,25,52,1,24,8,California,"Riverside-San Bernardino-Ontario, CA",Yes,PM2.5,Decreasing,-1.421111111,0.0001507199,1,Yes,No Trend,0.0375,0.4612850452
06-071-8001,060718001,34.264640001,-116.86147,Big Bear,West,0,P98V,26.7,30.2,,28.8,23.1,,,34,33.2,29.4,,30.6,,35.1,,35.3,22.1,,16,,20.4,21.5,23.2,18,45.4,0,17,8,California,"Riverside-San Bernardino-Ontario, CA",No,PM2.5,Undetermined/Insufficient Data,,,0,No,Undetermined/Insufficient Data,,
06-071-9004,060719004,34.106678001,-117.274063,San Bernardino,West,0,P98V,70.3,68.4,66.3,58.4,72.4,43.4,47.7,70.7,40,35.2,29.7,32.5,27.1,33.4,,33.6,32.5,25.6,22.9,34.8,25.7,34.2,25.8,21.8,43.2,1,24,8,California,"Riverside-San Bernardino-Ontario, CA",Yes,PM2.5,Decreasing,-1.578461538,0.0000251647,1,Yes,No Trend,0.0333333333,0.5
06-073-0001,060730001,32.631242001,-117.059088,Chula Vista,West,0,P98V,32.5,31,36,39.2,30.7,30.2,24,36.1,28.4,22.2,19.4,18.6,24.3,18,19.3,18.9,17.9,29.3,29.4,16.5,31.4,24.2,14.8,22.1,19.6,1,25,8,California,"San Diego-Carlsbad, CA",Yes,PM2.5,Decreasing,-0.575961538,0.0005912845,1,Yes,No Trend,0.03,0.4612850452
06-073-0003,060730003,32.791194001,-116.942092,El Cajon,West,0,P98V,48.8,41.9,36.7,36.9,43.1,29.7,30.8,31.8,30.2,22.9,22.6,21.7,22.4,21.5,,,,,,,,,,,,0,14,8,California,"San Diego-Carlsbad, CA",No,PM2.5,Undetermined/Insufficient Data,,,0,No,Undetermined/Insufficient Data,,
06-073-0006,060730006,32.836461001,-117.128752,Kearny Mesa,West,0,P98V,25.1,28.8,31.6,25.2,25.2,23.1,20.8,30.5,22.4,21.5,16.3,16.2,,,,,,,,,,,,,,0,12,8,California,"San Diego-Carlsbad, CA",No,PM2.5,Undetermined/Insufficient Data,,,0,No,Undetermined/Insufficient Data,,
06-073-0077,060730077,32.650900001,-116.365,Campo Indian Reservation,West,0,P98V,,,,,,,,,,,,,,,,,,,,,,,12.2,13.3,13.7,0,3,8,California,"San Diego-Carlsbad, CA",No,PM2.5,Undetermined/Insufficient Data,,,0,No,Undetermined/Insufficient Data,,
06-073-1002,060731002,33.127769001,-117.075086,Escondido,West,0,P98V,50.7,43.9,43.5,35.8,41.1,39.5,31.8,52.7,33.7,25.2,21.7,22,19.9,24.9,20.9,,,,,,,,,,,0,15,8,California,"San Diego-Carlsbad, CA",No,PM2.5,Undetermined/Insufficient Data,,,0,No,Undetermined/Insufficient Data,,
06-073-1006,060731006,32.842318001,-116.768293,Alpine,West,0,P98V,,,,,,,,,,,,,,16.6,,,,,,,,,,12.3,15,0,3,8,California,"San Diego-Carlsbad, CA",No,PM2.5,Undetermined/Insufficient Data,,,0,No,Undetermined/Insufficient Data,,
06-073-1007,060731007,32.709223612,-117.1548411,San Diego-12th Ave,West,0,P98V,48.7,40,35.6,46.9,33.7,,,,,,,,,,,,,,,,,,,,,0,5,8,California,"San Diego-Carlsbad, CA",No,PM2.5,Undetermined/Insufficient Data,,,,,,,
06-073-1008,060731008,33.217046,-117.396249,Camp Pendleton,West,0,P98V,,,,,,,,,,,,,21.1,16.5,,,,,,,,,,18.9,16.8,0,4,8,California,"San Diego-Carlsbad, CA",No,PM2.5,Undetermined/Insufficient Data,,,0,No,Undetermined/Insufficient Data,,
06-073-1010,060731010,32.701492001,-117.149653,San Diego - Beardsley Street,West,0,P98V,,,,,,,28.4,36.9,30.1,25.2,22.7,23.5,24.1,19.6,24.8,19.6,,,,,,,,,,0,10,8,California,"San Diego-Carlsbad, CA",No,PM2.5,Undetermined/Insufficient Data,,,0,No,Undetermined/Insufficient Data,,
06-073-1011,060731011,32.725226001,-116.3652034,La Posta Reservation,West,0,P98V,,,,,,,,,,,,,8.9,,17.5,19.3,17.1,,,,,,,,,0,4,8,California,"San Diego-Carlsbad, CA",No,PM2.5,Undetermined/Insufficient Data,,,0,No,Undetermined/Insufficient Data,,
06-073-1014,060731014,32.578165,-116.921374,Donovan,West,0,P98V,,,,,,,,,,,,,,,,,,,,,,,,28.2,28.6,0,2,8,California,"San Diego-Carlsbad, CA",No,PM2.5,Undetermined/Insufficient Data,,,0,No,Undetermined/Insufficient Data,,
06-073-1016,060731016,32.845709001,-117.123964,San Diego - Kearny Villa Rd.,West,0,P98V,,,,,,,,,,,,,17.1,16.1,17.2,15.7,13,17.6,21.6,13.5,30.4,15.4,13.4,18.4,18.1,0,13,8,California,"San Diego-Carlsbad, CA",No,PM2.5,Undetermined/Insufficient Data,,,1,Yes,No Trend,0.05,0.3852478349
06-073-1017,060731017,32.985428,-117.082198,San Diego -Rancho Carmel Drive,West,0,P98V,,,,,,,,,,,,,,,,,,,,,32.1,18.6,14.6,15.8,16.2,0,5,8,California,"San Diego-Carlsbad, CA",No,PM2.5,Undetermined/Insufficient Data,,,0,No,Undetermined/Insufficient Data,,
06-073-1018,060731018,32.817978,-116.968133,El Cajon - Floyd Smith Dr.,West,0,P98V,,,,,,,,,,,,,,,,18.4,,,,,,,,,,0,1,8,California,"San Diego-Carlsbad, CA",No,PM2.5,Undetermined/Insufficient Data,,,0,No,Undetermined/Insufficient Data,,
06-073-1022,060731022,32.789565001,-116.944308,El Cajon - Lexington Elementary School,West,0,P98V,,,,,,,,,,,,,,,,,,19.4,21.1,16,29.9,22.7,16.9,17.1,18.6,0,8,8,California,"San Diego-Carlsbad, CA",No,PM2.5,Undetermined/Insufficient Data,,,0,No,Undetermined/Insufficient Data,,
06-073-1025,060731025,32.552824,-117.047345,San Ysidro,West,0,P98V,,,,,,,,,,,,,,,,,,,,,,,,,32.8,0,1,8,California,"San Diego-Carlsbad, CA",No,PM2.5,Undetermined/Insufficient Data,,,0,No,Undetermined/Insufficient Data,,
06-073-1026,060731026,32.710177001,-117.142665,San Diego - Sherman Elementary School,West,0,P98V,,,,,,,,,,,,,,,,,,,,,31.7,23.9,15.7,19.8,21.2,0,5,8,California,"San Diego-Carlsbad, CA",No,PM2.5,Undetermined/Insufficient Data,,,0,No,Undetermined/Insufficient Data,,
06-073-1201,060731201,33.362592834,-117.09023,Pala Airpad,West,0,P98V,,,,,,,,,,0,0,18.8,18.8,16.3,16.5,13.6,13.9,16.4,26.2,26.2,74,23.5,16,,14.4,0,15,8,California,"San Diego-Carlsbad, CA",No,PM2.5,Undetermined/Insufficient Data,,,1,Yes,No Trend,0.0888888889,0.3852478349
06-075-0005,060750005,37.765946,-122.399044,San Francisco,West,0,P98V,,55.4,66.2,36.3,36.1,39.4,32.7,35.7,26.8,29.4,24.4,26.4,21.5,27.8,20.3,26.6,16.7,35.2,80.7,17.5,39.7,18.7,19.6,,,1,22,8,California,"San Francisco-Oakland-Hayward, CA",Yes,PM2.5,Decreasing,-1.10625,0.0000986979,1,Yes,No Trend,-0.19,0.2794830361
06-077-1002,060771002,37.950740899,-121.2685227,Stockton-Hazelton,West,0,P98V,55,58,50,41,36,44,42,48,61.6,40.4,29.7,44.8,33.9,56.3,44.5,39.1,32.4,44.2,92.3,32.9,80.6,39.9,,,,0,22,8,California,"Stockton-Lodi, CA",No,PM2.5,Undetermined/Insufficient Data,,,0,No,Undetermined/Insufficient Data,,
06-077-1003,060771003,37.961578,-121.281414,Stockton - University Park,West,0,P98V,,,,,,,,,,,,,,,,,,,,,,,35.2,35.4,32.6,0,3,8,California,"Stockton-Lodi, CA",No,PM2.5,Undetermined/Insufficient Data,,,0,No,Undetermined/Insufficient Data,,
06-077-2010,060772010,37.793392,-121.247874,Manteca,West,0,P98V,,,,,,,,,,,,38.9,30.9,40.2,40,42.7,29.3,36.4,96.9,26.8,91.6,37.4,33.1,29.5,29.6,0,14,8,California,"Stockton-Lodi, CA",No,PM2.5,Undetermined/Insufficient Data,,,1,Yes,No Trend,-0.416666667,0.189725198
06-079-2002,060792002,35.28386358,-120.6551713,San Luis Obispo-Marsh St.,West,0,P98V,22.6,,,13,12.7,,,,,,,,,,,,,,,,,,,,,0,3,8,California,"San Luis Obispo-Paso Robles-Arroyo Grande, CA",No,PM2.5,Undetermined/Insufficient Data,,,,,,,
06-079-2004,060792004,35.02083,-120.56388,Mesa2,West,0,P98V,,,,,,,,,,,22.4,20.8,24.6,24.8,21.3,20.1,18,21.3,23.2,18.7,30.4,19.2,18.6,18,15.8,0,15,8,California,"San Luis Obispo-Paso Robles-Arroyo Grande, CA",No,PM2.5,Undetermined/Insufficient Data,,,1,Yes,Decreasing,-0.366666667,0.0137476326
06-079-2006,060792006,35.25651,-120.6693,San Luis Obispo,West,0,P98V,,,,,,,21.4,16.9,18.1,11,10.7,14.1,13.6,13.2,13.1,,,16.8,17.8,11.3,47.3,,,,,0,13,8,California,"San Luis Obispo-Paso Robles-Arroyo Grande, CA",No,PM2.5,Undetermined/Insufficient Data,,,0,No,Undetermined/Insufficient Data,,
06-079-2007,060792007,35.046730001,-120.58777,CDF,West,0,P98V,,,,,,,,,,,,30.2,30,30.6,30,24,23.6,25.6,28.8,19.5,37.6,20.8,22.5,19.4,15.5,0,14,8,California,"San Luis Obispo-Paso Robles-Arroyo Grande, CA",No,PM2.5,Undetermined/Insufficient Data,,,1,Yes,Decreasing,-0.9,0.0009679814
06-079-2020,060792020,35.259501518,-120.6447199,SLO Roberto,West,0,P98V,,,,,,,,,,,,,,,,,,,,,,12.9,14.1,12.2,10.2,0,4,8,California,"San Luis Obispo-Paso Robles-Arroyo Grande, CA",No,PM2.5,Undetermined/Insufficient Data,,,0,No,Undetermined/Insufficient Data,,
06-079-8001,060798001,35.49158,-120.66804,Atascadero (original site),West,0,P98V,41,50.7,25.7,21.4,19.6,25.2,22.2,22.7,20.2,26.4,16,22.2,15.7,23.2,20.2,,,,,,,,,,,0,15,8,California,"San Luis Obispo-Paso Robles-Arroyo Grande, CA",No,PM2.5,Undetermined/Insufficient Data,,,0,No,Undetermined/Insufficient Data,,
06-079-8002,060798002,35.49453,-120.66617,Atascadero,West,0,P98V,,,,,,,,,,,,,,,,16.1,18.8,21.6,19.2,12.4,62.6,14.8,19.5,12.4,13.3,0,10,8,California,"San Luis Obispo-Paso Robles-Arroyo Grande, CA",No,PM2.5,Undetermined/Insufficient Data,,,0,No,Undetermined/Insufficient Data,,
06-081-1001,060811001,37.482934,-122.20337,Redwood City,West,0,P98V,44,50.9,37.8,30.6,29.1,29.4,34.8,33,26.8,28,24.8,24.2,20.9,28.5,20.7,22,16.5,31.5,60.7,17.2,45.7,16.9,19.9,22.4,,1,24,8,California,"San Francisco-Oakland-Hayward, CA",Yes,PM2.5,Decreasing,-0.760555556,0.0008473618,1,Yes,No Trend,-0.138461538,0.3852478349
06-083-0011,060830011,34.427774996,-119.6912178,Santa Barbara,West,0,P98V,,,,18.9,22.2,28.3,23.9,20.7,17.3,,19,19.1,17.1,16,17.2,,,,19,16.2,29.2,17.5,16.2,16.2,16.1,0,18,8,California,"Santa Maria-Santa Barbara, CA",No,PM2.5,Undetermined/Insufficient Data,,,0,No,Undetermined/Insufficient Data,,
06-083-1008,060831008,34.942872,-120.435611,Santa Maria,West,0,P98V,19.3,23.4,19.4,16.1,12.9,,12.7,16,15.1,14,13.4,14.5,16.8,15.9,15.2,16.3,14.7,17.2,18.8,12,35.6,,,,,0,20,8,California,"Santa Maria-Santa Barbara, CA",No,PM2.5,Undetermined/Insufficient Data,,,0,No,Undetermined/Insufficient Data,,
06-083-1009,060831009,34.890666667,-120.4328444,Santa Maria,West,0,P98V,,,,,,,,,,,,,,,,,,,,,,,,12,12.7,0,2,8,California,"Santa Maria-Santa Barbara, CA",No,PM2.5,Undetermined/Insufficient Data,,,0,No,Undetermined/Insufficient Data,,
06-083-2004,060832004,34.637820001,-120.4575,Lompoc H Street,West,0,P98V,,,,,,,,,,,,,,,,15.5,16.4,25.9,19.7,13.2,37.1,13.9,14.3,18.9,12,0,10,8,California,"Santa Maria-Santa Barbara, CA",No,PM2.5,Undetermined/Insufficient Data,,,0,No,Undetermined/Insufficient Data,,
06-083-2011,060832011,34.445510001,-119.8284,Goleta,West,0,P98V,,,,,,,,,,,,,,,15.9,18.5,13.2,40.2,17.7,12.1,30,14,12.6,15.9,13.9,0,11,8,California,"Santa Maria-Santa Barbara, CA",No,PM2.5,Undetermined/Insufficient Data,,,0,No,Undetermined/Insufficient Data,,
06-083-9001,060839001,34.39424,-119.514721,,West,0,P98V,,,,,,,,,,,,,,,,,,,,,,,,,11.4,0,1,8,California,"Santa Maria-Santa Barbara, CA",No,PM2.5,Undetermined/Insufficient Data,,,0,No,Undetermined/Insufficient Data,,
06-085-0002,060850002,36.999571,-121.574684,Gilroy,West,0,P98V,,,,,,,,16.2,24.3,25.1,19.6,22.1,17.4,18.7,16.9,18.5,13.2,21.2,46.5,13.4,49.4,14.2,15.9,13.3,,0,17,8,California,"San Jose-Sunnyvale-Santa Clara, CA",No,PM2.5,Undetermined/Insufficient Data,,,1,Yes,No Trend,-0.371428571,0.0697314296
06-085-0004,060850004,37.339666,-121.888575,San Jose - 4th St.,West,0,P98V,56.6,62.5,,,,,,,,,,,,,,,,,,,,,,,,0,2,8,California,"San Jose-Sunnyvale-Santa Clara, CA",No,PM2.5,Undetermined/Insufficient Data,,,,,,,
06-085-0005,060850005,37.348497,-121.894898,San Jose - Jackson,West,0,P98V,,,,40.1,42.7,41.2,42.8,44.2,36.3,30.7,33.3,34.2,27.2,35.1,27.2,27.4,18.6,34.3,73.4,20.6,56.1,23.3,27.3,25.2,23.8,0,22,8,California,"San Jose-Sunnyvale-Santa Clara, CA",No,PM2.5,Undetermined/Insufficient Data,,,1,Yes,No Trend,-0.433333333,0.2175594555
06-085-0006,060850006,37.338135,-121.849783,San Jose - Knox Avenue,West,0,P98V,,,,,,,,,,,,,,,,27.5,19.4,36.7,71.1,20,51.8,24.8,25.6,25.1,,0,9,8,California,"San Jose-Sunnyvale-Santa Clara, CA",No,PM2.5,Undetermined/Insufficient Data,,,0,No,Undetermined/Insufficient Data,,
06-085-2003,060852003,37.3062,-121.84885,San Jose,West,0,P98V,60,57.2,43.7,37,37.9,40.9,,,,,,,,,,,,,,,,,,,,0,6,8,California,"San Jose-Sunnyvale-Santa Clara, CA",No,PM2.5,Undetermined/Insufficient Data,,,,,,,
06-087-0007,060870007,36.983320001,-121.98822,Santa Cruz,West,0,P98V,17.9,23.1,22,13.6,,,12.5,15.7,12.5,12,12.7,14,11.8,14.3,12.2,10.1,10.9,20.8,40.7,11.9,51.6,12,12.1,13,11.5,1,23,8,California,"Santa Cruz-Watsonville, CA",Yes,PM2.5,Decreasing,-0.094444444,0.0289692579,1,Yes,No Trend,0.0142857143,0.5
06-087-1005,060871005,37.063150001,-122.083092,San Lorenzo Valley Middle School,West,0,P98V,,,,,,,,,,,,,,,,19.8,13,19.6,31.7,12.9,88.4,14.6,16.1,14.8,16.2,0,10,8,California,"Santa Cruz-Watsonville, CA",No,PM2.5,Undetermined/Insufficient Data,,,0,No,Undetermined/Insufficient Data,,
06-089-0004,060890004,40.550130001,-122.38092,Redding - Health Department,West,0,P98V,,29,40,16,18,19,29,16.8,97.1,19.5,10.3,15.5,17,17.5,13.8,19.7,12.5,32.2,102.8,22.6,65.6,,,21.2,21.2,1,22,8,California,"Redding, CA",Yes,PM2.5,No Trend,0.1779605263,0.2224284307,1,Yes,Increasing,1.0875,0.0103953077
06-089-3004,060893004,40.6304,-122.4031,Redding - Buckeye,West,0,P98V,,,45,32.5,,,21.2,,,21.2,12.9,16.9,16.2,15.5,,,,,,,,,,,,0,8,8,California,"Redding, CA",No,PM2.5,Undetermined/Insufficient Data,,,0,No,Undetermined/Insufficient Data,,
06-089-3005,060893005,40.69184,-122.40179,Redding - Toyon,West,0,P98V,,,35.2,13.3,,,16.5,10.8,,9,11.8,9.3,,,11.3,,,,,,,,,,,0,8,8,California,"Redding, CA",No,PM2.5,Undetermined/Insufficient Data,,,0,No,Undetermined/Insufficient Data,,
06-093-2001,060932001,41.726892,-122.633579,Yreka,West,0,P98V,,,,,,,22,,,13,11.3,15.8,21.7,39.6,,,11.5,53.5,113,19.7,84.7,106.4,48.2,73.7,,0,14,8,California,,No,PM2.5,Undetermined/Insufficient Data,,,1,Yes,Increasing,4.7333333333,0.0077554116
06-095-0004,060950004,38.102507,-122.237976,Vallejo,West,0,P98V,60.1,78,71.2,27.3,38.6,41,40.5,40,40.5,37.1,25.5,31,21.4,32.8,24.4,30.7,19,41.5,82.7,18.5,52,23.8,23,15.6,,1,24,8,California,"Vallejo-Fairfield, CA",Yes,PM2.5,Decreasing,-1.182307692,0.0003361551,1,Yes,No Trend,-0.6,0.1009214121
06-097-0003,060970003,38.443503,-122.710169,Santa Rosa - 5th St,West,0,P98V,39.5,41.9,47.4,30.8,25.2,32.6,32.4,30.5,29.8,25.9,22.2,23.4,19,23.3,,,,,,,,,,,,0,14,8,California,"Santa Rosa, CA",No,PM2.5,Undetermined/Insufficient Data,,,0,No,Undetermined/Insufficient Data,,
06-097-0004,060970004,38.403765,-122.818294,Sebastopol,West,0,P98V,,,,,,,,,,,,,,,17.3,23.1,12.7,25.7,64.5,13.8,34,16.4,16.7,16.6,,0,10,8,California,"Santa Rosa, CA",No,PM2.5,Undetermined/Insufficient Data,,,0,No,Undetermined/Insufficient Data,,
06-099-0005,060990005,37.642165,-120.994212,Modesto-14th Street,West,0,P98V,71,69,69,47,45,55,52,57.4,53.9,54.5,37.3,54.7,40.8,56.4,49.5,30.8,36.2,51.1,100.4,28.4,82,43.1,36.4,32.5,33.9,1,25,8,California,"Modesto, CA",Yes,PM2.5,Decreasing,-1.148529412,0.0042601184,1,Yes,No Trend,-0.6,0.189725198
06-099-0006,060990006,37.488317,-120.836008,Turlock,West,0,P98V,,,,,,,,,,53.1,43.5,57.4,45.4,55.4,51.2,47.3,38.5,48,88.6,36,86.9,42.2,34.5,33.2,29.7,0,16,8,California,"Modesto, CA",No,PM2.5,Undetermined/Insufficient Data,,,1,Yes,Decreasing,-1.3,0.0179486187
06-101-0003,061010003,39.138772544,-121.618549,Yuba City,West,0,P98V,38,54,34,29,38,42,41,34,64.6,27.5,17.1,37.1,23.7,25.1,24.8,31.4,22.2,31.7,37.3,26.7,91.1,45.1,27.5,23.5,22.5,1,25,8,California,"Yuba City, CA",Yes,PM2.5,Decreasing,-0.511363636,0.0398601309,1,Yes,No Trend,0.3375,0.2475254263
06-103-0007,061030007,40.17093,-122.25556,Red Bluff-Walnut St. District Office,West,0,P98V,,,,,,,,,,,,,,,,,14.9,22.8,63.2,15.2,87.1,70.7,18.6,15.3,17.7,0,9,8,California,"Red Bluff, CA",No,PM2.5,Undetermined/Insufficient Data,,,0,No,Undetermined/Insufficient Data,,
06-105-0002,061050002,40.73475,-122.9412,Weaverville-Courthouse,West,0,P98V,,,,,,,,,,,,,54,,,,,,,,,,,,,0,1,8,California,,No,PM2.5,Undetermined/Insufficient Data,,,0,No,Undetermined/Insufficient Data,,
06-107-0009,061070009,36.48947,-118.82915,Sequoia & Kings Canyon NPs - Ash Mountain,West,0,P98V,,,,,,,,,,,,,,,,,,,,,,66.1,16.6,70.3,29.5,0,4,8,California,"Visalia-Porterville, CA",No,PM2.5,Undetermined/Insufficient Data,,,0,No,Undetermined/Insufficient Data,,
06-107-2002,061072002,36.332179311,-119.2912276,Visalia-Church,West,0,P98V,103,96,70,47,54,65,50,59.7,62.1,53.9,36.3,50.7,53.8,62.5,75.4,45.8,40.7,74.6,63.4,45.5,83.4,69.3,,,,0,22,8,California,"Visalia-Porterville, CA",No,PM2.5,Undetermined/Insufficient Data,,,0,No,Undetermined/Insufficient Data,,
06-107-2003,061072003,36.30815,-119.3129,Visalia-W. Ashland Avenue,West,0,P98V,,,,,,,,,,,,,,,,,,,,,,,41.2,33.6,39.8,0,3,8,California,"Visalia-Porterville, CA",No,PM2.5,Undetermined/Insufficient Data,,,0,No,Undetermined/Insufficient Data,,
06-111-0007,061110007,34.210169,-118.870509,Thousand Oaks,West,0,P98V,42.4,41.7,28.8,27.9,35.4,22.5,23.4,24.9,20.7,21.1,21.3,18.8,21.3,19.5,19,21.5,19,21,23.6,14.4,27.7,19.9,16.5,15.4,14.2,1,25,8,California,"Oxnard-Thousand Oaks-Ventura, CA",Yes,PM2.5,Decreasing,-0.596875,5.4661243E-6,1,Yes,No Trend,-0.333333333,0.1009214121
06-111-0009,061110009,34.404281,-118.80998,Piru - Pacific,West,0,P98V,,32.6,28.9,23,22.4,20.3,21.4,22.3,17,18.8,16.3,16.6,19.1,17.4,18.1,19.8,19.3,17.6,23.8,13.7,31.6,16.7,15.7,13.5,12.3,1,24,8,California,"Oxnard-Thousand Oaks-Ventura, CA",Yes,PM2.5,Decreasing,-0.466563467,0.0000794045,1,Yes,No Trend,-0.258333333,0.189725198
06-111-1004,061111004,34.44806,-119.2313,Ojai - East Ojai Ave,West,0,P98V,,,,,,,,,,,,,17.2,15.2,12.9,12.7,15.7,100.7,19,10,23.9,13.4,11.6,11,9.7,0,13,8,California,"Oxnard-Thousand Oaks-Ventura, CA",No,PM2.5,Undetermined/Insufficient Data,,,1,Yes,Decreasing,-0.466666667,0.0294979225
06-111-2002,061112002,34.276316,-118.683685,Simi Valley-Cochran Street,West,0,P98V,42.4,40,35.2,33.4,36.7,26.3,27.6,31.8,25.7,20.5,17.4,19.5,17.5,23,20,22,19.4,21.8,20.7,16.5,27.4,19.5,16.5,15.7,14.2,1,25,8,California,"Oxnard-Thousand Oaks-Ventura, CA",Yes,PM2.5,Decreasing,-0.910267857,2.8024935E-7,1,Yes,No Trend,-0.275,0.1009214121
06-111-3001,061113001,34.25239,-119.143182,El Rio-Rio Mesa School #2,West,0,P98V,31.8,32.4,27.9,28.7,27,23.8,23.5,27.5,19.7,18.9,16.5,17.4,17,17.7,17.8,21.5,16.2,21.6,23.5,14.2,30.3,17.1,14.1,14,11.2,1,25,8,California,"Oxnard-Thousand Oaks-Ventura, CA",Yes,PM2.5,Decreasing,-0.662531328,9.2693632E-6,1,Yes,No Trend,-0.2,0.189725198
06-113-1003,061131003,38.66121,-121.73269,Woodland-Gibson Road,West,0,P98V,38,35,31,28,31,24,36,39.5,23.7,27.4,18.6,25.8,14.2,22,13.2,20.8,13.3,40.6,95,27,,20.3,28.7,23.5,24.2,1,24,8,California,"Sacramento--Roseville--Arden-Arcade, CA",Yes,PM2.5,Decreasing,-0.418506494,0.0359171116,1,Yes,No Trend,0.44,0.1197294078
08-001-0001,080010001,39.827594201,-104.9376681,,Southwest,0,P98V,23.3,,,,,,,,,,,,,,,,,,,,,,,,,0,1,7,Colorado,"Denver-Aurora-Lakewood, CO",No,PM2.5,Undetermined/Insufficient Data,,,,,,,
08-001-0006,080010006,39.826007001,-104.937438,Alsup Elementry School - Commerce City,Southwest,0,P98V,,30.9,24.5,25,23,21.9,25.7,40.1,24.9,21.7,22.2,19.5,25.4,23,28.2,,,,,,,,,,,0,14,7,Colorado,"Denver-Aurora-Lakewood, CO",No,PM2.5,Undetermined/Insufficient Data,,,0,No,Undetermined/Insufficient Data,,
08-001-0008,080010008,39.82835,-104.93836,Tri County Health Dept. Bldg.,Southwest,0,P98V,,,,,,,,,,,,,,,,,,23.7,27.2,22.6,27.8,,,,,0,4,7,Colorado,"Denver-Aurora-Lakewood, CO",No,PM2.5,Undetermined/Insufficient Data,,,0,No,Undetermined/Insufficient Data,,
08-001-0010,080010010,39.8281,-104.93647,Birch Street,Southwest,0,P98V,,,,,,,,,,,,,,,,,,,,,,29.8,16.4,23.7,21.5,0,4,7,Colorado,"Denver-Aurora-Lakewood, CO",No,PM2.5,Undetermined/Insufficient Data,,,0,No,Undetermined/Insufficient Data,,
08-001-3001,080013001,39.838119001,-104.94984,Welby,Southwest,0,P98V,,,,,,,,,,,,,,,,,,,,,,,,,21.6,0,1,7,Colorado,"Denver-Aurora-Lakewood, CO",No,PM2.5,Undetermined/Insufficient Data,,,0,No,Undetermined/Insufficient Data,,
08-003-0001,080030001,37.469391001,-105.878691,Alamosa - Adams State,Southwest,0,P98V,,,,,,,,,,,,,,,,,,,,,,,,,12.8,0,1,7,Colorado,,No,PM2.5,Undetermined/Insufficient Data,,,0,No,Undetermined/Insufficient Data,,
08-005-0005,080050005,39.604399001,-105.019526,Arapahoe Community College,Southwest,0,P98V,21.4,25.2,23.4,24,20.6,22,19.2,21.9,16.2,16.4,15,12.2,28.1,21.8,17.2,22.9,11.6,18.9,20.1,26.6,24.1,25.4,11,16,17.5,1,25,7,Colorado,"Denver-Aurora-Lakewood, CO",Yes,PM2.5,No Trend,-0.2,0.1181483589,1,Yes,No Trend,0.0769230769,0.4612850452
08-007-0001,080070001,37.268420001,-107.009659,PAGOSA SPRINGS SCHOOL,Southwest,0,P98V,,,20.6,12.5,13.7,,6.5,,,,,,,,,,,,,,,,,,,0,4,7,Colorado,,No,PM2.5,Undetermined/Insufficient Data,,,,,,,
08-013-0003,080130003,40.164576001,-105.100856,LONGMONT - MUNICIPAL BLDG,Southwest,0,P98V,21.1,26.5,21.6,28.6,21.7,16.7,20,28,23,19,23,18.8,27.6,22.7,26.2,23.4,25.8,18.6,22.5,19.9,38.6,36.2,16.7,18.7,23.5,1,25,7,Colorado,"Boulder, CO",Yes,PM2.5,No Trend,-0.008012821,0.4723715591,1,Yes,No Trend,-0.1,0.3485907127
08-013-0012,080130012,40.021097001,-105.263382,BOULDER CHAMBER OF COMMERCE,Southwest,0,P98V,19.1,19.2,24.3,19.3,18.7,18.4,15.7,25,17.1,15.1,22.2,12.8,17.1,17,15.8,18.4,16.4,17.4,22,19,30.9,24.5,14.2,14.6,,1,24,7,Colorado,"Boulder, CO",Yes,PM2.5,No Trend,-0.141875,0.1005783894,1,Yes,No Trend,0.06,0.5
08-013-1001,080131001,40.012969001,-105.267212,BOULDER - CU-ATHENS,Southwest,0,P98V,,,,,,,,,,,,,,,,,,,,,,,,,17.2,0,1,7,Colorado,"Boulder, CO",No,PM2.5,Undetermined/Insufficient Data,,,0,No,Undetermined/Insufficient Data,,
08-029-0004,080290004,38.739213001,-108.073118,DELTA HEALTH DEPT,Southwest,0,P98V,,,17.3,25.6,27.2,14.1,16.4,,,,,,,,,,,,,,,,,,,0,5,7,Colorado,,No,PM2.5,Undetermined/Insufficient Data,,,,,,,
08-029-0007,080290007,38.876400001,-107.6023,"Paonia, Colorado",Southwest,0,P98V,,,,,,,,,,,,,,,,,,,,7.4,19.8,,,,,0,2,7,Colorado,,No,PM2.5,Undetermined/Insufficient Data,,,0,No,Undetermined/Insufficient Data,,
08-031-0002,080310002,39.751184001,-104.987625,DENVER - CAMP,Southwest,0,P98V,27.9,37.2,24.5,26.3,22.9,29.4,24.3,29.1,20.4,18,19,19.4,18.8,20.3,22.6,22.5,18,20.4,20.2,23.8,27.5,27.1,15.7,21.9,17.3,1,25,7,Colorado,"Denver-Aurora-Lakewood, CO",Yes,PM2.5,Decreasing,-0.305,0.0085941087,1,Yes,No Trend,0.2083333333,0.2794830361
08-031-0013,080310013,39.738578001,-104.939925,DENVER - NJH-E,Southwest,0,P98V,,,,,,,,,,,,,,,,,,,20.1,21.8,38.1,35.6,13.9,16.3,18.5,0,7,7,Colorado,"Denver-Aurora-Lakewood, CO",No,PM2.5,Undetermined/Insufficient Data,,,0,No,Undetermined/Insufficient Data,,
08-031-0023,080310023,39.781083001,-104.95665,Denver Swansea Elementary School,Southwest,0,P98V,,,,,,26.4,22.7,30,23.6,17.3,18.9,19.7,20.8,,,,,,,,,,,,,0,8,7,Colorado,"Denver-Aurora-Lakewood, CO",No,PM2.5,Undetermined/Insufficient Data,,,0,No,Undetermined/Insufficient Data,,
08-031-0025,080310025,39.704005001,-104.998113,DENVER MUNICIPAL ANIMAL SHELTER,Southwest,0,P98V,,,,,,,,,19.4,19.3,17.1,16.5,,,,,,,,,,,,,,0,4,7,Colorado,"Denver-Aurora-Lakewood, CO",No,PM2.5,Undetermined/Insufficient Data,,,0,No,Undetermined/Insufficient Data,,
08-031-0026,080310026,39.77949,-105.00518,La Casa,Southwest,0,P98V,,,,,,,,,,,,,,21.5,26,19.8,17,21,20.3,21,34.3,27.5,15.2,17.5,18.3,0,12,7,Colorado,"Denver-Aurora-Lakewood, CO",No,PM2.5,Undetermined/Insufficient Data,,,0,No,Undetermined/Insufficient Data,,
08-031-0027,080310027,39.73217,-105.0153,I-25,Southwest,0,P98V,,,,,,,,,,,,,,,29.1,26.2,20.8,22.2,23.7,23,26.1,23.4,12.6,19.2,21.2,0,11,7,Colorado,"Denver-Aurora-Lakewood, CO",No,PM2.5,Undetermined/Insufficient Data,,,0,No,Undetermined/Insufficient Data,,
08-031-0028,080310028,39.7861,-104.9886,Globeville,Southwest,0,P98V,,,,,,,,,,,,,,,,,24.7,22.4,25.1,28.9,31.4,30.7,17.2,23,19.2,0,9,7,Colorado,"Denver-Aurora-Lakewood, CO",No,PM2.5,Undetermined/Insufficient Data,,,0,No,Undetermined/Insufficient Data,,
08-035-0003,080350003,39.519666701,-104.7671567,PM 2.5 MONITOR LOCATED ON ROOFTOP OF PARKER PUBLIC LIBRARY,Southwest,0,P98V,,14.6,,,,,,,,,,,,,,,,,,,,,,,,0,1,7,Colorado,"Denver-Aurora-Lakewood, CO",No,PM2.5,Undetermined/Insufficient Data,,,,,,,
08-035-0004,080350004,39.534488001,-105.070358,Chatfield State Park,Southwest,0,P98V,,,,,,,16.3,19.4,13.3,18.2,12.5,16,19.7,17.3,13,20.2,10.8,21,21.5,20,31.3,32.1,11.4,13.1,16.8,0,19,7,Colorado,"Denver-Aurora-Lakewood, CO",No,PM2.5,Undetermined/Insufficient Data,,,1,Yes,No Trend,0.38,0.1407830351
08-035-0005,080350005,39.332928,-104.745221,Castlewood Canyon State Park,Southwest,0,P98V,,,,,,,,,,,,,,,6.6,,,,,,,,,,,0,1,7,Colorado,"Denver-Aurora-Lakewood, CO",No,PM2.5,Undetermined/Insufficient Data,,,0,No,Undetermined/Insufficient Data,,
08-039-0001,080390001,39.231384001,-104.63477,ELBERT - BEN KELLY AIRPARK,Southwest,0,P98V,11,10.3,13.3,11,8.5,12.6,,,10.7,9.7,9.3,,,,,,,,,,,,,,,0,9,7,Colorado,"Denver-Aurora-Lakewood, CO",No,PM2.5,Undetermined/Insufficient Data,,,0,No,Undetermined/Insufficient Data,,
08-041-0008,080410008,38.895975001,-104.7612964,,Southwest,0,P98V,14.5,23.9,13.7,16,17.3,16.8,14.3,,,,,,,,,,,,,,,,,,,0,7,7,Colorado,"Colorado Springs, CO",No,PM2.5,Undetermined/Insufficient Data,,,,,,,
08-041-0011,080410011,38.828042001,-104.827739,RBD,Southwest,0,P98V,14.6,15.5,19.6,18.5,17.2,16.7,14.9,15.8,,,,,,,,,,,,,,,,,,0,8,7,Colorado,"Colorado Springs, CO",No,PM2.5,Undetermined/Insufficient Data,,,,,,,
08-041-0017,080410017,38.848014001,-104.828564,COLORADO SPRINGS - COLLEGE COLLEGE,Southwest,0,P98V,,,,,,,,,13.9,11.2,11.6,18.4,16.7,17.6,13.2,20.9,11.6,17.1,15.5,13.2,21.1,20.5,12,13.3,16.5,0,17,7,Colorado,"Colorado Springs, CO",No,PM2.5,Undetermined/Insufficient Data,,,1,Yes,No Trend,0,0.5
08-045-0019,080450019,39.43806,-108.02611,Battlement Mesa,Southwest,0,P98V,,,,,,,,,,,,,,8.7,10,,7.9,10.9,15.6,7.5,31.8,22.8,,9.7,,0,9,7,Colorado,"Glenwood Springs, CO",No,PM2.5,Undetermined/Insufficient Data,,,0,No,Undetermined/Insufficient Data,,
08-045-0020,080450020,39.5464,-107.3286,"Vogelaar Park, Glenwood Springs",Southwest,0,P98V,,,,,,,,,,,,,,,,12.8,,,,,,,,,,0,1,7,Colorado,"Glenwood Springs, CO",No,PM2.5,Undetermined/Insufficient Data,,,0,No,Undetermined/Insufficient Data,,
08-051-0005,080510005,38.878050301,-106.9746983,ROOFTOP OF MOUNT CRESTED BUTTE TOWN CENTER,Southwest,0,P98V,14.5,16.2,18.9,25.9,14.8,,,,,,,,,,,,,,,,,,,,,0,5,7,Colorado,,No,PM2.5,Undetermined/Insufficient Data,,,,,,,
08-051-0007,080510007,38.900392001,-106.966104,MT CRESTED BUTTE REALTY BLDG,Southwest,0,P98V,,,,,,,15.2,,,,,,,,,,,,,,,,,,,0,1,7,Colorado,,No,PM2.5,Undetermined/Insufficient Data,,,,,,,
08-057-0005,080570005,40.5506,-106.385,"Hebron, Colorado",Southwest,0,P98V,,,,,,,,,,,,,,,,,,,,,,,,10.2,,0,1,7,Colorado,,No,PM2.5,Undetermined/Insufficient Data,,,0,No,Undetermined/Insufficient Data,,
08-067-0008,080670008,37.267684401,-107.8745892,SITE IS LOCATED AT PARK ELEMENTARY SCHOOL ON ROOFTOP,Southwest,0,P98V,14.5,10.9,20.1,13.7,,,,,,,,,,,,,,,,,,,,,,0,4,7,Colorado,"Durango, CO",No,PM2.5,Undetermined/Insufficient Data,,,,,,,
08-067-7001,080677001,37.13678,-107.62863,UTE 1,Southwest,0,P98V,,,,,,,,,,,7.8,9.8,,,,7,,,,,,,,,,0,3,7,Colorado,"Durango, CO",No,PM2.5,Undetermined/Insufficient Data,,,0,No,Undetermined/Insufficient Data,,
08-067-7003,080677003,37.10258,-107.870219,UTE 3,Southwest,0,P98V,,,,,,,,,,,11.4,12.1,,,7.4,7.1,9.9,9.1,100.4,,,,,,,0,7,7,Colorado,"Durango, CO",No,PM2.5,Undetermined/Insufficient Data,,,0,No,Undetermined/Insufficient Data,,
08-069-0009,080690009,40.571288001,-105.079693,FORT COLLINS - CSU - Edison,Southwest,0,P98V,19.7,24.7,18,15.8,20,16.2,20.2,19.9,18.2,16.6,21.5,15.1,26.2,17.7,20,26.5,18.2,18.1,20.4,19.7,47,29.4,17.4,18.2,20.5,1,25,7,Colorado,"Fort Collins, CO",Yes,PM2.5,No Trend,0.0837719298,0.1276860461,1,Yes,No Trend,0.1,0.3485907127
08-077-0003,080770003,39.091600001,-108.563775,MESA CO HLTH DEPT BLDG,Southwest,0,P98V,18.4,20.7,18.2,16.2,,,,,,,,,,,,,,,,,,,,,,0,4,7,Colorado,"Grand Junction, CO",No,PM2.5,Undetermined/Insufficient Data,,,,,,,
08-077-0017,080770017,39.063798001,-108.561173,GRAND JUNCTION - POWELL BLDG,Southwest,0,P98V,,,,19.9,31.6,18.2,24.1,25.7,25.2,41,37.3,22.2,24.3,40,19.7,19.6,19.8,16.2,16.4,14.5,20.2,18,14.8,10.2,14.1,0,22,7,Colorado,"Grand Junction, CO",No,PM2.5,Undetermined/Insufficient Data,,,1,Yes,Decreasing,-1.04,0.0001651855
08-083-0006,080830006,37.350054001,-108.592334,Cortez - Health Dept,Southwest,0,P98V,,,,,,,,,,15,13.3,14.8,12.4,12.4,8.9,,,,,,,,,,,0,6,7,Colorado,,No,PM2.5,Undetermined/Insufficient Data,,,0,No,Undetermined/Insufficient Data,,
08-093-0002,080930002,39.240278,-105.983056,"Fairplay, Colorado",Southwest,0,P98V,,,,,,,,,,,,,,,,,7,11.1,,,,,,,,0,2,7,Colorado,"Denver-Aurora-Lakewood, CO",No,PM2.5,Undetermined/Insufficient Data,,,0,No,Undetermined/Insufficient Data,,
08-099-0002,080990002,38.084688001,-102.618641,Lamar Municipal Bldg,Southwest,0,P98V,,,,,,,,,,,,,,,,,,,,,,,,,18.6,0,1,7,Colorado,,No,PM2.5,Undetermined/Insufficient Data,,,0,No,Undetermined/Insufficient Data,,
08-101-0012,081010012,38.263058001,-104.612133,Pueblo Publics Works,Southwest,0,P98V,19.9,19.4,16.9,16.6,16.2,12.7,18.6,14.5,15.2,,,,,,,,,,,,,,,,,0,9,7,Colorado,"Pueblo, CO",No,PM2.5,Undetermined/Insufficient Data,,,,,,,
08-101-0015,081010015,38.276099001,-104.597613,Pueblo - Fountain School,Southwest,0,P98V,,,,,,,,,,,13.5,13.7,16.7,17.3,11.9,20.7,10.3,15.7,15.8,8.4,17.5,20.7,16.2,10.4,12.5,0,15,7,Colorado,"Pueblo, CO",No,PM2.5,Undetermined/Insufficient Data,,,1,Yes,No Trend,0,0.5387149548
08-103-0006,081030006,40.086944001,-108.761389,"Rangely, Golf Course",Southwest,0,P98V,,,,,,,,,,,,18.7,24.9,15.5,13,15.6,12.1,14.7,20.8,11.9,22.8,25.5,14.2,9.6,15,0,14,7,Colorado,,No,PM2.5,Undetermined/Insufficient Data,,,1,Yes,No Trend,-0.264285714,0.189725198
08-107-0003,081070003,40.485201001,-106.831625,Steamboat Springs,Southwest,0,P98V,,17.9,17.8,15.1,,,,,,,,,,,,,,,,,,,,,,0,3,7,Colorado,"Steamboat Springs, CO",No,PM2.5,Undetermined/Insufficient Data,,,,,,,
08-113-0004,081130004,37.937872001,-107.813061,Telluride,Southwest,0,P98V,,15.3,9.6,8.8,,8.2,,,,,,,,,,,,,,,,,,,,0,4,7,Colorado,,No,PM2.5,Undetermined/Insufficient Data,,,,,,,
08-123-0006,081230006,40.414877001,-104.70693,Greeley - Hospital,Southwest,0,P98V,21.7,32.7,20.7,20.7,24.7,20.7,22.7,28.5,20,25.7,20.4,22.5,32,20.5,26.5,25.8,27.8,22,23.6,25.7,37.3,31,22.1,23.3,20.6,1,25,7,Colorado,"Greeley, CO",Yes,PM2.5,No Trend,0.0743421053,0.2224284307,1,Yes,No Trend,0.02,0.4229205212
08-123-0008,081230008,40.209387001,-104.82405,Platteville - Middle School,Southwest,0,P98V,20.4,35.7,25.9,18.8,16.8,17.8,22.3,31,23.2,23,17.2,20.4,21.5,19.7,32.3,29.2,32.6,17.2,20.5,22.9,29.7,28,20.4,21.9,24.8,1,25,7,Colorado,"Greeley, CO",Yes,PM2.5,No Trend,0.1,0.2660958201,1,Yes,No Trend,0.2666666667,0.1641167938
09-001-0010,090010010,41.170833001,-73.194722,Roosevelt School-Bridgeport,Northeast,0,P98V,41.5,40.1,35.3,39.6,34.2,38.3,36.7,30.2,32.3,29.3,23.3,23.7,21.5,22.5,25,23.9,22.9,17.2,20,18.8,22,19.2,15.5,27.1,15.2,1,25,3,Connecticut,"Bridgeport-Stamford-Norwalk, CT",Yes,PM2.5,Decreasing,-1.0475,3.15405E-9,1,Yes,Decreasing,-0.5,0.0294979225
09-001-0113,090010113,41.183707795,-73.18983451,,Northeast,0,P98V,,32.1,34.5,40.4,,,,,,,,,,,,,,,,,,,,,,0,3,3,Connecticut,"Bridgeport-Stamford-Norwalk, CT",No,PM2.5,Undetermined/Insufficient Data,,,,,,,
09-001-1123,090011123,41.399167001,-73.443056,Western Conn State Univ,Northeast,0,P98V,32.9,35.2,33,37.3,27.5,33.4,33.8,30.4,27.5,27.6,25.7,24.8,21.6,27.4,22.1,25.6,21.1,20.1,21,18,23.7,19.9,19.1,25,17.3,1,25,3,Connecticut,"Bridgeport-Stamford-Norwalk, CT",Yes,PM2.5,Decreasing,-0.73875,1.0863928E-8,1,Yes,Decreasing,-0.48,0.0041349995
09-001-2124,090012124,41.063152859,-73.52845612,HILLANDALE      AVE.,Northeast,0,P98V,36.3,37.4,34.6,41.5,32.2,,,,,,,,,,,,,,,,,,,,,0,5,3,Connecticut,"Bridgeport-Stamford-Norwalk, CT",No,PM2.5,Undetermined/Insufficient Data,,,,,,,
09-001-3005,090013005,41.112500001,-73.407222,Health Dept,Northeast,0,P98V,,35.7,35,42.9,29,34.9,35.9,31.9,26.3,29.3,23,25.2,22.5,,,,,,,,,,,,,0,12,3,Connecticut,"Bridgeport-Stamford-Norwalk, CT",No,PM2.5,Undetermined/Insufficient Data,,,0,No,Undetermined/Insufficient Data,,
09-001-9003,090019003,41.118333001,-73.336667,Sherwood Island Connector,Northeast,0,P98V,33.4,34.5,33.1,44,30.9,35.2,31.3,29,30.7,26.4,24.2,28.7,19.5,21.2,21.1,23.8,,,,,,,,,,0,16,3,Connecticut,"Bridgeport-Stamford-Norwalk, CT",No,PM2.5,Undetermined/Insufficient Data,,,0,No,Undetermined/Insufficient Data,,
09-003-0025,090030025,41.771444,-72.679923,Huntley Place-Hartford,Northeast,0,P98V,,,,,,,,,,,,,,,,22.8,18.8,17.2,19.4,17,18.8,17.5,16.7,24.2,16.6,0,10,3,Connecticut,"Hartford-West Hartford-East Hartford, CT",No,PM2.5,Undetermined/Insufficient Data,,,0,No,Undetermined/Insufficient Data,,
09-003-1003,090031003,41.784722001,-72.631667,McAuliffe Park,Northeast,0,P98V,32.3,32.8,38.4,35,28.9,34,31.2,29.3,24.6,24.6,24.2,24.3,18,23.6,17.4,19.2,18.3,17.4,17.7,14.6,17.6,17.3,15.9,23,15.9,1,25,3,Connecticut,"Hartford-West Hartford-East Hartford, CT",Yes,PM2.5,Decreasing,-0.866666667,8.352592E-10,1,Yes,Decreasing,-0.32,0.0029507931
09-003-1018,090031018,41.760932974,-72.67037004,,Northeast,0,P98V,29,32.5,32.6,45.1,,,,,,,,,,,,,,,,,,,,,,0,4,3,Connecticut,"Hartford-West Hartford-East Hartford, CT",No,PM2.5,Undetermined/Insufficient Data,,,,,,,
09-003-2006,090032006,41.742500001,-72.634444,High Street,Northeast,0,P98V,,,,,,,,,26.4,26.1,23.5,23.2,20.3,22.8,21.9,,,,,,,,,,,0,7,3,Connecticut,"Hartford-West Hartford-East Hartford, CT",No,PM2.5,Undetermined/Insufficient Data,,,0,No,Undetermined/Insufficient Data,,
09-005-0004,090050004,41.64486,-73.07908,THOMASTON WPCF,Northeast,0,P98V,,,,,,,,29.3,24.8,18,,,,,,,,,,,,,,,,0,3,3,Connecticut,"Torrington, CT",No,PM2.5,Undetermined/Insufficient Data,,,,,,,
09-005-0005,090050005,41.821342001,-73.297257,Mohawk Mt-Cornwall,Northeast,0,P98V,,,,,,25.4,25.1,31,22.2,15.8,19.1,17,15,13.2,12.2,14.9,13.8,11.6,13.2,10.7,12.8,14.9,10.5,22.8,13.3,0,20,3,Connecticut,"Torrington, CT",No,PM2.5,Undetermined/Insufficient Data,,,1,Yes,No Trend,-0.284615385,0.0697314296
09-009-0018,090090018,41.29398608,-72.90093486,,Northeast,0,P98V,39.5,40.6,41.9,41.5,34.9,,,,,,,,,,,,,,,,,,,,,0,5,3,Connecticut,"New Haven-Milford, CT",No,PM2.5,Undetermined/Insufficient Data,,,,,,,
09-009-0026,090090026,41.291111001,-72.894167,,Northeast,0,P98V,,,,,31.5,36.4,36.5,29.8,30.9,28.5,,,,,,,,,,,,,,,,0,6,3,Connecticut,"New Haven-Milford, CT",No,PM2.5,Undetermined/Insufficient Data,,,,,,,
09-009-0027,090090027,41.301400001,-72.902871,Criscuolo Park-New Haven,Northeast,0,P98V,,,,,33.2,38.2,36.7,30.5,31.5,30.2,25.5,27.5,20.6,25.1,18.3,22,19.8,17,19.3,17.9,22.4,20.4,16.3,24.5,15.1,0,21,3,Connecticut,"New Haven-Milford, CT",No,PM2.5,Undetermined/Insufficient Data,,,1,Yes,Decreasing,-0.56,0.0137476326
09-009-1123,090091123,41.310833,-72.916944,State St-New Haven,Northeast,0,P98V,37.2,39.5,35.3,44,36.2,40.8,38,30.6,32.1,30.8,23.9,26.6,22,21.9,,,,,,,,,,,,0,14,3,Connecticut,"New Haven-Milford, CT",No,PM2.5,Undetermined/Insufficient Data,,,0,No,Undetermined/Insufficient Data,,
09-009-2008,090092008,41.331389,-72.919722,,Northeast,0,P98V,,,,,32.1,32.8,33.9,28.5,25.4,27.3,,,,,,,,,,,,,,,,0,6,3,Connecticut,"New Haven-Milford, CT",No,PM2.5,Undetermined/Insufficient Data,,,,,,,
09-009-2123,090092123,41.550556,-73.043611,Meadow and Bank Streets,Northeast,0,P98V,34.4,35.4,33.3,37.7,30.4,35.9,35.6,32.7,28.4,28.1,25.7,24.3,20.6,23.8,26.2,22.3,20.6,16.3,22,16.8,19.6,20.3,17.5,22.7,13.9,1,25,3,Connecticut,"New Haven-Milford, CT",Yes,PM2.5,Decreasing,-0.876623377,4.809667E-9,1,Yes,Decreasing,-0.566666667,0.005704958
09-009-8003,090098003,41.27787514,-72.96399159,,Northeast,0,P98V,,,,,30.8,,,,,,,,,,,,,,,,,,,,,0,1,3,Connecticut,"New Haven-Milford, CT",No,PM2.5,Undetermined/Insufficient Data,,,,,,,
09-009-9005,090099005,41.341111,-72.921389,????,Northeast,0,P98V,34.7,32.1,30.8,44,,,,,,,,,,,,,,,,,,,,,,0,4,3,Connecticut,"New Haven-Milford, CT",No,PM2.5,Undetermined/Insufficient Data,,,,,,,
09-011-0124,090110124,41.35362,-72.07882,Fort Griswold Park,Northeast,0,P98V,,,,,,,,,,,,,,,21.7,17.1,14.9,13.7,16.9,14.7,14.8,15,13.2,24.2,14.8,0,11,3,Connecticut,"Norwich-New London, CT",No,PM2.5,Undetermined/Insufficient Data,,,0,No,Undetermined/Insufficient Data,,
09-011-3002,090113002,41.524167,-72.076667,Court House-Norwich,Northeast,0,P98V,27.6,34.4,29.6,38.4,30.1,34.8,28.3,28.7,25,24.2,21.3,22.6,19.7,18.8,,,,,,,,,,,,0,14,3,Connecticut,"Norwich-New London, CT",No,PM2.5,Undetermined/Insufficient Data,,,0,No,Undetermined/Insufficient Data,,
10-001-0002,100010002,38.986672,-75.5568,PROPERTY OF KILLENS POND STATE PARK; BEHIND FARM BUILDINGS,Northeast,0,P98V,34.4,34.4,47.2,31.2,31,34.6,30.7,30.9,27.6,20.7,21,23.6,19.6,19.7,20.7,20.6,17,16.8,16.1,18.2,12.4,15.5,13,39,16.9,1,25,3,Delaware,"Dover, DE",Yes,PM2.5,Decreasing,-0.965151515,1.0162367E-7,1,Yes,Decreasing,-0.525,0.0103953077
10-001-0003,100010003,39.155626,-75.518213,PLATFORM IN FIELD BEHIND DELAWARE FED. CREDIT UNION BLDG,Northeast,0,P98V,27.8,38.3,45.5,34.9,28.9,33.6,29.9,30.2,28.7,19.4,24.9,24.1,21.4,22.2,19.7,21.5,15.1,15.2,12.8,16.6,,,14.7,27.2,15.5,1,23,3,Delaware,"Dover, DE",Yes,PM2.5,Decreasing,-0.98136646,3.8763318E-7,1,Yes,Decreasing,-0.666666667,0.0231462377
10-003-1003,100031003,39.761273,-75.492047,Bellefonte River Road Park,Northeast,0,P98V,38.2,40.7,39,35.8,32.5,34.8,30.9,32.3,31.6,23.2,24.3,22.4,21.5,24.9,23,24.9,19.4,17.7,16.7,22.4,,18.8,12.9,27.6,15.6,1,24,3,Delaware,"Philadelphia-Camden-Wilmington, PA-NJ-DE-MD",Yes,PM2.5,Decreasing,-0.98875,1.0863928E-8,1,Yes,Decreasing,-0.6,0.0294979225
10-003-1007,100031007,39.5513,-75.732,Lums Pond,Northeast,0,P98V,36.4,35.9,42.1,36.5,30.8,36.2,28.8,29.6,28.1,20.6,27.5,21,21.1,21.9,19.7,21.7,15,17.2,16.8,17.9,15.1,19.7,14.5,26.8,13.9,1,25,3,Delaware,"Philadelphia-Camden-Wilmington, PA-NJ-DE-MD",Yes,PM2.5,Decreasing,-0.988194444,1.610353E-8,1,Yes,Decreasing,-0.590909091,0.0137476326
10-003-1008,100031008,39.57768,-75.603658,Route 9 Delaware City,Northeast,0,P98V,,,,,,,,,,,,,,,32,,,16.1,15.1,17.7,14.8,20,13.1,25.7,13.7,0,9,3,Delaware,"Philadelphia-Camden-Wilmington, PA-NJ-DE-MD",No,PM2.5,Undetermined/Insufficient Data,,,0,No,Undetermined/Insufficient Data,,
10-003-1012,100031012,39.691944,-75.761667,Newark  PARKING LOT LAIRD CAMPUS,Northeast,0,P98V,39.1,40.9,42.4,36.4,29.1,35,30.5,31,28.6,23.4,24.9,22.2,21.3,27.4,23.9,26.7,18.4,19.4,17.2,19.6,,17.5,13.6,36.7,16.9,1,24,3,Delaware,"Philadelphia-Camden-Wilmington, PA-NJ-DE-MD",Yes,PM2.5,Decreasing,-0.969642857,1.0162367E-7,1,Yes,Decreasing,-0.588888889,0.0137476326
10-003-2004,100032004,39.739462,-75.557554,MLK  CORNER OF MLK BLVD AND JUSTISON ST,Northeast,0,P98V,39.3,43.2,46.1,38.3,33.8,37.7,38.7,33.6,34.8,28.4,27.9,29.4,24.2,27.3,24.8,26.4,19.7,19,18.9,20.3,16.8,19.3,16.4,23.9,15.7,1,25,3,Delaware,"Philadelphia-Camden-Wilmington, PA-NJ-DE-MD",Yes,PM2.5,Decreasing,-1.151315789,1.39395E-11,1,Yes,Decreasing,-0.871428571,0.0001651855
10-005-1002,100051002,38.6539,-75.6106,Seaford Shipley State Service Center,Northeast,0,P98V,36,41.6,44,30.7,35.1,34.7,33.3,32.5,27,20.2,26.5,24.2,22.1,20.9,21.3,22,14.8,16.3,15.9,19.5,15,20.1,13.7,28.6,14.5,1,25,3,Delaware,"Salisbury, MD-DE",Yes,PM2.5,Decreasing,-1.054411765,1.610353E-8,1,Yes,Decreasing,-0.625,0.0077554116
11-001-0041,110010041,38.895572,-76.958072,RIVER TERRACE,Northeast,0,P98V,41.2,44.8,47.8,39,38.4,36.2,35,32.8,29.2,24.3,28.3,24.7,27.8,22.6,,,,18.3,21.1,23,17.8,19.5,15.4,29.7,15.2,0,22,3,District of Columbia,"Washington-Arlington-Alexandria, DC-VA-MD-WV",No,PM2.5,Undetermined/Insufficient Data,,,0,No,Undetermined/Insufficient Data,,
11-001-0042,110010042,38.876255091,-77.03405915,HAINS POINT PM-2.5 AND IMPROVE SITE ON ROOF OF PARK POLICE BLDG.,Northeast,0,P98V,43.9,35.1,35.9,38.7,36,36.4,33,28.7,31.4,22.7,23.2,26.2,24.3,18.6,21.1,21.6,,,,,,,,,,0,16,3,District of Columbia,"Washington-Arlington-Alexandria, DC-VA-MD-WV",No,PM2.5,Undetermined/Insufficient Data,,,0,No,Undetermined/Insufficient Data,,
11-001-0043,110010043,38.921847001,-77.013178,MCMILLAN  NCore-PAMS,Northeast,0,P98V,38.6,43.7,40,35.2,34.8,34.4,33.2,33.1,28.4,24,26.2,24.8,23.8,22.9,20,21.8,20,21.2,19.3,20.3,16.5,18.2,15.1,29.6,15.3,1,25,3,District of Columbia,"Washington-Arlington-Alexandria, DC-VA-MD-WV",Yes,PM2.5,Decreasing,-1.03974359,1.39395E-11,1,Yes,Decreasing,-0.714285714,0.0009679814
11-001-0051,110010051,38.894770001,-76.953426,Near Road,Northeast,0,P98V,,,,,,,,,,,,,,,,,22.7,19.5,20.6,23.5,21.1,21.2,16.6,28.6,13.9,0,9,3,District of Columbia,"Washington-Arlington-Alexandria, DC-VA-MD-WV",No,PM2.5,Undetermined/Insufficient Data,,,0,No,Undetermined/Insufficient Data,,
11-001-0053,110010053,38.875161001,-77.012816,King Greenleaf Rec Center,Northeast,0,P98V,,,,,,,,,,,,,,,,,,,19.1,21.1,17.2,20.1,16,29,14.5,0,7,3,District of Columbia,"Washington-Arlington-Alexandria, DC-VA-MD-WV",No,PM2.5,Undetermined/Insufficient Data,,,0,No,Undetermined/Insufficient Data,,
12-001-0023,120010023,29.706111001,-82.387778,MILLHOPPER,Southeast,0,P98V,26.5,24.2,24.4,18.5,19.9,24.7,20.1,38.1,15,17.1,16.4,,,16.5,,11.9,14.8,16.5,14.3,,,,,,,0,16,6,Florida,"Gainesville, FL",No,PM2.5,Undetermined/Insufficient Data,,,0,No,Undetermined/Insufficient Data,,
12-001-0024,120010024,29.658577814,-82.40816214,Alachua,Southeast,0,P98V,26.5,23.2,24.7,18.8,18.7,23,20,32.1,16.9,19.4,,,,,,,,,,,,,,,,0,10,6,Florida,"Gainesville, FL",No,PM2.5,Undetermined/Insufficient Data,,,,,,,
12-001-3012,120013012,29.566112001,-82.26608,Paynes Prairie Farm,Southeast,0,P98V,,,,,,,,,,,,,,,,,,,,14.9,15,10.3,11.8,16.8,15.5,0,6,6,Florida,"Gainesville, FL",No,PM2.5,Undetermined/Insufficient Data,,,0,No,Undetermined/Insufficient Data,,
