"site_id","site","latitude","longitude","local_site_name","noaa_region","POC","statistic","val2000","val2001","val2002","val2003","val2004","val2005","val2006","val2007","val2008","val2009","val2010","val2011","val2012","val2013","val2014","val2015","val2016","val2017","val2018","val2019","val2020","val2021","val2022","val2023","val2024","trendsite_2000_2024","nyrs","region","state","cbsa","used_in_nat_agg_2000_2024","parameter_name","trend_2000_2024","beta_2000_2024","prob_2000_2024","trendsite_2010_2024","used_in_nat_agg_2010_2024","trend_2010_2024","beta_2010_2024","prob_2010_2024"
01-003-0010,010030010,30.497478001,-87.880258,"FAIRHOPE, Alabama",Southeast,0,WTDAM,14.528161184,10.579318356,10.370666602,12.167528736,11.356519329,11.747826087,11.241734353,10.36251294,9.8721735246,,10.239086022,9.9601231527,9.2116935484,8.3747875616,8.9021408046,8.5735164835,7.2313459399,7.4234798535,7.1296648551,7.4967199132,7.9286009558,7.2785239297,7.3344979872,7.5957992831,6.8869916277,1,24,6,Alabama,"Daphne-Fairhope-Foley, AL",Yes,PM2.5,Decreasing,-0.237239656,3.253927E-10,1,Yes,Decreasing,-0.203329749,0.0006429304
01-027-0001,010270001,33.284928001,-85.803608,ASHLAND,Southeast,0,WTDAM,16.419771505,12.816820605,13.183017241,13.368921449,13.162083333,13.43266129,13.041854839,13.371327401,10.617763158,9.158255469,10.515906085,10.559940476,8.9054004449,8.0207738095,8.8814425287,8.2560344828,7.35522578,7.9387156511,6.957749296,7.4143309394,6.7873708188,6.8068992709,6.8887623153,8.1008360225,5.6941563924,1,25,6,Alabama,,Yes,PM2.5,Decreasing,-0.357024105,1.993546E-10,1,Yes,Decreasing,-0.262192356,0.00009995
01-033-1002,010331002,34.762619001,-87.638097,MUSCLE SHOALS,Southeast,0,WTDAM,15.620493503,12.817332253,12.808253354,12.885740741,11.751097701,13.235488506,12.56529848,13.539285714,11.199261084,9.4360889915,10.868741354,10.303242212,8.8256182796,8.6369252874,9.3500223499,8.7142324805,7.5146996074,7.4258213859,7.5300760104,,,,,,,0,19,6,Alabama,"Florence-Muscle Shoals, AL",No,PM2.5,Undetermined/Insufficient Data,,,0,No,Undetermined/Insufficient Data,,
01-049-1003,010491003,34.288567001,-85.969858,CROSSVILLE,Southeast,0,WTDAM,17.173076923,14.706439394,14.387033564,14.975676884,14.087204981,14.224505337,13.722384829,13.908783709,11.530762292,9.6807692308,11.550834941,11.161104077,9.2376795977,8.9873609566,9.6201315789,9.0496759259,7.7395882256,8.0210483871,7.0156445959,7.4609286025,7.141114611,7.7485267287,6.8590890084,8.8938484045,6.402243693,1,25,6,Alabama,"Fort Payne, AL",Yes,PM2.5,Decreasing,-0.409412348,1.229775E-12,1,Yes,Decreasing,-0.267372121,0.00009995
01-053-0002,010530002,31.106566823,-87.07108058,BREWTON (CLOSED 12/30/07),Southeast,0,WTDAM,16.804817323,12.45813321,11.874444444,12.719239896,12.656882503,13.706391893,13.150659993,13.27396591,,,,,,,,,,,,,,,,,,0,8,6,Alabama,,No,PM2.5,Undetermined/Insufficient Data,,,,,,,
01-055-0010,010550010,33.98821,-85.992556,GADSDEN C. COLLEGE,Southeast,0,WTDAM,19.516935069,,14.794256491,14.255820106,14.338988095,15.420892857,14.401660281,15.844092856,12.409682842,10.196968266,13.196117933,11.431097884,9.5742142266,9.2315591398,9.3344899366,9.1267559524,8.2359057971,8.8519973545,7.7561482335,8.3451155684,7.9294642857,8.3764895864,8.2049718935,9.8161810762,8.6691187646,1,24,6,Alabama,"Gadsden, AL",Yes,PM2.5,Decreasing,-0.395724498,1.0863928E-8,1,Yes,Decreasing,-0.147740595,0.0077554116
01-069-0002,010690002,31.228786649,-85.37548921,DOTHAN,Southeast,0,WTDAM,15.415625,14.001653736,13.027912707,13.795166494,,,,,,,,,,,,,,,,,,,,,,0,4,6,Alabama,"Dothan, AL",No,PM2.5,Undetermined/Insufficient Data,,,,,,,
01-069-0003,010690003,31.224783001,-85.390789,DOTHAN (CIVIC CENTER),Southeast,0,WTDAM,,,,,,13.1855,12.943930756,13.541095209,10.549140212,9.5171046512,12.116610938,10.198612479,8.8061457175,8.2777361751,8.672934352,7.3020430108,7.0740614572,8.6207730812,7.6504269294,8.1146079639,,,,,,0,15,6,Alabama,"Dothan, AL",No,PM2.5,Undetermined/Insufficient Data,,,0,No,Undetermined/Insufficient Data,,
01-073-0023,010730023,33.553056001,-86.815,North Birmingham,Southeast,0,WTDAM,22.305742486,19.087245019,17.46125969,17.383107884,17.663415751,19.634120597,18.389129462,18.82221917,15.523399844,11.667486931,13.823012127,13.312091151,11.855855684,11.182700499,11.665352078,10.843382565,10.306996114,10.176755189,9.604569036,10.283956248,9.8502199074,9.7093869732,8.9988466275,10.068333333,11.9349182,1,25,6,Alabama,"Birmingham-Hoover, AL",Yes,PM2.5,Decreasing,-0.484312967,2.0473539E-9,1,Yes,Decreasing,-0.251486328,0.0006429304
01-073-1005,010731005,33.331111001,-87.003611,McAdory,Southeast,0,WTDAM,16.910808306,14.970833333,15.02172043,14.104704301,14.571746385,16.315679459,15.579408602,15.788580831,12.218817204,10.37515553,11.821848118,11.677696515,10.124584724,9.7332823508,,9.6107258065,8.4822849462,8.928655914,8.7473531844,8.681679644,8.2077083333,8.1763095238,8.0220833333,8.993452381,,1,23,6,Alabama,"Birmingham-Hoover, AL",Yes,PM2.5,Decreasing,-0.356555344,5.244786E-10,1,Yes,Decreasing,-0.206240093,0.0001651855
01-073-1009,010731009,33.459722001,-87.305556,,Southeast,0,WTDAM,16.659061921,13.340301724,12.328228587,12.208306452,12.431218285,14.518069151,13.44295977,14.195192807,10.825947581,9.5668358876,10.065376344,10.293940489,,,,,,,,,,,,,,0,12,6,Alabama,"Birmingham-Hoover, AL",No,PM2.5,Undetermined/Insufficient Data,,,0,No,Undetermined/Insufficient Data,,
01-073-1010,010731010,33.545278001,-86.549167,Leeds,Southeast,0,WTDAM,,,,,14.743958333,16.726458333,15.320520833,16.541666667,13.178214286,10.3178125,12.068854167,12.317291667,10.5025,10.228854167,9.9530208333,10.130208333,9.2516666667,8.8761458333,9.1660416667,8.3421875,8.21125,8.0069940476,8.4773874224,9.7701404815,8.8309237095,0,21,6,Alabama,"Birmingham-Hoover, AL",No,PM2.5,Undetermined/Insufficient Data,,,1,Yes,Decreasing,-0.268182151,0.00009995
01-073-2003,010732003,33.499722001,-86.924167,Wylam,Southeast,0,WTDAM,20.736049695,17.93138384,16.593260257,15.632738675,15.861956654,17.935831044,18.047682177,17.095780275,14.403498277,11.348518267,12.435011083,12.322435481,11.199368183,9.8826075269,11.265080645,10.298355168,8.6616666667,9.5014516129,8.8180932518,8.6472311828,8.0434408602,8.7392472182,7.7844354839,9.8278457545,8.9595944023,1,25,6,Alabama,"Birmingham-Hoover, AL",Yes,PM2.5,Decreasing,-0.473529968,8.352592E-10,1,Yes,Decreasing,-0.292482609,0.0006429304
01-073-2006,010732006,33.386389001,-86.816667,Hoover,Southeast,0,WTDAM,18.522920838,15.604310345,14.42169911,14.119618094,14.391824249,15.720080645,15.296236559,15.248924731,12.095591398,10.250736003,11.770366379,11.219454023,,,,,,,,,,,,,,0,12,6,Alabama,"Birmingham-Hoover, AL",No,PM2.5,Undetermined/Insufficient Data,,,0,No,Undetermined/Insufficient Data,,
01-073-2059,010732059,33.521427486,-86.844112,Arkadelphia/Near Road,Southeast,0,WTDAM,,,,,,,,,,,,,,,11.1459375,11.780595238,10.814583333,10.326163004,10.213854167,9.3424839744,9.8071200511,9.5435331144,9.0007212854,9.9818518519,9.461875,0,11,6,Alabama,"Birmingham-Hoover, AL",No,PM2.5,Undetermined/Insufficient Data,,,0,No,Undetermined/Insufficient Data,,
01-073-5002,010735002,33.704722001,-86.669167,,Southeast,0,WTDAM,16.51578533,14.314516129,13.347945866,13.465172414,13.518368455,15.212231183,14.308225806,15.03015745,11.91295977,9.925687404,10.946344086,10.784164813,,,,,,,,,,,,,,0,12,6,Alabama,"Birmingham-Hoover, AL",No,PM2.5,Undetermined/Insufficient Data,,,0,No,Undetermined/Insufficient Data,,
01-073-5003,010735003,33.801667001,-86.9425,Corner,Southeast,0,WTDAM,16.782634409,14.666685824,13.325901001,13.526671301,13.660376344,15.425510753,14.483936782,14.748032073,11.478378754,9.7409408602,10.651505376,10.787588061,,,,,,,,,,,,,,0,12,6,Alabama,"Birmingham-Hoover, AL",No,PM2.5,Undetermined/Insufficient Data,,,0,No,Undetermined/Insufficient Data,,
01-089-0014,010890014,34.68547,-86.58816,HUNTSVILLE OLD AIRPORT,Southeast,0,WTDAM,16.282090286,14.603326845,13.800680077,13.772553763,13.377565814,14.401850204,13.260420507,14.267117167,12.17018054,9.9777419355,11.584182028,11.337508755,9.2668335187,8.6355181683,8.999054505,8.1635752688,7.6452199134,7.4845026882,7.4474462366,7.3884204672,7.0742473118,7.4627150538,7.1419229288,8.6382940489,7.4110872374,1,25,6,Alabama,"Huntsville, AL",Yes,PM2.5,Decreasing,-0.374184762,4.298828E-12,1,Yes,Decreasing,-0.219477064,0.00009995
01-097-0002,010970002,30.766519723,-88.07572735,ST. THOMAS,Southeast,0,WTDAM,14.854100985,12.727889321,12.105155993,12.818244127,12.980968051,12.909920977,,,,,,,,,,,,,,,,,,,,0,6,6,Alabama,"Mobile, AL",No,PM2.5,Undetermined/Insufficient Data,,,,,,,
01-097-0003,010970003,30.770181001,-88.087761,CHICKASAW,Southeast,0,WTDAM,,,,12.076958128,11.941904762,12.760190711,12.792685391,11.45975,10.092655423,9.6060668277,9.784112069,10.029137931,8.7790357143,8.2774048801,9.0377380952,8.3747454844,8.0912532443,7.9581904762,8.115022578,8.2654429392,8.0002421652,7.682010582,7.9117293907,8.749132337,8.0159113613,0,22,6,Alabama,"Mobile, AL",No,PM2.5,Undetermined/Insufficient Data,,,1,Yes,Decreasing,-0.086574302,0.0020714408
01-097-2005,010972005,30.474305001,-88.141022,BAY ROAD,Southeast,0,WTDAM,15.268138084,12.348345835,10.567585368,12.599433726,14.579070905,11.751877112,11.428596774,10.108061594,9.514457672,8.7157532841,9.4266447368,9.3773478702,,,,,,,,,,,,,,0,12,6,Alabama,"Mobile, AL",No,PM2.5,Undetermined/Insufficient Data,,,0,No,Undetermined/Insufficient Data,,
01-101-0007,011010007,32.425969936,-86.28524719,MONTGOMERY RCC CLOSED AND RELOCATED TO MOMS ON 01/15/2009,Southeast,0,WTDAM,17.154454354,14.246476569,14.339093702,14.021032629,13.82493604,14.408548387,14.432315536,14.40792447,11.783673435,,,,,,,,,,,,,,,,,0,9,6,Alabama,"Montgomery, AL",No,PM2.5,Undetermined/Insufficient Data,,,,,,,
01-101-1002,011011002,32.412811001,-86.263394,"MOMS, ADEM",Southeast,0,WTDAM,,,,,,,,,,10.558230544,11.996590233,11.080410641,10.536015532,9.2018834005,9.3757642089,9.0636458333,8.5393817204,8.9558333333,8.4199497457,8.9176149425,7.7928368749,7.8281468156,7.7520114943,10.349741348,7.1834918292,0,16,6,Alabama,"Montgomery, AL",No,PM2.5,Undetermined/Insufficient Data,,,1,Yes,Decreasing,-0.238953616,0.0000335518
01-103-0011,011030011,34.530717001,-86.967536,"DECATUR, Alabama",Southeast,0,WTDAM,,,13.07155085,13.681774194,12.226524842,13.688823899,13.19327957,14.354247312,11.3760901,10.651689403,11.218984826,10.489568966,8.9019086022,8.5557526882,9.3401167964,8.7724276974,7.3782072673,7.6672812537,7.3680190953,7.5844246032,6.9796526138,8.7257239832,8.0856700244,7.2664922481,7.3013407788,1,23,6,Alabama,"Decatur, AL",Yes,PM2.5,Decreasing,-0.310573291,1.0863928E-8,1,Yes,Decreasing,-0.225157153,0.0004182042
01-113-0001,011130001,32.472136001,-85.005028,PHENIX CITY,Southeast,0,WTDAM,18.543175287,16.630549376,15.268964912,15.361034483,16.111025213,15.6531637,15.726053022,15.579344723,13.09027574,11.179921662,13.021075269,12.292553763,11.414320541,9.9785483871,10.744562212,9.1501137304,,,,,,,,,,0,16,6,Alabama,"Columbus, GA-AL",No,PM2.5,Undetermined/Insufficient Data,,,0,No,Undetermined/Insufficient Data,,
01-113-0003,011130003,32.437028,-84.999653,PHENIX CITY - SOUTH GIRARD SCHOOL,Southeast,0,WTDAM,,,,,,,,,,,,,,,,,,10.614336849,9.0881098723,9.3785297233,8.5434498086,9.7618979868,9.1083347014,9.4993906628,8.6133045977,0,8,6,Alabama,"Columbus, GA-AL",No,PM2.5,Undetermined/Insufficient Data,,,0,No,Undetermined/Insufficient Data,,
01-117-0006,011170006,33.312926505,-86.821104,PELHAM,Southeast,0,WTDAM,16.6956289,14.695107527,13.633474959,14.888558389,13.815850614,14.853872888,14.08811828,14.899580089,11.580689655,9.8262684729,11.304244531,10.809677419,9.4771703297,8.9691532258,9.7433712375,,,,,,,,,,,0,15,6,Alabama,"Birmingham-Hoover, AL",No,PM2.5,Undetermined/Insufficient Data,,,0,No,Undetermined/Insufficient Data,,
01-119-0002,011190002,32.364009942,-88.20186465,GASTON (SUMTER),Southeast,0,WTDAM,15.297678571,12.108972521,11.749803271,12.098132184,11.418406593,12.253659802,,,,,,,,,,,,,,,,,,,,0,6,6,Alabama,,No,PM2.5,Undetermined/Insufficient Data,,,,,,,
01-119-0003,011190003,32.362606001,-88.277992,"Ward, Sumter Co.",Southeast,0,WTDAM,,,,,,,,,,,,,,,,,,,,,,6.2086602767,6.8390999391,5.4283043738,5.8486641981,0,4,6,Alabama,,No,PM2.5,Undetermined/Insufficient Data,,,0,No,Undetermined/Insufficient Data,,
01-121-0002,011210002,33.279470001,-86.349438,CHILDERSBURG,Southeast,0,WTDAM,18.228334038,14.64878549,14.113520431,15.449189815,13.911157179,14.186235632,,14.31798174,12.090266963,11.530031928,11.74138446,12.354533046,10.341369048,9.1945558672,9.2613146552,9.952364418,8.5770558557,8.7246887567,,,,,,,,0,17,6,Alabama,"Talladega-Sylacauga, AL",No,PM2.5,Undetermined/Insufficient Data,,,0,No,Undetermined/Insufficient Data,,
01-125-0003,011250003,33.217062271,-87.53889497,TUSC. (CLOSED),Southeast,0,WTDAM,16.312931034,,,,,,,,,,,,,,,,,,,,,,,,,0,1,6,Alabama,"Tuscaloosa, AL",No,PM2.5,Undetermined/Insufficient Data,,,,,,,
01-125-0004,011250004,33.189931001,-87.484189,"VA, TUSCALOOSA",Southeast,0,WTDAM,,,,12.703083554,12.650483871,13.881350575,13.482043011,14.008853768,11.312772126,10.452234192,13.41514506,10.754706897,9.3847435897,8.9676499529,9.3786644773,8.7223657951,7.4333271073,8.2255021368,7.7423599533,7.946739418,7.482037037,7.8387741569,7.5718840893,,,0,20,6,Alabama,"Tuscaloosa, AL",No,PM2.5,Undetermined/Insufficient Data,,,1,Yes,Decreasing,-0.205429167,0.00009995
01-125-0011,011250011,33.095379,-87.481507,"Duncanville Middle School, Duncanville (Tuscaloosa) Alabama",Southeast,0,WTDAM,,,,,,,,,,,,,,,,,,,,,,,,8.1236714661,5.5585263138,0,2,6,Alabama,"Tuscaloosa, AL",No,PM2.5,Undetermined/Insufficient Data,,,0,No,Undetermined/Insufficient Data,,
01-127-0002,011270002,33.832885387,-87.27250524,JASPER,Southeast,0,WTDAM,,,,13.84124001,12.745014475,14.178404378,14.137356322,14.613157477,11.746994809,10.112303552,11.252277299,11.182085401,,,,,,,,,,,,,,0,9,6,Alabama,"Birmingham-Hoover, AL",No,PM2.5,Undetermined/Insufficient Data,,,0,No,Undetermined/Insufficient Data,,
02-020-0018,020200018,61.205861001,-149.824602,GARDEN/TRINITY CHRISTIAN CHURCH,None,0,WTDAM,5.447012987,6.0764738598,5.9808602151,5.9417808809,6.9999462366,6.8965999258,6.2522500668,4.8804441328,5.5376472701,7.1348565324,6.1136196078,5.2078989301,6.5722558991,4.8728129481,6.0693515501,6.3051820728,6.5286740219,5.4882641175,5.374374758,8.2253994401,5.9059337188,6.0326994614,4.9299637104,4.2336838688,4.9869863821,1,25,0,Alaska,"Anchorage, AK",Yes,PM2.5,No Trend,-0.037295092,0.0925291374,1,Yes,No Trend,-0.079849671,0.1009214121
02-020-0044,020200044,61.181083001,-149.817389,ON THE ROOF OF THE ALLSTATE BUILDING,None,0,WTDAM,6.0533333333,6.1708537264,6.9326633581,,,,,,,,,,,,,,,,,,,,,,,0,3,0,Alaska,"Anchorage, AK",No,PM2.5,Undetermined/Insufficient Data,,,,,,,
02-020-0052,020200052,61.215027001,-149.903111,DHHS,None,0,WTDAM,,,,,,,,,,5.2618440548,4.7991813901,3.8958791209,4.8848214908,,,,,,,,,,,,,0,4,0,Alaska,"Anchorage, AK",No,PM2.5,Undetermined/Insufficient Data,,,0,No,Undetermined/Insufficient Data,,
02-020-1004,020201004,61.326700001,-149.569707,PARKGATE/EAGLE RIVER,None,0,WTDAM,,,,,,,,,,6.3138398693,5.4600650538,4.5744152798,5.3285556204,5.0369132084,5.3945199623,6.0851954174,4.8476657555,4.2248988787,5.1411719371,,,,,,,0,10,0,Alaska,"Anchorage, AK",No,PM2.5,Undetermined/Insufficient Data,,,0,No,Undetermined/Insufficient Data,,
02-068-0003,020680003,63.7232,-148.9676,Denali NP,None,0,WTDAM,,1.6357142857,2.4529059829,,,,,,,,,,,,,,,,,,,,,,,0,2,0,Alaska,,No,PM2.5,Undetermined/Insufficient Data,,,,,,,
02-090-0010,020900010,64.840672025,-147.7224613,STATE OFFICE BUILDING,None,0,WTDAM,14.948516385,13.028375576,12.929626437,9.7530208333,51.201583333,,11.457395833,10.735024962,11.302392473,16.430517241,13.046163396,10.846962366,10.747965994,11.881487179,10.320416667,11.845042467,8.8484064355,9.3371196554,7.9621290842,,,,,,,0,18,0,Alaska,"Fairbanks, AK",No,PM2.5,Undetermined/Insufficient Data,,,0,No,Undetermined/Insufficient Data,,
02-090-0029,020900029,64.846505683,-147.6924611,,None,0,WTDAM,,,,,,,,,12.996538462,,,,,,,,,,,,,,,,,0,1,0,Alaska,"Fairbanks, AK",No,PM2.5,Undetermined/Insufficient Data,,,,,,,
02-090-0033,020900033,64.752336,-147.347208,NORTH POLE ELEMENTARY SCHOOL,None,0,WTDAM,,,,,,,,,,15.774350985,10.651266824,,10.155229885,,,,,,,,,,,,,0,3,0,Alaska,"Fairbanks, AK",No,PM2.5,Undetermined/Insufficient Data,,,0,No,Undetermined/Insufficient Data,,
02-090-0034,020900034,64.84569,-147.727413,NCORE,None,0,WTDAM,,,,,,,,,,,12.598449388,10.372685185,11.271289396,11.716910522,10.358622544,12.511159163,9.1083600427,8.823296823,7.6266955064,10.129630288,7.2064333414,8.0186639175,11.266970888,8.3880918057,8.5010909516,0,15,0,Alaska,"Fairbanks, AK",No,PM2.5,Undetermined/Insufficient Data,,,1,Yes,Decreasing,-0.264546706,0.005704958
02-090-0035,020900035,64.762641,-147.310279,North Pole Fire Station #3,None,0,WTDAM,,,,,,,,,,,,,16.821904188,,,21.420416667,13.691157407,14.243481501,11.282825431,15.534972987,12.127393411,11.886913552,12.671553202,11.706609541,12.516121342,0,11,0,Alaska,"Fairbanks, AK",No,PM2.5,Undetermined/Insufficient Data,,,0,No,Undetermined/Insufficient Data,,
02-090-0040,020900040,64.845930001,-147.69327,A Street,None,0,WTDAM,,,,,,,,,,,,,,,,,,,,,8.256528618,,11.06039956,8.5320364386,8.5445383421,0,4,0,Alaska,"Fairbanks, AK",No,PM2.5,Undetermined/Insufficient Data,,,0,No,Undetermined/Insufficient Data,,
02-110-0004,021100004,58.388497124,-134.5672365,Floyd Dryden Middle School,None,0,WTDAM,6.5620967742,5.6141666667,6.2436720033,,6.6002437894,8.1190230182,8.5444246032,6.6071599617,7.0704273888,7.0409027197,8.6499818273,7.1027253891,6.3647404226,5.9276782005,7.7473562549,6.4916662681,5.9417868316,5.6087465791,6.8125274393,6.7528602576,4.7556388384,4.4325773383,4.7725682321,4.6608756039,4.503859447,1,24,0,Alaska,"Juneau, AK",Yes,PM2.5,Decreasing,-0.090830459,0.0098119527,1,Yes,Decreasing,-0.214684787,0.0004182042
02-110-0026,021100026,58.358874631,-134.5104265,THE SAMPLERS ARE LOCATED ON THE ROOF OF AN EIGHT FOOT TALL SHED,None,0,WTDAM,5.3516009558,,,,,,,,,,,,,,,,,,,,,,,,,0,1,0,Alaska,"Juneau, AK",No,PM2.5,Undetermined/Insufficient Data,,,,,,,
02-122-0008,021220008,60.48916667,-151.0693,"Kenai Peninsula Borough Building site, Soldotna",None,0,WTDAM,,,,,,,,,,,,,0.9567353767,,,,,,,,,,,,,0,1,0,Alaska,,No,PM2.5,Undetermined/Insufficient Data,,,0,No,Undetermined/Insufficient Data,,
02-170-0004,021700004,61.532508092,-150.2522289,,None,0,WTDAM,,3.6300109096,3.4771332565,,,,,,,,,,,,,,,,,,,,,,,0,2,0,Alaska,"Anchorage, AK",No,PM2.5,Undetermined/Insufficient Data,,,,,,,
02-170-0008,021700008,61.534163,-149.031655,BUTTE,None,0,WTDAM,6.0926149425,6.2599794745,5.5709833972,7.2598958333,,6.486004863,7.4825595238,5.549858871,6.1984865296,,7.5206859711,6.4064021083,5.8990759671,6.4259118893,7.9547027717,6.7814919723,5.7534807222,5.7007873552,4.576426203,6.4789833105,4.6037485703,4.3937422896,4.4306409334,4.0580078875,,1,22,0,Alaska,"Anchorage, AK",Yes,PM2.5,Decreasing,-0.093264911,0.0023132436,1,Yes,Decreasing,-0.221696773,0.0001651855
02-170-0010,021700010,61.52275,-149.083639,,None,0,WTDAM,,,,,,,,,,,,,,,,,,,,,,,,,3.7611208875,0,1,0,Alaska,"Anchorage, AK",No,PM2.5,Undetermined/Insufficient Data,,,0,No,Undetermined/Insufficient Data,,
02-170-0012,021700012,61.598897649,-149.1062196,Palmer,None,0,WTDAM,,,,,,,,,,,3.107282197,4.0886140276,4.1914915019,3.1550573586,2.278434609,2.6544592073,2.7557823645,3.1898801045,3.0019826752,,,,,,,0,9,0,Alaska,"Anchorage, AK",No,PM2.5,Undetermined/Insufficient Data,,,0,No,Undetermined/Insufficient Data,,
02-170-0013,021700013,61.598795943,-149.455255,Wasilla,None,0,WTDAM,,,,,,,,,,,,6.2718835512,5.7253963428,4.0418510351,3.8342959452,,,,,,,,,,,0,4,0,Alaska,"Anchorage, AK",No,PM2.5,Undetermined/Insufficient Data,,,0,No,Undetermined/Insufficient Data,,
02-232-0002,022320002,59.46008,-135.31053,SKAGWAY CITY SITE,None,0,WTDAM,,,,,6.1151785714,,,,,,,,,,,,,,,,,,,,,0,1,0,Alaska,,No,PM2.5,Undetermined/Insufficient Data,,,,,,,
04-001-1235,040011235,35.880403811,-109.4380032,Nazlini,Southwest,0,WTDAM,,,,,,,,,,3.9089423077,3.0283333333,,,,2.7534615385,,,2.568139881,2.4444047619,2.3528571429,3.1829017857,,2.4733333333,2.5893154762,,0,9,7,Arizona,,No,PM2.5,Undetermined/Insufficient Data,,,0,No,Undetermined/Insufficient Data,,
04-003-1005,040031005,31.3492,-109.539683,DOUGLAS RED CROSS,Southwest,0,WTDAM,8.8602850275,,7.3512229437,,7.1053125,7.3252827381,6.7787019231,6.3644230769,6.978452381,7.6131009615,6.7623809524,6.4933333333,6.7151041667,6.9342120801,7.2351377354,5.2009488395,3.8445769297,5.8254875703,5.5541768629,5.0709298003,,,,,,0,18,7,Arizona,"Sierra Vista-Douglas, AZ",No,PM2.5,Undetermined/Insufficient Data,,,0,No,Undetermined/Insufficient Data,,
04-005-1008,040051008,35.206111,-111.652777,FLAGSTAFF MIDDLE SCHOOL,Southwest,0,WTDAM,6.9236904762,,,,6.7746336996,6.0108516484,6.607172619,7.9961904762,5.9226190476,7.381875,5.075,5.1605208333,5.4217113095,5.4051041667,,,,,,,,,,,,0,11,7,Arizona,"Flagstaff, AZ",No,PM2.5,Undetermined/Insufficient Data,,,0,No,Undetermined/Insufficient Data,,
04-007-0008,040070008,34.229733,-111.3295,PAYSON WELL SITE,Southwest,0,WTDAM,10.159425926,8.8275679182,10.226467391,8.8633599867,9.5377403846,8.3837121212,9.037202381,9.3794047619,,,,,,,,,,,,,,,,,,0,8,7,Arizona,"Payson, AZ",No,PM2.5,Undetermined/Insufficient Data,,,,,,,
04-012-8000,040128000,34.2439,-113.5586,ALAMO LAKE,Southwest,0,WTDAM,,,,,,,,,,,,,,,1.9589994217,1.1184397993,2.3885129001,5.5643782848,5.0721836295,3.2549530369,4.221821381,3.9328940315,4.0201422796,2.3585253268,4.2009875398,0,11,7,Arizona,,No,PM2.5,Undetermined/Insufficient Data,,,0,No,Undetermined/Insufficient Data,,
04-013-0019,040130019,33.483780001,-112.14256,WEST PHOENIX,Southwest,0,WTDAM,,10.852678357,12.571842867,10.681341408,11.387005837,12.828079637,13.40844086,10.788741599,10.616204116,10.343198925,8.073712002,11.191762428,11.655442613,10.628251193,10.850997087,8.5672816399,8.7843439384,9.563227093,9.9189497794,8.1707402617,10.474333422,10.720490653,10.208721587,9.5013564506,10.144830615,1,24,7,Arizona,"Phoenix-Mesa-Scottsdale, AZ",Yes,PM2.5,Decreasing,-0.077461029,0.001971545,1,Yes,No Trend,-0.043947325,0.3485907127
04-013-1003,040131003,33.410180001,-111.86536,MESA,Southwest,0,WTDAM,,,,,,,9.6588864764,9.7187623153,8.445316092,7.2988097887,6.2541713014,8.9362068966,,5.6878420995,8.2786076381,6.6847251629,6.7482796491,8.1271867008,7.4166500317,5.1999690105,7.2986588526,6.7916468254,6.2962038657,6.5419913288,7.0326985454,0,18,7,Arizona,"Phoenix-Mesa-Scottsdale, AZ",No,PM2.5,Undetermined/Insufficient Data,,,1,Yes,No Trend,-0.05899559,0.2475254263
04-013-1004,040131004,33.560310001,-112.06619,NORTH PHOENIX,Southwest,0,WTDAM,,,,,,,,,,,,,9.2594451744,7.9983856032,8.0181360213,6.7318336084,6.4739373385,7.4622772702,7.3533796517,6.2944846703,7.8754747969,7.2889218135,6.9548777997,6.9711604971,7.2455408761,0,13,7,Arizona,"Phoenix-Mesa-Scottsdale, AZ",No,PM2.5,Undetermined/Insufficient Data,,,1,Yes,Decreasing,-0.138397038,0.005704958
04-013-2001,040132001,33.574530001,-112.19193,GLENDALE,Southwest,0,WTDAM,,,,,,,,,,,,,8.7447191697,7.5150387595,7.7332205234,6.961989321,6.7466086549,6.689784538,7.3314822408,6.3354841171,7.630335935,6.9900808887,6.1693780193,6.9891465871,7.4469182991,0,13,7,Arizona,"Phoenix-Mesa-Scottsdale, AZ",No,PM2.5,Undetermined/Insufficient Data,,,1,Yes,Decreasing,-0.123820359,0.0103953077
04-013-4003,040134003,33.403140001,-112.07526,SOUTH PHOENIX,Southwest,0,WTDAM,,,,,,12.841165081,12.689124821,12.266752874,10.929375089,10.996421744,8.5976960887,9.4395312971,9.2376789419,9.5940506185,10.273082056,8.9859140316,8.4463154029,8.9975292125,9.3692299367,7.4764918334,10.445833187,9.6225164822,11.085443744,9.2834923643,11.613849458,0,20,7,Arizona,"Phoenix-Mesa-Scottsdale, AZ",No,PM2.5,Undetermined/Insufficient Data,,,1,Yes,No Trend,0.101545211,0.0571235862
04-013-4005,040134005,33.411230001,-111.93471,TEMPE,Southwest,0,WTDAM,,,,,,,,,,,,,9.2674706147,8.6880684515,8.6256476057,,6.8432809606,7.1033554972,7.1085751447,5.7874475102,6.7829991779,7.5930420621,7.8130356252,7.2007136752,6.9277758534,0,12,7,Arizona,"Phoenix-Mesa-Scottsdale, AZ",No,PM2.5,Undetermined/Insufficient Data,,,1,Yes,Decreasing,-0.172229745,0.0041349995
04-013-4019,040134019,33.396230001,-111.96799,Diablo,Southwest,0,WTDAM,,,,,,,,,,,,,,,,7.8642098662,7.8862840558,8.0721647555,8.6184316107,6.8766332882,,,,,,0,5,7,Arizona,"Phoenix-Mesa-Scottsdale, AZ",No,PM2.5,Undetermined/Insufficient Data,,,0,No,Undetermined/Insufficient Data,,
04-013-4020,040134020,33.461730001,-112.12796,Thirty-Third,Southwest,0,WTDAM,,,,,,,,,,,,,,,,,,,,,13.180980445,,,,,0,1,7,Arizona,"Phoenix-Mesa-Scottsdale, AZ",No,PM2.5,Undetermined/Insufficient Data,,,0,No,Undetermined/Insufficient Data,,
04-013-4021,040134021,33.41046,-112.00264,Eastwood,Southwest,0,WTDAM,,,,,,,,,,,,,,,,,,,,,,7.4792067352,7.8837711692,7.5635688406,7.0262745588,0,4,7,Arizona,"Phoenix-Mesa-Scottsdale, AZ",No,PM2.5,Undetermined/Insufficient Data,,,0,No,Undetermined/Insufficient Data,,
04-013-7020,040137020,33.488130785,-111.8554428,Senior Center Air Monitoring Station,Southwest,0,WTDAM,,,,,,,8.083759733,7.3053763441,7.2497762726,6.2792559524,5.3957738095,5.1279166667,,5.266875,5.3705208333,4.7835989011,8.5513541667,7.7159375,7.5036755952,5.611875,8.0532142857,7.2110416667,6.2569791667,6.8739285714,7.0917804622,0,18,7,Arizona,"Phoenix-Mesa-Scottsdale, AZ",No,PM2.5,Undetermined/Insufficient Data,,,1,Yes,Increasing,0.1137042125,0.0463212835
04-013-9812,040139812,33.426500001,-112.11821,DURANGO COMPLEX,Southwest,0,WTDAM,,,,,,,,,,,,12.360308965,11.568358015,10.538716892,10.1211757,8.9730012077,9.4808943834,10.247184343,10.098433776,8.3813658315,10.524739468,10.233529028,9.7456300363,9.751289806,10.460372338,0,14,7,Arizona,"Phoenix-Mesa-Scottsdale, AZ",No,PM2.5,Undetermined/Insufficient Data,,,1,Yes,Decreasing,-0.135709759,0.0371674904
04-013-9990,040139990,33.39166,-111.926388,TEMPE COMMUNITY CENTER,Southwest,0,WTDAM,10.301622544,9.3671622717,10.363955453,9.6312684729,,,,,,,,,,,,,,,,,,,,,,0,4,7,Arizona,"Phoenix-Mesa-Scottsdale, AZ",No,PM2.5,Undetermined/Insufficient Data,,,,,,,
04-013-9992,040139992,33.476111,-112.199722,DESERT WEST,Southwest,0,WTDAM,12.123911372,10.915197527,,,,,,,,,,,,,,,,,,,,,,,,0,2,7,Arizona,"Phoenix-Mesa-Scottsdale, AZ",No,PM2.5,Undetermined/Insufficient Data,,,,,,,
04-013-9997,040139997,33.503833,-112.095767,JLG SUPERSITE,Southwest,0,WTDAM,11.491295065,9.202964223,11.633067453,11.27375,9.7251220017,9.7174147201,10.224971264,9.4817061782,8.8837040648,8.6429670699,6.7912903226,9.9164072039,7.8531001211,7.1448670847,7.0400903806,7.7406591416,7.9098365929,5.6589469271,8.768103058,7.8370414882,9.1274870496,8.7704866083,8.5852259287,7.8069307758,9.1115933402,1,25,7,Arizona,"Phoenix-Mesa-Scottsdale, AZ",Yes,PM2.5,Decreasing,-0.118022336,0.0016753606,1,Yes,No Trend,0.1153624006,0.0842889368
04-015-1000,040151000,35.540017125,-113.410782,Peach Springs,Southwest,0,WTDAM,,,,,,,6.576025641,6.0532467532,,,,,,,,,,,,,,,,,,0,2,7,Arizona,"Lake Havasu City-Kingman, AZ",No,PM2.5,Undetermined/Insufficient Data,,,,,,,
04-019-0011,040190011,32.322661419,-111.0383893,ORANGE GROVE,Southwest,0,WTDAM,7.7817986542,7.6065861345,6.3578906801,6.4544506423,5.7863575775,6.32081049,5.8022229351,5.8424239457,5.7158333333,5.2746486175,5.1612294745,5.6877873563,5.9053652206,5.2375806452,6.4465653718,,6.5387162698,7.4236510623,5.5760530866,3.8490661252,4.0954471456,6.596975469,5.5123688087,5.0797838347,5.9270691808,1,24,7,Arizona,"Tucson, AZ",Yes,PM2.5,Decreasing,-0.050573747,0.0359171116,1,Yes,No Trend,0.0116518398,0.4612850452
04-019-1028,040191028,32.29515,-110.9823,CHILDREN'S PARK NCore,Southwest,0,WTDAM,6.8202272727,6.8027964427,6.6160810292,6.535311622,5.5691091954,5.9148091133,5.7877092934,5.7075123153,5.3820425473,5.4567806822,5.0188329626,5.686559484,5.4647719943,6.2215019269,5.49080487,4.9727050254,4.7562624875,6.6321005866,4.5193482906,3.0517950341,5.8585304688,5.9632733699,6.3473808644,6.3325957557,5.9237414822,1,25,7,Arizona,"Tucson, AZ",Yes,PM2.5,No Trend,-0.040308992,0.0591717091,1,Yes,No Trend,0.0492198093,0.189725198
04-019-1036,040191036,32.194671,-111.033167,Ted Walker Park,Southwest,0,WTDAM,,,,,,,,,,,,,,,,,,,,,,,,7.8163041827,7.4828996626,0,2,7,Arizona,"Tucson, AZ",No,PM2.5,Undetermined/Insufficient Data,,,0,No,Undetermined/Insufficient Data,,
04-021-0001,040210001,32.877583001,-111.752222,CASA GRANDE DOWNTOWN,Southwest,0,WTDAM,8.4782142857,7.7277083333,8.4576282051,8.4192811355,7.1285294118,7.3300824176,7.5502564103,10.249349343,10.606021505,9.6416666667,8.3671875,9.9330208333,10.023125,8.05,7.671875,7.4874764388,8.6408999493,9.6073238053,8.5179059165,6.3110049371,7.844389985,7.779407642,6.6759765646,6.4804881965,8.4651238847,1,25,7,Arizona,"Phoenix-Mesa-Scottsdale, AZ",Yes,PM2.5,No Trend,-0.03770209,0.1181483589,1,Yes,Decreasing,-0.152669271,0.0294979225
04-021-3002,040213002,33.421194001,-111.503222,APACHE JUNCTION FIRE STATION,Southwest,0,WTDAM,7.2814571746,6.2610714286,6.3935215054,6.2958652618,5.505545977,5.5169356027,5.3109953704,6.9602815934,7.5226861501,6.4100268817,5.8503168203,8.3464516129,6.7293529848,5.4996747732,5.8402353082,4.8235879372,5.175862069,5.4697024472,5.3715795328,4.2185855683,5.6135996396,5.5448275862,4.9020782351,4.1460092387,4.4340072971,1,25,7,Arizona,"Phoenix-Mesa-Scottsdale, AZ",Yes,PM2.5,Decreasing,-0.085247349,0.0003361551,1,Yes,Decreasing,-0.131100583,0.0020714408
04-021-3013,040213013,33.010530001,-111.97205,COWTOWN,Southwest,0,WTDAM,,,,,,,22.351593407,22.497051282,19.627558379,14.214285714,12.39202381,13.242619048,14.830287356,14.846254105,14.544430663,10.185545977,,,,,,,,,,0,10,7,Arizona,"Phoenix-Mesa-Scottsdale, AZ",No,PM2.5,Undetermined/Insufficient Data,,,0,No,Undetermined/Insufficient Data,,
04-021-3015,040213015,32.884761,-112.03705,HIDDEN VALLEY,Southwest,0,WTDAM,,,,,,,,,,,,,,,,,11.964379935,15.063442151,12.104913371,10.909167401,15.533059061,12.708074541,8.9847720714,9.5978581797,11.322320923,0,9,7,Arizona,"Phoenix-Mesa-Scottsdale, AZ",No,PM2.5,Undetermined/Insufficient Data,,,0,No,Undetermined/Insufficient Data,,
04-023-0004,040230004,31.337204,-110.936718,NOGALES POST OFFICE,Southwest,0,WTDAM,12.649358974,11.023660714,12.183333333,11.81125,10.81296131,13.201516106,15.567083333,12.303333333,13.080684524,13.1653125,10.227222222,9.7006985294,9.5622916667,8.8608651358,9.5336800772,8.965601874,9.8038958979,8.9036613272,8.4743836688,8.8082758621,10.182733755,10.907022267,9.5812037526,7.5969936314,10.720494835,1,25,7,Arizona,"Nogales, AZ",Yes,PM2.5,Decreasing,-0.165390331,0.0004071666,1,Yes,No Trend,-0.014305795,0.3852478349
04-025-2002,040252002,34.595,-112.331,PRESCOTT VALLEY,Southwest,0,WTDAM,,,,,,,,,5.9142010073,5.0969155844,3.8664652015,3.795,4.4313095238,4.2329166667,,,,,,,,,,,,0,6,7,Arizona,"Prescott, AZ",No,PM2.5,Undetermined/Insufficient Data,,,0,No,Undetermined/Insufficient Data,,
04-027-0004,040270004,32.677001,-114.648905,YUMA COURTHOUSE,Southwest,0,WTDAM,,,,,,,,,9.9283333333,9.4416666667,,,,,,,,,,,,,,,,0,2,7,Arizona,"Yuma, AZ",No,PM2.5,Undetermined/Insufficient Data,,,,,,,
04-027-8011,040278011,32.690278,-114.61444,YUMA SUPERSITE,Southwest,0,WTDAM,,,,,,,,,,,7.3576339286,7.5766666667,8.4848214286,7.4216545894,6.2945787592,5.6111351068,8.3306841854,8.5429281467,8.6869301076,7.9257144184,9.109520842,9.2715057406,8.2659706515,8.004016354,7.9389923462,0,15,7,Arizona,"Yuma, AZ",No,PM2.5,Undetermined/Insufficient Data,,,1,Yes,No Trend,0.0780874267,0.0697314296
05-001-0011,050010011,34.518514843,-91.5589605,STUTTGART,South,0,WTDAM,,,11.619974457,11.979972527,11.573870968,13.964761905,11.439137438,12.231018519,11.62777957,9.6651353356,11.439107143,10.908642857,9.9609139785,9.4552134647,9.0943659107,8.8703420467,8.365499232,7.723964605,8.2841909662,7.911408046,7.2322932888,7.5585080645,7.7672849462,8.6354681127,8.7656047872,1,23,5,Arkansas,,Yes,PM2.5,Decreasing,-0.219373481,3.4474044E-8,1,Yes,Decreasing,-0.236591573,0.0006429304
05-003-0005,050030005,33.139471117,-91.93920761,CROSSETT,South,0,WTDAM,,,10.632961521,11.301036255,11.019938322,14.330738012,13.614807392,11.964264674,10.720817972,9.3802319376,11.149389401,11.208826739,9.9602586207,9.0969519704,8.6673320886,8.1742718247,8.2832183908,8.2473498331,8.1200806452,8.156597145,7.43,7.9243260369,7.8170178403,8.5796607341,8.4088348165,1,23,5,Arkansas,,Yes,PM2.5,Decreasing,-0.159594428,5.4661243E-6,1,Yes,Decreasing,-0.146578242,0.0009679814
05-031-0001,050310001,35.838685634,-90.70872354,,South,0,WTDAM,14.579532967,12.69625,11.161105769,12.053043924,,,,,,,,,,,,,,,,,,,,,,0,4,5,Arkansas,"Jonesboro, AR",No,PM2.5,Undetermined/Insufficient Data,,,,,,,
05-035-0004,050350004,35.147590729,-90.1764832,,South,0,WTDAM,15.745604469,14.059892917,12.068751579,12.111689394,11.936641639,,,,,,,,,,,,,,,,,,,,,0,5,5,Arkansas,"Memphis, TN-MS-AR",No,PM2.5,Undetermined/Insufficient Data,,,,,,,
05-035-0005,050350005,35.197287632,-90.19314077,MARION,South,0,WTDAM,,,,,,14.219921937,12.283010753,13.595134409,11.698575269,9.8520526114,11.805533927,11.666984127,9.9907258065,10.039424758,9.2891844113,8.7352150538,8.3536409797,7.9593010753,8.7972849462,8.2952011494,7.5138172043,8.1197144976,7.7485096609,8.7781989247,7.9331395996,0,20,5,Arkansas,"Memphis, TN-MS-AR",No,PM2.5,Undetermined/Insufficient Data,,,1,Yes,Decreasing,-0.2407321,0.00009995
05-045-0002,050450002,35.105193,-92.427859,CONWAY,South,0,WTDAM,,12.714821429,11.958173077,13.02665293,11.731292243,14.548666253,11.594698276,11.846940129,11.604132458,9.9582267334,10.918304531,11.433405172,,,,,,,,,,,,,,0,11,5,Arkansas,"Little Rock-North Little Rock-Conway, AR",No,PM2.5,Undetermined/Insufficient Data,,,0,No,Undetermined/Insufficient Data,,
05-051-0002,050510002,34.510367371,-93.05434647,,South,0,WTDAM,13.042877668,13.134172228,9.9449886168,,,,,,,,,,,,,,,,,,,,,,,0,3,5,Arkansas,"Hot Springs, AR",No,PM2.5,Undetermined/Insufficient Data,,,,,,,
05-051-0003,050510003,34.469441081,-93.0001781,HOT SPRINGS,South,0,WTDAM,,,,11.734230019,10.899034978,14.216715704,11.69204244,12.120205483,11.041476703,10.075091769,10.999731183,11.448958333,10.47672043,9.4483333333,9.0989784946,8.4974684835,8.6176520208,8.3508870968,8.3267204301,8.8105913978,8.0198924731,8.7666555432,8.1772331576,8.9759642857,9.1292156863,0,22,5,Arkansas,"Hot Springs, AR",No,PM2.5,Undetermined/Insufficient Data,,,1,Yes,Decreasing,-0.145465795,0.0137476326
05-067-0001,050670001,35.637282782,-91.18890596,NEWPORT,South,0,WTDAM,,,,,,,10.506904762,12.583672599,11.172930108,9.1731568144,11.001786244,10.329281609,9.4206797235,9.060591133,9.4045362196,8.2260632184,8.3490804598,8.056827957,7.9380913978,8.2387037037,7.1256451613,7.9791167435,7.9622860871,8.9582369299,7.7339226124,0,19,5,Arkansas,,No,PM2.5,Undetermined/Insufficient Data,,,1,Yes,Decreasing,-0.168853717,0.0001651855
05-069-0005,050690005,34.220098017,-92.00097277,,South,0,WTDAM,14.969652015,,,,,,,,,,,,,,,,,,,,,,,,,0,1,5,Arkansas,"Pine Bluff, AR",No,PM2.5,Undetermined/Insufficient Data,,,,,,,
05-069-0006,050690006,34.190931229,-92.05853076,GROUND LEVEL,South,0,WTDAM,,,12.069161105,12.394070197,,,,,,,,,,,,,,,,,,,,,,0,2,5,Arkansas,"Pine Bluff, AR",No,PM2.5,Undetermined/Insufficient Data,,,,,,,
05-089-0001,050890001,36.084239252,-92.58683006,,South,0,WTDAM,10.134265734,9.1070833333,8.93293966,,,,,,,,,,,,,,,,,,,,,,,0,3,5,Arkansas,,No,PM2.5,Undetermined/Insufficient Data,,,,,,,
05-091-0004,050910004,33.427625056,-94.04102097,BEHIND BUILDING AT 305 E. 6TH,South,0,WTDAM,,13.270011551,12.601494253,,,,,,,,,,,,,,,,,,,,,,,0,2,5,Arkansas,"Texarkana, TX-AR",No,PM2.5,Undetermined/Insufficient Data,,,,,,,
05-093-0007,050930007,35.929240236,-89.90091893,FIRESTATION,South,0,WTDAM,,12.589012097,11.920715305,11.643125114,11.356075534,14.8474743,,,,,,,,,,,,,,,,,,,,0,5,5,Arkansas,"Blytheville, AR",No,PM2.5,Undetermined/Insufficient Data,,,,,,,
05-107-0001,051070001,34.529765549,-90.58604896,HELENA,South,0,WTDAM,14.664155457,12.855646486,11.337302095,12.237301587,10.623610652,13.667220622,10.914816948,12.621005414,11.076264368,9.6629761905,11.460930664,10.907442529,,,,,,,,,,,,,,0,12,5,Arkansas,"Helena-West Helena, AR",No,PM2.5,Undetermined/Insufficient Data,,,0,No,Undetermined/Insufficient Data,,
05-113-0002,051130002,34.583698588,-94.22623447,MENA,South,0,WTDAM,12.322659642,12.141232439,10.584001232,10.28903153,10.799494191,12.569324713,11.706527094,11.866826235,10.519195402,9.8572126437,10.958016768,11.502014209,9.9555747126,9.8988616176,9.3981451613,8.239693962,8.2649870226,8.1295439377,8.5834204672,8.6399805339,7.2337245087,8.4230734149,7.8929098175,8.7275324435,8.7642723396,1,25,5,Arkansas,,Yes,PM2.5,Decreasing,-0.185801267,2.3813121E-6,1,Yes,Decreasing,-0.187942026,0.0179486187
05-115-0003,051150003,35.259775016,-93.10004987,RUSSELLVILLE,South,0,WTDAM,14.407975243,12.425833333,11.888987764,11.897196621,11.373059352,14.441634665,12.224763441,12.78016129,11.352354071,10.778729143,11.286436782,11.979942529,,,,,,,,,,,,,,0,12,5,Arkansas,"Russellville, AR",No,PM2.5,Undetermined/Insufficient Data,,,0,No,Undetermined/Insufficient Data,,
05-119-0007,051190007,34.756188804,-92.28129586,PARR,South,0,WTDAM,15.46664444,14.71940444,13.236007507,12.871851395,12.248619371,14.695134553,12.188681571,12.783084815,11.584670215,10.802898551,12.294599545,12.00195314,11.328245782,10.354845951,10.156587018,9.7438618823,9.4264751553,9.1683485958,9.2916078956,9.476138402,8.1938982679,9.2649705367,8.8315214932,9.9874235547,10.122094482,1,25,5,Arkansas,"Little Rock-North Little Rock-Conway, AR",Yes,PM2.5,Decreasing,-0.255315097,8.352592E-10,1,Yes,Decreasing,-0.212647611,0.0020714408
05-119-1004,051191004,34.729603427,-92.24358667,ADAMS FIELD,South,0,WTDAM,,15.940233649,13.056695402,13.381003695,13.287648883,16.046034483,12.785116487,12.853392659,12.064880952,11.426501669,12.418218391,11.439137931,11.141279199,10.588515017,9.4337365591,9.6687643678,,,,,,,,,,0,15,5,Arkansas,"Little Rock-North Little Rock-Conway, AR",No,PM2.5,Undetermined/Insufficient Data,,,0,No,Undetermined/Insufficient Data,,
05-119-1005,051191005,34.676268,-92.337164,ADEQ,South,0,WTDAM,,,,12.825921751,12.526608101,15.332035315,13.029819415,,,,,,,,,,,,,,,,,,,0,4,5,Arkansas,"Little Rock-North Little Rock-Conway, AR",No,PM2.5,Undetermined/Insufficient Data,,,,,,,
05-119-1008,051191008,34.681343363,-92.32869716,DOYLE SPRINGS ROAD,South,0,WTDAM,15.661208791,15.330527362,12.774520881,,,,,12.688057464,12.153704474,11.201755474,12.591300178,12.511781136,11.609784483,10.980534232,10.813333333,10.215143678,9.769516129,9.5651279199,9.6968817204,10.342701149,9.68989546,9.6577771598,9.5549643637,10.797763057,10.508147081,0,21,5,Arkansas,"Little Rock-North Little Rock-Conway, AR",No,PM2.5,Undetermined/Insufficient Data,,,1,Yes,Decreasing,-0.165079453,0.0014291147
05-131-0008,051310008,35.389672114,-94.42428764,FT. SMITH,South,0,WTDAM,13.538792095,13.650387787,11.74890759,11.555682041,11.804022989,,11.142949507,12.203395417,11.077440476,10.819337256,11.509242424,,,,,,,,,,,,,,,0,10,5,Arkansas,"Fort Smith, AR-OK",No,PM2.5,Undetermined/Insufficient Data,,,0,No,Undetermined/Insufficient Data,,
05-139-0004,051390004,33.214018772,-92.66876743,,South,0,WTDAM,14.311928419,,,,,,,,,,,,,,,,,,,,,,,,,0,1,5,Arkansas,"El Dorado, AR",No,PM2.5,Undetermined/Insufficient Data,,,,,,,
05-139-0006,051390006,33.22056253,-92.67226274,EL DORADO,South,0,WTDAM,,,,,11.480724891,14.825931034,11.844551724,12.620673077,10.929723085,10.02462963,11.599258435,11.671418309,10.94239532,9.5756674082,8.9762198739,8.7107183908,8.9529032258,8.898172043,8.8085733487,9.0378893215,8.4773869114,9.0925913978,9.1178527656,9.8275862069,9.4720782351,0,21,5,Arkansas,"El Dorado, AR",No,PM2.5,Undetermined/Insufficient Data,,,1,Yes,No Trend,-0.083138827,0.189725198
05-143-0003,051430003,36.052023662,-94.1627043,,South,0,WTDAM,12.503994066,11.560102397,10.758255968,,,,,,,,,,,,,,,,,,,,,,,0,3,5,Arkansas,"Fayetteville-Springdale-Rogers, AR-MO",No,PM2.5,Undetermined/Insufficient Data,,,,,,,
05-143-0004,051430004,36.045830797,-94.16918253,FAYETTEVILLE,South,0,WTDAM,,,,10.480143678,9.9841810967,,,,,,,,,,,,,,,,,,,,,0,2,5,Arkansas,"Fayetteville-Springdale-Rogers, AR-MO",No,PM2.5,Undetermined/Insufficient Data,,,,,,,
05-143-0005,051430005,36.179700045,-94.11682738,SPRINGDALE,South,0,WTDAM,,,,,,,,,10.604737486,10.267597926,11.139798851,11.690899471,9.5989286732,9.2684005376,8.7474170018,7.8094444444,8.1078072197,7.8231813126,8.4082258065,7.9995059325,6.9200921659,8.138760454,7.2991373606,7.6505788275,8.4359131545,0,17,5,Arkansas,"Fayetteville-Springdale-Rogers, AR-MO",No,PM2.5,Undetermined/Insufficient Data,,,1,Yes,Decreasing,-0.21880702,0.0029507931
05-145-0001,051450001,35.24894009,-91.71559649,SEARCY,South,0,WTDAM,,12.951383598,11.627940157,11.187112929,11.250982463,14.699989075,11.846778034,11.679965497,10.051510989,10.324272273,11.628310587,11.834487179,,,,,,,,,,,,,,0,11,5,Arkansas,"Searcy, AR",No,PM2.5,Undetermined/Insufficient Data,,,0,No,Undetermined/Insufficient Data,,
06-001-0007,060010007,37.687526,-121.784217,Livermore,West,0,WTDAM,11.21063857,12.428306452,13.840991022,9.0127287582,10.261668258,8.9665893817,9.782035895,9.005,10.087241379,9.1661653402,7.6295981757,7.8481198742,6.5182902024,8.3896257792,7.5656601437,8.77749586,7.4722647605,8.4622283272,11.29221713,6.3699256555,10.537446643,7.9756955062,7.525873367,6.4032632512,,1,24,8,California,"San Francisco-Oakland-Hayward, CA",Yes,PM2.5,Decreasing,-0.16389187,0.0001507199,1,Yes,No Trend,-0.026222236,0.2794830361
06-001-0009,060010009,37.743065,-122.169935,Oakland,West,0,WTDAM,,,,,,,,,9.4625284091,9.2415262681,7.7592874172,10.114623879,9.4821712431,10.335571431,8.4983216725,8.3495686369,6.1003480547,9.383865931,11.791515755,6.7453934592,11.436359564,7.9858140941,8.2944733105,6.4482235603,,0,16,8,California,"San Francisco-Oakland-Hayward, CA",No,PM2.5,Undetermined/Insufficient Data,,,1,Yes,No Trend,-0.165468233,0.1009214121
06-001-0011,060010011,37.814781,-122.282347,Oakland West,West,0,WTDAM,,,,,,,,,,,,,,12.782147943,9.5260091386,10.187028194,8.6563930519,12.845559723,14.387259675,7.7725687507,10.250141905,7.492759571,8.122303379,6.8476418598,,0,11,8,California,"San Francisco-Oakland-Hayward, CA",No,PM2.5,Undetermined/Insufficient Data,,,0,No,Undetermined/Insufficient Data,,
06-001-0012,060010012,37.793624,-122.263376,Laney College,West,0,WTDAM,,,,,,,,,,,,,,,8.4408164928,9.9876548814,8.722502226,11.617814115,14.440142466,7.3904300943,10.06619532,8.6779251714,9.3955320273,8.7203285735,,0,10,8,California,"San Francisco-Oakland-Hayward, CA",No,PM2.5,Undetermined/Insufficient Data,,,0,No,Undetermined/Insufficient Data,,
06-001-0013,060010013,37.864767001,-122.302741,Berkeley- Aquatic Park,West,0,WTDAM,,,,,,,,,,,,,,,,,,9.1113519785,11.92410298,9.3871522423,11.77804708,,,,,0,4,8,California,"San Francisco-Oakland-Hayward, CA",No,PM2.5,Undetermined/Insufficient Data,,,0,No,Undetermined/Insufficient Data,,
06-001-0015,060010015,37.701222001,-121.903019,Pleasanton - Owens Ct,West,0,WTDAM,,,,,,,,,,,,,,,,,,,,6.2896431173,11.769099512,8.4012398888,7.5996047178,6.9746094237,,0,5,8,California,"San Francisco-Oakland-Hayward, CA",No,PM2.5,Undetermined/Insufficient Data,,,0,No,Undetermined/Insufficient Data,,
06-001-1001,060011001,37.535833,-121.961823,Fremont - Chapel Way,West,0,WTDAM,10.5175,12.208072917,12.538644845,8.6417871732,9.4367293907,9.0477116935,10.342628963,8.7282291667,9.4496885428,9.3611217829,8.4899254073,,,,,,,,,,,,,,,0,11,8,California,"San Francisco-Oakland-Hayward, CA",No,PM2.5,Undetermined/Insufficient Data,,,0,No,Undetermined/Insufficient Data,,
06-007-0002,060070002,39.757371488,-121.8432863,Chico-Manzanita Ave.,West,0,WTDAM,15.751041667,13.014285714,15.13125,10.507291667,15.051041667,12.320833333,13.176041667,10.691666667,16.425,10.045327381,8.0310210623,12.0903125,,,,,,,,,,,,,,0,12,8,California,"Chico, CA",No,PM2.5,Undetermined/Insufficient Data,,,0,No,Undetermined/Insufficient Data,,
06-007-0008,060070008,39.76168,-121.84047,Chico-East Avenue,West,0,WTDAM,,,,,,,,,,,,,,10.095653276,8.8051860398,9.1281183347,7.6667538191,9.0066149826,13.711345736,7.0146462998,15.976163168,11.135218751,7.6559041459,7.804150287,6.8263392694,0,12,8,California,"Chico, CA",No,PM2.5,Undetermined/Insufficient Data,,,0,No,Undetermined/Insufficient Data,,
06-009-0001,060090001,38.20185,-120.680277,San Andreas-Gold Strike Road,West,0,WTDAM,8.9614583333,8.0532212885,9.9023809524,8.6385416667,7.61875,7.0166666667,8.603125,7.855952381,8.6478125,6.0916666667,6.6892236025,9.1074826095,6.9819974389,9.124259363,7.896510423,8.6870071535,8.0797725215,,14.636223482,5.5057383548,12.627836394,8.4203288559,6.0879941795,5.514974296,5.4737316797,1,24,8,California,,Yes,PM2.5,No Trend,-0.054866578,0.1830777613,1,Yes,No Trend,-0.09032687,0.2175594555
06-011-0007,060110007,39.021221001,-122.281803,Cortina Indian Rancheria,West,0,WTDAM,,,,,,,,,,,,,8.7360499173,7.2248333731,6.453357684,6.8312309379,4.5116403162,4.4413647235,10.291274368,6.255676523,,10.025439303,,,10.714601772,0,10,8,California,,No,PM2.5,Undetermined/Insufficient Data,,,0,No,Undetermined/Insufficient Data,,
06-011-1002,060111002,39.18919,-121.99887,Colusa-Sunrise Blvd,West,0,WTDAM,7.9698694316,9.5750463478,11.562179487,7.9496735791,7.2640868326,6.9745612685,7.9252784178,6.7151709402,10.526363636,7.0736280386,,6.7520833333,7.2973595849,7.1598946886,7.1957772436,8.4071428571,6.2816666667,8.0123111264,11.294621212,7.0104166667,12.157384259,12.124672203,7.2207635219,7.425969031,6.0283643892,1,24,8,California,,Yes,PM2.5,No Trend,-0.014531754,0.3471711881,1,Yes,No Trend,0.0518373614,0.1641167938
06-013-0002,060130002,37.936013,-122.026154,Concord,West,0,WTDAM,11.087446705,10.94922773,12.998399588,9.6593935724,10.661165093,9.096950443,9.3005315488,8.3814602925,9.3083940364,8.3986092201,7.0732763115,7.8401559806,6.6446147367,7.6014064408,6.644314816,8.8277617226,5.919692098,12.029967913,13.424408975,6.8370694919,11.050936723,8.0259987774,7.0292283075,6.2283876521,,1,24,8,California,"San Francisco-Oakland-Hayward, CA",Yes,PM2.5,Decreasing,-0.171112478,0.0010095042,1,Yes,No Trend,-0.037838826,0.3485907127
06-013-1004,060131004,37.9604,-122.356811,San Pablo,West,0,WTDAM,,,,,,,,,,,,,,11.971529974,10.538712167,8.9320024397,8.084845795,10.789231928,12.748924423,7.797395505,11.040133254,9.0539994028,9.8719809955,9.922702137,9.7092126476,0,12,8,California,"San Francisco-Oakland-Hayward, CA",No,PM2.5,Undetermined/Insufficient Data,,,0,No,Undetermined/Insufficient Data,,
06-015-0007,060150007,41.756130001,-124.20347,Crescent City-Crescent Elk School,West,0,WTDAM,,,,,,,,,,,,,,,,,,5.7527876888,,,,,,,,0,1,8,California,"Crescent City, CA",No,PM2.5,Undetermined/Insufficient Data,,,0,No,Undetermined/Insufficient Data,,
06-017-0011,060170011,38.944979,-119.970609,South Lake Tahoe-Sandy Way,West,0,WTDAM,7.6772058824,8.1518995098,7.6413194444,7.153125,,,,,,,,,,,,,,,,,,,,,,0,4,8,California,"Sacramento--Roseville--Arden-Arcade, CA",No,PM2.5,Undetermined/Insufficient Data,,,,,,,
06-017-0012,060170012,38.81161,-120.033084,Echo Summit,West,0,WTDAM,3.7543010753,3.7663978495,,,,,,,,,,,,,,,,,,,,,,,,0,2,8,California,"Sacramento--Roseville--Arden-Arcade, CA",No,PM2.5,Undetermined/Insufficient Data,,,,,,,
06-019-0008,060190008,36.781332852,-119.7731898,"3425 N FIRST ST, FRESNO",West,0,WTDAM,,19.808116849,21.548642999,17.784252473,16.342231282,16.696450361,16.790384104,18.83507094,17.377982353,15.136643803,13.020309343,15.631644237,,,,,,,,,,,,,,0,11,8,California,"Fresno, CA",No,PM2.5,Undetermined/Insufficient Data,,,0,No,Undetermined/Insufficient Data,,
06-019-0011,060190011,36.78538,-119.77321,Fresno - Garland,West,0,WTDAM,,,,,,,,,,,,,14.090995869,16.772740086,15.119322543,14.356934026,12.726833493,14.856788333,16.200658611,11.130720855,19.178541567,15.622838164,12.926687668,10.480109513,10.258868447,0,13,8,California,"Fresno, CA",No,PM2.5,Undetermined/Insufficient Data,,,1,Yes,No Trend,-0.192606815,0.189725198
06-019-0500,060190500,36.985118557,-119.6583393,Table Mountain Air Monitoring Site,West,0,WTDAM,,,,,,,,,,,,,,,,,7.9027959964,9.4834221683,11.504139551,6.2870273422,18.578081003,10.899694013,6.9797884192,6.4258479704,6.1665044195,0,9,8,California,"Fresno, CA",No,PM2.5,Undetermined/Insufficient Data,,,0,No,Undetermined/Insufficient Data,,
06-019-2009,060192009,36.634225001,-120.382331,Tranquillity,West,0,WTDAM,,,,,,,,,,,7.0439456348,8.2056402484,7.0221864343,8.3159653016,7.643632453,10.014744711,7.7440569614,8.3048400715,11.106036898,5.8034665776,11.498593975,8.9495634921,6.727614311,4.8201779239,6.9576475155,0,15,8,California,"Fresno, CA",No,PM2.5,Undetermined/Insufficient Data,,,1,Yes,No Trend,-0.0108796,0.3852478349
06-019-2016,060192016,36.710833,-119.7775,Fresno-Foundry,West,0,WTDAM,,,,,,,,,,,,,,,,,,,,,20.346053223,17.247836418,14.793783045,12.500865235,13.548150931,0,5,8,California,"Fresno, CA",No,PM2.5,Undetermined/Insufficient Data,,,0,No,Undetermined/Insufficient Data,,
06-019-5001,060195001,36.819449,-119.716433,Clovis-Villa,West,0,WTDAM,16.306754386,18.029505495,16.1953125,,16.359845546,16.345833333,16.449507389,16.419948107,16.186436711,18.288877669,14.647604884,17.912640205,15.370769894,15.900452067,14.759869845,14.963867604,12.527486825,13.070284054,14.30893243,10.216736117,18.420003197,15.144828905,10.514844123,8.5553236166,10.613623605,1,24,8,California,"Fresno, CA",Yes,PM2.5,Decreasing,-0.227212022,0.0001851981,1,Yes,Decreasing,-0.468292231,0.0179486187
06-019-5025,060195025,36.72639,-119.733,Fresno-Pacific,West,0,WTDAM,18.444307692,18.599833333,21.2528125,17.818020833,16.952252155,16.921120761,17.617325269,16.847229064,16.518107553,14.598275463,13.440706817,15.404551282,12.693366174,15.925952381,13.773390805,14.127790179,12.981666667,15.031936205,17.135119048,11.246310892,18.597997312,13.770483857,13.473282872,12.640226069,12.72057384,1,25,8,California,"Fresno, CA",Yes,PM2.5,Decreasing,-0.243283097,0.0000197406,1,Yes,No Trend,-0.061575442,0.2475254263
06-023-0006,060230006,41.047116985,-123.6752334,Hoopa Valley Reservation,West,0,WTDAM,,,,,,,,,,,,,,,11.397596154,,,,,,,,,,6.6193486224,0,2,8,California,"Eureka-Arcata-Fortuna, CA",No,PM2.5,Undetermined/Insufficient Data,,,0,No,Undetermined/Insufficient Data,,
06-023-1002,060231002,40.80178,-124.1621,Eureka I Street,West,0,WTDAM,9.1470707418,9.3923076923,7.9324759615,,8.1438095238,,7.5804910714,7.6484210526,7.3722083333,6.6718781285,5.5094863506,6.2392177393,5.4881321803,6.7475287356,,,,,,,,,,,,0,12,8,California,"Eureka-Arcata-Fortuna, CA",No,PM2.5,Undetermined/Insufficient Data,,,0,No,Undetermined/Insufficient Data,,
06-023-1004,060231004,40.776780001,-124.17949,Jacobs,West,0,WTDAM,,,,,,,,7.068503663,7.8008928571,7.0346279762,5.6105635377,6.6345311555,5.7764766484,,5.4389901478,5.897840259,6.0539696223,8.323683908,7.7282526882,6.7636878307,8.646985371,6.8996072797,6.8008988309,7.0083870968,6.5481182796,0,17,8,California,"Eureka-Arcata-Fortuna, CA",No,PM2.5,Undetermined/Insufficient Data,,,1,Yes,Increasing,0.1077671543,0.0179486187
06-023-1005,060231005,40.71528,-124.20139,Humboldt Hill,West,0,WTDAM,,,,,,,,,,,,,6.7810452572,7.1204502442,3.0514257294,4.7512634409,3.4727566564,5.3424491383,,,,,,,,0,6,8,California,"Eureka-Arcata-Fortuna, CA",No,PM2.5,Undetermined/Insufficient Data,,,0,No,Undetermined/Insufficient Data,,
06-025-0003,060250003,32.978378648,-115.5341558,Brawley-401 Main St.,West,0,WTDAM,12.29979419,,10.193321609,10.432111638,,,,,,,,,,,,,,,,,,,,,,0,3,8,California,"El Centro, CA",No,PM2.5,Undetermined/Insufficient Data,,,,,,,
06-025-0005,060250005,32.67618,-115.48307,Calexico-Ethel Street,West,0,WTDAM,16.867902299,14.944913871,15.074361658,13.114562808,11.800850393,13.260787823,12.474210591,12.990740741,10.18373358,,12.827539859,13.47736007,14.50288591,13.320967742,13.889178434,12.163557029,12.515023165,11.861683296,13.492800243,10.749165072,11.981376328,10.250383585,10.956905771,9.4840245685,10.019553024,1,24,8,California,"El Centro, CA",Yes,PM2.5,Decreasing,-0.171211912,0.0004914912,1,Yes,Decreasing,-0.311933768,0.0002660108
06-025-0007,060250007,32.97833,-115.53917,Brawley-220 Main Street,West,0,WTDAM,,,,,9.049226478,8.8824216524,7.9251832873,7.7075352846,8.2190956221,8.0399740452,6.2451672493,7.1064727011,8.0633861698,7.2335215054,7.2580107527,6.5571459029,11.280322581,9.4021889401,10.435681313,8.3222415219,9.4393548387,,8.6965979853,8.5894399984,7.7050012082,0,20,8,California,"El Centro, CA",No,PM2.5,Undetermined/Insufficient Data,,,1,Yes,No Trend,0.1247854878,0.0697314296
06-025-1003,060251003,32.79222,-115.56306,El Centro-9th Street,West,0,WTDAM,,8.9240513751,9.2952876984,9.2158146552,9.6707202381,9.4049065934,8.7773706897,8.4858492976,8.0021529216,7.9677688172,6.5812698413,7.5072126437,7.5474694105,7.0467741935,6.5794234334,6.2512903226,9.476155914,8.4364880952,8.6952688172,7.896261175,9.7872849462,8.3974462366,8.8588040658,7.8363425926,7.1081512676,1,24,8,California,"El Centro, CA",Yes,PM2.5,Decreasing,-0.055510388,0.0289692579,1,Yes,No Trend,0.0944418696,0.1009214121
06-027-0002,060270002,37.360684,-118.330783,WMRC/NCORE,West,0,WTDAM,,,,,,,,,,,,,,,,,4.0109978337,4.5757788804,6.6901627721,4.0166883476,11.054989247,7.8227237912,3.5541820603,3.2865172864,3.4583582179,0,9,8,California,"Bishop, CA",No,PM2.5,Undetermined/Insufficient Data,,,0,No,Undetermined/Insufficient Data,,
06-027-1003,060271003,36.487823,-117.871036,Keeler,West,0,WTDAM,,5.5360632184,8.2295991046,4.920124759,5.2059490741,4.6124149464,6.1393939394,5.8247354497,7.1032628847,6.7756658896,7.0482994904,8.1167330918,6.635982869,7.9888756642,7.8513384637,7.0301754692,6.5917239011,8.0109312489,6.9552449444,5.1920299809,10.440414477,9.6757898683,6.1509056567,6.3592774446,6.2399747837,1,24,8,California,"Bishop, CA",Yes,PM2.5,No Trend,0.0774793663,0.0649707297,1,Yes,No Trend,-0.073469707,0.1009214121
06-027-1018,060271018,36.595556001,-118.049167,Lone Pine Paiute-Shoshone Reservation,West,0,WTDAM,,,,,,,,,,,,,,,,,,,,,,,4.8733481015,,,0,1,8,California,"Bishop, CA",No,PM2.5,Undetermined/Insufficient Data,,,0,No,Undetermined/Insufficient Data,,
06-027-1023,060271023,37.362136969,-118.4174779,Bishop Tribe EMO,West,0,WTDAM,,,,,,,,,,,,,,,,,,,,,,12.293323711,8.6575903221,8.5417278766,9.2942559524,0,4,8,California,"Bishop, CA",No,PM2.5,Undetermined/Insufficient Data,,,0,No,Undetermined/Insufficient Data,,
06-027-1033,060271033,37.155494,-118.293547,Stn.1 Big Pine Paiute site,West,0,WTDAM,,,,,,,,,,,,,,,,,,,,,,,3.3706059084,,4.8126545866,0,2,8,California,"Bishop, CA",No,PM2.5,Undetermined/Insufficient Data,,,0,No,Undetermined/Insufficient Data,,
06-029-0010,060290010,35.385574,-119.015009,Bakersfield-Golden / M St,West,0,WTDAM,22.632365591,21.826232194,24.078942227,19.62577381,18.1953125,19.100238095,18.614600614,19.942319749,,20.046623097,,,,,,16.657273115,14.83887931,16.17146978,18.056988916,12.369437338,19.453528325,17.85132015,16.633733783,13.551178344,12.917516577,0,19,8,California,"Bakersfield, CA",No,PM2.5,Undetermined/Insufficient Data,,,0,No,Undetermined/Insufficient Data,,
06-029-0011,060290011,35.050551349,-118.1472936,Mojave,West,0,WTDAM,,6.0787433862,7.8655247411,6.4179733392,,5.842288961,5.4006118881,6.1870467033,6.842275641,5.1652472527,4.5671686647,6.2406530595,6.380644435,8.5215409257,5.8213596283,4.9583873105,7.4092775184,5.5090075009,7.1300812452,6.5146244758,,,,,,0,18,8,California,"Bakersfield, CA",No,PM2.5,Undetermined/Insufficient Data,,,0,No,Undetermined/Insufficient Data,,
06-029-0014,060290014,35.356615,-119.062613,Bakersfield-California,West,0,WTDAM,22.506928234,21.166211413,22.687606865,17.107095977,18.8581625,17.963198172,18.733083914,21.995195127,21.909751814,19.000991462,14.172808056,16.202433515,13.031673782,19.953025099,18.55406227,16.296058398,14.75176086,15.925672021,17.680083038,11.863606355,19.733663309,16.583137409,15.796132165,12.005752377,12.740403322,1,25,8,California,"Bakersfield, CA",Yes,PM2.5,Decreasing,-0.309429099,0.0002267254,1,Yes,No Trend,-0.166696591,0.2175594555
06-029-0015,060290015,35.62109,-117.67296,Ridgecrest-California Ave,West,0,WTDAM,7.7595168691,,8.1936431624,5.9076794872,5.9685882505,7.0128359788,6.2497252747,6.1832792208,7.0877106227,5.7032738095,5.0638461538,,,5.4794642857,,5.0825091575,,,,,,,,,,0,12,8,California,"Bakersfield, CA",No,PM2.5,Undetermined/Insufficient Data,,,0,No,Undetermined/Insufficient Data,,
06-029-0016,060290016,35.324636,-118.997627,Bakersfield-Airport (Planz),West,0,WTDAM,20.260334132,20.841123883,23.530802545,17.818623656,17.416423611,19.817187729,19.348772031,21.776456897,23.473212121,22.49302853,17.61427795,14.452261905,14.674929551,22.790900488,21.614414911,17.871790589,15.851003472,18.243959956,19.375616904,13.032883598,20.334009512,20.035478644,16.118640126,12.467356322,15.58897386,1,25,8,California,"Bakersfield, CA",Yes,PM2.5,Decreasing,-0.20683675,0.0183368971,1,Yes,No Trend,-0.177422288,0.3132472588
06-029-0018,060290018,35.642943101,-117.7150665,Ridgecrest-Ward,West,0,WTDAM,,,,,,,,,,,,,,,,,,,7.2477321425,4.0787003545,7.7237187382,8.2685026575,4.0334935302,4.4904355023,4.120586401,0,7,8,California,"Bakersfield, CA",No,PM2.5,Undetermined/Insufficient Data,,,0,No,Undetermined/Insufficient Data,,
06-029-0019,060290019,35.046528001,-118.162833,Mojave - CA 58 Business,West,0,WTDAM,,,,,,,,,,,,,,,,,,,,,,7.4643665393,5.1732654333,,,0,2,8,California,"Bakersfield, CA",No,PM2.5,Undetermined/Insufficient Data,,,0,No,Undetermined/Insufficient Data,,
06-029-0020,060290020,35.04944,-118.18893,Mojave-Pat Avenue,West,0,WTDAM,,,,,,,,,,,,,,,,,,,,,,,,5.5123089467,4.1522824135,0,2,8,California,"Bakersfield, CA",No,PM2.5,Undetermined/Insufficient Data,,,0,No,Undetermined/Insufficient Data,,
06-031-0004,060310004,36.102244,-119.56565,Corcoran-Patterson,West,0,WTDAM,16.365188746,19.179613095,21.45278633,16.232553366,17.403485577,17.457891705,16.866481045,18.375926501,15.771191502,17.730245042,17.903211698,,,15.566111111,15.361254151,,14.816811343,16.006413206,17.133467987,12.125886568,19.11998937,14.823886031,14.706419364,10.050131466,10.09313505,1,22,8,California,"Hanford-Corcoran, CA",Yes,PM2.5,Decreasing,-0.226575191,0.0000794045,1,Yes,Decreasing,-0.406550304,0.0029507931
06-031-1004,060311004,36.31567,-119.643447,Hanford-Irwin,West,0,WTDAM,,,,,,,,,,,14.503738095,17.987573235,14.793664523,18.180530804,17.477574874,16.46828589,15.535613521,17.174843663,17.69908915,12.187071389,19.877345365,15.63821114,14.150810756,12.51026184,11.826454223,0,15,8,California,"Hanford-Corcoran, CA",No,PM2.5,Undetermined/Insufficient Data,,,1,Yes,No Trend,-0.251421785,0.0697314296
06-033-3001,060333001,39.0327,-122.92229,Lakeport-Lakeport Blvd.,West,0,WTDAM,4.35125,4.2392410714,6.3859375,4.4402083333,4.4385714286,4.8283333333,5.1865625,3.4083333333,7.4046875,3.4122916667,3.0548958333,3.5015625,3.8592559524,3.8614583333,4.0910416667,3.845,3.001875,,,,,,,,,0,17,8,California,"Clearlake, CA",No,PM2.5,Undetermined/Insufficient Data,,,0,No,Undetermined/Insufficient Data,,
06-033-3002,060333002,39.018930001,-122.91333,Lakeport-S. Main Street,West,0,WTDAM,,,,,,,,,,,,,,,,,,,9.2516666667,3.1313244048,9.3259375,6.3105208333,4.2578125,4.1233333333,3.2484375,0,7,8,California,"Clearlake, CA",No,PM2.5,Undetermined/Insufficient Data,,,0,No,Undetermined/Insufficient Data,,
06-037-0002,060370002,34.1365,-117.92391,Azusa,West,0,WTDAM,20.169144996,21.677095882,20.691343476,19.310282687,18.285773097,16.957147899,15.401000044,15.707991565,14.044737311,13.117147436,10.84510467,12.055644234,11.018326183,10.541573971,,9.8750797182,10.101586022,10.420606332,10.810430108,9.6517473118,13.178318502,11.428470523,,,,0,21,8,California,"Los Angeles-Long Beach-Anaheim, CA",No,PM2.5,Undetermined/Insufficient Data,,,0,No,Undetermined/Insufficient Data,,
06-037-1002,060371002,34.17605,-118.31712,Burbank,West,0,WTDAM,,24.775613954,23.966129032,22.129525927,19.097527571,17.81641954,16.548041667,16.856991881,13.902030033,15.330771489,12.448015223,13.190649465,12.176410256,12.148642106,,,,,,,,,,,,0,13,8,California,"Los Angeles-Long Beach-Anaheim, CA",No,PM2.5,Undetermined/Insufficient Data,,,0,No,Undetermined/Insufficient Data,,
06-037-1103,060371103,34.066590001,-118.22688,Los Angeles-North Main Street,West,0,WTDAM,21.937392717,22.814869259,21.976972693,21.326900305,19.718093264,17.785400938,15.581148179,16.78000704,16.057160968,14.449514121,11.850237378,12.966935778,12.551680244,12.044204682,,12.376626603,11.788443622,12.05946965,12.897123399,10.852383915,13.708674447,12.860938578,10.950248115,10.249824017,12.240912168,1,24,8,California,"Los Angeles-Long Beach-Anaheim, CA",Yes,PM2.5,Decreasing,-0.460551406,1.4352418E-7,1,Yes,No Trend,-0.05584797,0.2475254263
06-037-1201,060371201,34.19925,-118.53276,Reseda,West,0,WTDAM,18.045896552,18.361972705,18.870132488,16.494086207,15.698538339,13.85813099,12.835634921,13.25131086,11.805217114,11.391266922,10.149915709,10.212642089,10.478125,9.8630495818,,8.8356206897,9.1815136476,9.7005328723,10.546610446,9.1644362122,11.047749557,10.056766778,8.8129569892,8.8108333333,10.122589186,1,24,8,California,"Los Angeles-Long Beach-Anaheim, CA",Yes,PM2.5,Decreasing,-0.360372428,3.4474044E-8,1,Yes,No Trend,-0.04681758,0.1407830351
06-037-1301,060371301,33.92899,-118.21071,Lynwood,West,0,WTDAM,23.01733871,24.459345238,23.313709677,20.256257945,18.471454394,17.464561051,16.686970899,16.004825032,,,,,,,,,,,,,,,,,,0,8,8,California,"Los Angeles-Long Beach-Anaheim, CA",No,PM2.5,Undetermined/Insufficient Data,,,,,,,
06-037-1302,060371302,33.901389001,-118.205,Compton,West,0,WTDAM,,,,,,,,,,14.682204433,12.524259259,12.965478836,11.690771889,11.967053492,,11.779557677,11.082239327,13.280379125,13.290102098,10.86923705,14.693816098,13.406866,12.122827881,11.115592991,12.570784829,0,15,8,California,"Los Angeles-Long Beach-Anaheim, CA",No,PM2.5,Undetermined/Insufficient Data,,,1,Yes,No Trend,0.0173082654,0.3852478349
06-037-1601,060371601,34.01407,-118.06056,,West,0,WTDAM,24.044985632,25.194369065,24.029238351,20.550477787,19.989035714,,,,,,,,,,,,,,,,,,,,,0,5,8,California,"Los Angeles-Long Beach-Anaheim, CA",No,PM2.5,Undetermined/Insufficient Data,,,,,,,
06-037-1602,060371602,34.010290001,-118.0685,Pico Rivera #2,West,0,WTDAM,,,,,,,16.625967345,16.598249898,14.910816185,14.786586022,12.485948276,12.491102217,11.856030775,11.755149755,,11.518563218,11.703227727,12.229391785,12.933960187,10.643370536,14.833992175,13.065376344,11.315622605,10.417984401,12.631048387,0,18,8,California,"Los Angeles-Long Beach-Anaheim, CA",No,PM2.5,Undetermined/Insufficient Data,,,1,Yes,No Trend,-0.040154235,0.3485907127
06-037-2005,060372005,34.1326,-118.1272,Pasadena,West,0,WTDAM,19.423351852,20.853596561,20.2567297,18.64137931,16.625003947,15.088521505,13.36856185,14.368977168,12.817737816,12.263956518,10.209159919,10.805870481,10.12,,,9.8458045977,9.5463505747,9.6766935484,10.278736559,9.1631321839,11.965357143,10.742844828,9.1141342232,9.0705376344,11.789997219,1,23,8,California,"Los Angeles-Long Beach-Anaheim, CA",Yes,PM2.5,Decreasing,-0.390025973,2.3661658E-8,1,Yes,No Trend,-0.075304846,0.1407830351
06-037-4002,060374002,33.82376,-118.18921,Long Beach (North),West,0,WTDAM,19.649021477,21.180969009,19.510140415,18.024119014,17.877307566,15.926223941,14.139725423,14.602247064,14.137156008,12.817478632,10.534063126,11.00354378,10.374335385,11.336254107,,10.812474929,10.313620269,10.903420852,11.478974874,9.2339746544,12.478225806,10.926091954,,,,0,21,8,California,"Los Angeles-Long Beach-Anaheim, CA",No,PM2.5,Undetermined/Insufficient Data,,,0,No,Undetermined/Insufficient Data,,
06-037-4004,060374004,33.79236,-118.17533,Long Beach (South),West,0,WTDAM,,,,,16.529653029,14.672285027,14.443876706,13.677637702,13.67075837,12.457250727,10.400515057,10.721775567,10.5752455,10.967557092,,10.264226712,9.6038521261,11.098949649,11.633242754,9.2542724463,12.212464166,11.473146135,,,,0,17,8,California,"Los Angeles-Long Beach-Anaheim, CA",No,PM2.5,Undetermined/Insufficient Data,,,0,No,Undetermined/Insufficient Data,,
06-037-4008,060374008,33.859662001,-118.200707,Long Beach-Route 710 Near Road,West,0,WTDAM,,,,,,,,,,,,,,,,12.893191554,12.050856538,12.896483384,13.258706859,10.992433309,13.828478858,13.01012648,11.912983092,10.882248168,11.734151593,0,10,8,California,"Los Angeles-Long Beach-Anaheim, CA",No,PM2.5,Undetermined/Insufficient Data,,,0,No,Undetermined/Insufficient Data,,
06-037-4009,060374009,33.793713001,-118.171019,Signal Hill (LBSH),West,0,WTDAM,,,,,,,,,,,,,,,,,,,,,,,,9.5599116146,9.2581817236,0,2,8,California,"Los Angeles-Long Beach-Anaheim, CA",No,PM2.5,Undetermined/Insufficient Data,,,0,No,Undetermined/Insufficient Data,,
06-037-9002,060379002,34.689985309,-118.1328499,Lancaster-Ponderosa St.,West,0,WTDAM,10.486507937,,,,,,,,,,,,,,,,,,,,,,,,,0,1,8,California,"Los Angeles-Long Beach-Anaheim, CA",No,PM2.5,Undetermined/Insufficient Data,,,,,,,
06-037-9033,060379033,34.669739001,-118.130511,Lancaster-Division Street,West,0,WTDAM,,,10.358639133,9.386994809,8.5120748877,8.8520502646,7.4392857143,8.0166666667,,7.7727678571,5.9318452381,,,,,,7.6830307374,7.2835286064,7.220000808,6.117976351,9.2682554327,8.1170300267,7.5153605687,,,0,15,8,California,"Los Angeles-Long Beach-Anaheim, CA",No,PM2.5,Undetermined/Insufficient Data,,,0,No,Undetermined/Insufficient Data,,
06-037-9035,060379035,34.725389,-118.178601,Lancaster - Fairgrounds,West,0,WTDAM,,,,,,,,,,,,,,,,,,,,,,,,3.3705756485,4.7915572233,0,2,8,California,"Los Angeles-Long Beach-Anaheim, CA",No,PM2.5,Undetermined/Insufficient Data,,,0,No,Undetermined/Insufficient Data,,
06-039-0500,060390500,37.213599578,-119.6990653,Picayune Rancheria,West,0,WTDAM,,,,,,,,,,,,,7.7218489583,10.079892928,,,,,,,,,,,,0,2,8,California,"Madera, CA",No,PM2.5,Undetermined/Insufficient Data,,,0,No,Undetermined/Insufficient Data,,
06-039-2010,060392010,36.953256,-120.034203,Madera-City,West,0,WTDAM,,,,,,,,,,,,20.436874944,15.95423418,17.816473851,14.027123522,13.849097161,12.019971333,12.45300544,13.953226712,9.6865535165,16.890477186,12.385720523,10.440778154,9.8942686169,9.033814334,0,14,8,California,"Madera, CA",No,PM2.5,Undetermined/Insufficient Data,,,1,Yes,Decreasing,-0.772649428,0.00009995
06-041-0001,060410001,37.97231,-122.520004,San Rafael,West,0,WTDAM,,,,,,,,,,,10.711998012,9.8611949586,8.0116593794,10.774111862,10.753052924,8.5936166342,6.3996328932,9.67857614,11.094588197,6.3599785982,8.595336741,7.0101652518,6.8735720258,5.3818150076,,0,14,8,California,"San Francisco-Oakland-Hayward, CA",No,PM2.5,Undetermined/Insufficient Data,,,1,Yes,Decreasing,-0.344567689,0.005704958
06-045-0006,060450006,39.15047,-123.20655,Ukiah-Library,West,0,WTDAM,7.2134090909,7.983125,9.0746875,7.35125,6.9645833333,6.1882291667,6.8297172619,4.7166666667,7.8726282051,11.573022737,6.5245333443,7.5791210194,4.9234794614,,5.4729593354,8.5690685094,6.4365260137,9.4218785291,11.348843101,6.0172294606,10.273450463,9.0277282235,9.4007647631,6.9720167024,7.0066307985,1,24,8,California,"Ukiah, CA",Yes,PM2.5,No Trend,0.0416078334,0.2815392864,1,Yes,No Trend,0.1773797304,0.0571235862
06-045-2002,060452002,39.41174,-123.35264,Willits-125 East Commercial Street,West,0,WTDAM,,,,,,,,,,,7.7086350047,9.8392511515,7.1507655942,,8.7016393932,7.9807121973,6.1330880557,8.6843601994,9.6826034078,5.3104298033,12.400412088,,,,,0,10,8,California,"Ukiah, CA",No,PM2.5,Undetermined/Insufficient Data,,,0,No,Undetermined/Insufficient Data,,
06-045-2003,060452003,39.39861,-123.35872,Willits-Blosser Lane,West,0,WTDAM,,,,,,,,,,,,,,,,,,,,,,10.054607446,11.01609639,12.052198466,6.831078234,0,4,8,California,"Ukiah, CA",No,PM2.5,Undetermined/Insufficient Data,,,0,No,Undetermined/Insufficient Data,,
06-047-0003,060470003,37.281853,-120.433671,Merced-Coffee,West,0,WTDAM,,,,,,,,,,,16.305225885,15.63587097,10.962014231,13.253720826,10.752020247,12.748015757,11.922286773,13.288133808,15.11053435,9.1453548593,14.650314592,11.255909589,9.7771301163,8.3821010511,,0,14,8,California,"Merced, CA",No,PM2.5,Undetermined/Insufficient Data,,,1,Yes,Decreasing,-0.431013154,0.0077554116
06-047-2024,060472024,37.289732,-120.429718,Merced-Vierra,West,0,WTDAM,,,,,,,,,,,,,,,,,,,,,,,,,7.1578160511,0,1,8,California,"Merced, CA",No,PM2.5,Undetermined/Insufficient Data,,,0,No,Undetermined/Insufficient Data,,
06-047-2510,060472510,37.30832,-120.480456,Merced-M St,West,0,WTDAM,16.663214286,14.47261655,18.73821993,15.655,15.175452586,14.0775,14.822238863,15.225,,13.550229885,11.223718585,10.414347922,9.4896674877,13.52447318,11.246106874,12.614909688,11.170214921,12.625219081,14.237754913,9.6167454579,15.515318608,11.050710199,10.471741133,9.5880610479,7.8019102296,1,24,8,California,"Merced, CA",Yes,PM2.5,Decreasing,-0.278646159,0.0000119822,1,Yes,No Trend,-0.096795718,0.2175594555
06-049-0001,060490001,41.483225471,-120.5402336,Alturas-Fourth St.,West,0,WTDAM,8.515625,,,,,,,,,,,,,,,,,,,,,,,,,0,1,8,California,,No,PM2.5,Undetermined/Insufficient Data,,,,,,,
06-051-0001,060510001,37.64571,-118.96652,Mammoth Lakes,West,0,WTDAM,,,,7.5960144928,,,,,,,,,,,,,,,,7.5006822064,34.923649666,10.251500611,6.9136526181,7.0057642089,5.4008333333,0,7,8,California,,No,PM2.5,Undetermined/Insufficient Data,,,0,No,Undetermined/Insufficient Data,,
06-051-0005,060510005,37.962069,-119.120278,Lee Vining,West,0,WTDAM,,,,,,,,,,,,,,,,,,,,2.6056346695,20.889191118,,3.9927449163,3.1503159341,2.7270874506,0,5,8,California,,No,PM2.5,Undetermined/Insufficient Data,,,0,No,Undetermined/Insufficient Data,,
06-053-0002,060530002,36.481870001,-121.73333,Carmel Valley,West,0,WTDAM,,,,,,,,,,,,,5.6407877449,6.1956562683,6.4591747052,6.258183413,6.8080454472,5.1860394405,6.2708011554,3.665976252,7.7244377715,3.5346980127,3.5949333251,4.0545219449,4.9873670994,0,13,8,California,"Salinas, CA",No,PM2.5,Undetermined/Insufficient Data,,,1,Yes,No Trend,-0.075791384,0.189725198
06-053-0008,060530008,36.209286001,-121.126371,King City 2,West,0,WTDAM,,,,,,,,,,,,,5.981939855,6.661730172,3.171549545,5.9082411067,5.2197161534,6.4010982858,7.2982199745,5.5189522363,8.7601449275,6.656333648,5.1800750101,4.5402284771,5.3197852893,0,13,8,California,"Salinas, CA",No,PM2.5,Undetermined/Insufficient Data,,,1,Yes,No Trend,-0.024566249,0.3132472588
06-053-1003,060531003,36.694261001,-121.623271,Salinas 3,West,0,WTDAM,7.858046755,8.7499553571,9.072575188,7.294375,6.9888095238,6.7583333333,7.0735416667,7.015,7.207485119,5.8114583333,6.5682452334,6.3034781378,5.4641101652,6.6467035569,4.5550247198,4.5841583329,5.2924361316,5.6021353569,6.1478878047,4.1504155687,6.8481158787,4.803346038,5.1263174768,7.7026325788,5.838341051,1,25,8,California,"Salinas, CA",Yes,PM2.5,Decreasing,-0.121944109,0.0002765615,1,Yes,No Trend,0.0261527745,0.5
06-055-0003,060550003,38.310942,-122.296189,Napa,West,0,WTDAM,,,,,,,,,,,,,,11.719205497,11.959350933,10.613955771,8.5119554753,13.706223948,,,,,,,,0,5,8,California,"Napa, CA",No,PM2.5,Undetermined/Insufficient Data,,,0,No,Undetermined/Insufficient Data,,
06-055-0004,060550004,38.278849001,-122.275024,Napa Valley College,West,0,WTDAM,,,,,,,,,,,,,,,,,,,,5.9475244456,10.363574844,,,,,0,2,8,California,"Napa, CA",No,PM2.5,Undetermined/Insufficient Data,,,0,No,Undetermined/Insufficient Data,,
06-057-0005,060570005,39.233477001,-121.055608,Grass Valley-Litton Building,West,0,WTDAM,,,6.3441350316,,4.8661858974,,6.1989583333,4.8585714286,9.5623717949,4.5081547619,,4.2341666667,3.8174702381,5.7185989011,,4.56,4.6351190476,4.9490898618,5.9750619728,6.2593402302,14.121540134,8.7017669295,5.9572672376,4.7077314959,4.1082714541,1,19,8,California,"Truckee-Grass Valley, CA",Yes,PM2.5,No Trend,-0.022388623,0.2088154557,1,Yes,No Trend,0.1191538658,0.0571235862
06-057-1001,060571001,39.327830001,-120.184592,Truckee-Fire Station,West,0,WTDAM,8.7531810036,9.3629885057,7.5630240987,7.2690438871,7.0926843318,6.8289170507,6.2454184704,6.0166186636,9.4783370412,5.925,4.7035593501,,5.4925,,,,6.1953938965,6.5881244869,6.8357966507,5.3440932312,,,,,,0,16,8,California,"Truckee-Grass Valley, CA",No,PM2.5,Undetermined/Insufficient Data,,,0,No,Undetermined/Insufficient Data,,
06-059-0001,060590001,33.821353001,-117.91427,Anaheim (1010 Harbor Blvd),West,0,WTDAM,20.338522115,,,,,,,,,,,,,,,,,,,,,,,,,0,1,8,California,"Los Angeles-Long Beach-Anaheim, CA",No,PM2.5,Undetermined/Insufficient Data,,,,,,,
06-059-0007,060590007,33.83062,-117.93845,Anaheim,West,0,WTDAM,,,18.622684783,17.324435716,16.960401786,14.701160661,13.957757169,14.390233197,13.078226126,12.076183575,10.179225039,10.953520924,10.810639363,10.084411776,,9.3817033786,9.5433077487,11.464933641,11.420036962,9.3955294102,12.245929885,11.533530352,9.8657856214,9.1686246981,10.456432155,1,22,8,California,"Los Angeles-Long Beach-Anaheim, CA",Yes,PM2.5,Decreasing,-0.390561683,7.2734416E-7,1,Yes,No Trend,-0.026634835,0.4229205212
06-059-2022,060592022,33.63003,-117.67593,Mission Viejo,West,0,WTDAM,14.724568966,15.836847527,15.489624583,13.091778139,12.028677035,10.601477833,10.968646953,11.10075463,10.363511905,9.4527166938,7.9696049742,8.5473881363,7.9157795699,8.0782334869,,7.0540053322,7.3147824302,8.1119565217,8.5870289855,7.1054224138,10.372766846,9.3447762755,,,,0,21,8,California,"Los Angeles-Long Beach-Anaheim, CA",No,PM2.5,Undetermined/Insufficient Data,,,0,No,Undetermined/Insufficient Data,,
06-061-0003,060610003,38.93568,-121.09959,Auburn-Atwood,West,0,WTDAM,,,,,,,,,,,,,5.0842264914,6.5278457321,6.5706770897,7.6073514817,5.9481990232,5.64138661,8.5248049238,7.1516392644,12.430672953,9.7066777862,7.375385014,5.4321143692,5.1268925842,0,13,8,California,"Sacramento--Roseville--Arden-Arcade, CA",No,PM2.5,Undetermined/Insufficient Data,,,1,Yes,No Trend,0.1161924349,0.0697314296
06-061-0006,060610006,38.74643,-121.26498,Roseville-N Sunrise Ave,West,0,WTDAM,12.197619048,11.898214286,13.231547619,9.8916666667,9.3895833333,10.048809524,10.51875,8.3883333333,10.021904762,8.5948363095,6.6483333333,8.5138541667,6.4859821429,7.5151190476,7.8302083333,8.0676190476,6.8298958333,7.2216666667,11.945386905,6.5811458333,13.395089286,11.302971272,7.8569716676,7.5109636093,6.8797626821,1,25,8,California,"Sacramento--Roseville--Arden-Arcade, CA",Yes,PM2.5,Decreasing,-0.167094008,0.0056858647,1,Yes,No Trend,0.0379836244,0.2794830361
06-063-1006,060631006,39.939567001,-120.944376,Quincy-N Church Street,West,0,WTDAM,9.4334975369,11.468860213,,,,9.2197793992,9.0998331479,10.950113472,15.200402299,10.441045349,7.0764246944,10.800316092,9.5112035809,10.346451613,9.0481127988,9.2394467601,8.7558904138,12.105267178,10.379224894,7.8567014193,15.23578337,,,7.0397972724,5.7753269203,0,20,8,California,,No,PM2.5,Undetermined/Insufficient Data,,,1,Yes,No Trend,-0.092935555,0.3485907127
06-063-1009,060631009,39.808333,-120.471667,Portola-161 Nevada Street,West,0,WTDAM,,15.616764706,,13.284560124,11.702837644,10.558143939,10.891403295,13.002050265,13.829812635,9.3522607023,9.6562582102,11.906925743,13.045681585,,,,,,,,,,,,,0,11,8,California,,No,PM2.5,Undetermined/Insufficient Data,,,0,No,Undetermined/Insufficient Data,,
06-063-1010,060631010,39.81336,-120.47069,Portola,West,0,WTDAM,,,,,,,,,,,,,,,15.641881203,15.566244207,13.879244325,15.782078155,14.577135417,12.166854062,20.941705805,16.456478938,13.65100404,11.879878839,11.324071421,0,11,8,California,,No,PM2.5,Undetermined/Insufficient Data,,,0,No,Undetermined/Insufficient Data,,
06-065-0009,060650009,33.447867001,-117.088649,Pechanga,West,0,WTDAM,,,,,,,,,,,,8.3954039479,6.3663749513,8.4780419281,9.9935223808,11.040041633,9.5861580339,,,4.5229830292,6.1284257747,6.9847028732,5.5731086434,5.7669023916,,0,11,8,California,"Riverside-San Bernardino-Ontario, CA",No,PM2.5,Undetermined/Insufficient Data,,,0,No,Undetermined/Insufficient Data,,
06-065-0010,060650010,33.747236001,-115.820124,Joshua Tree NP - Cottonwood Visitor Center,West,0,WTDAM,,,,,,,,,,,,,,,,,,,7.452422248,5.0488740163,6.6483302821,,,,,0,3,8,California,"Riverside-San Bernardino-Ontario, CA",No,PM2.5,Undetermined/Insufficient Data,,,0,No,Undetermined/Insufficient Data,,
06-065-0500,060650500,33.719690001,-116.1897,29 Palms,West,0,WTDAM,,,,,,,,,,,,,,,,,,,,6.0272135035,7.7083604994,7.1476764412,9.3562089413,9.9534161815,8.9119861053,0,6,8,California,"Riverside-San Bernardino-Ontario, CA",No,PM2.5,Undetermined/Insufficient Data,,,0,No,Undetermined/Insufficient Data,,
06-065-1003,060651003,33.94603,-117.40063,Riverside (Magnolia),West,0,WTDAM,25.327444108,28.152938871,27.074411376,22.618964524,20.820923531,17.9139922,16.93989288,18.31177005,13.284626437,13.334122253,11.027773081,11.767078806,11.357181938,11.272641449,,,,,,,,,,,,0,14,8,California,"Riverside-San Bernardino-Ontario, CA",No,PM2.5,Undetermined/Insufficient Data,,,0,No,Undetermined/Insufficient Data,,
06-065-1016,060651016,33.9447129,-116.830074,Morongo Air Monitoring Station,West,0,WTDAM,,,,,,,,,,,,,9.5253627115,8.2661513925,10.642565979,9.6740486978,10.458806808,10.200858749,8.8825367487,7.3064651118,7.8642971422,8.0575587004,7.6653472222,5.6851947566,6.6485550285,0,13,8,California,"Riverside-San Bernardino-Ontario, CA",No,PM2.5,Undetermined/Insufficient Data,,,1,Yes,Decreasing,-0.257948059,0.0041349995
06-065-2002,060652002,33.70853,-116.21537,Indio,West,0,WTDAM,11.235858876,12.156003695,11.934100985,11.432638646,10.661772487,10.478013573,9.4541821946,9.7169977511,8.406397823,7.8220114943,6.8350654534,7.1674074074,7.6461781609,8.3511494253,,7.5395125745,7.69879264,8.1013003221,8.3248655914,7.3716071429,10.452377422,9.8569111078,,,,0,21,8,California,"Riverside-San Bernardino-Ontario, CA",No,PM2.5,Undetermined/Insufficient Data,,,0,No,Undetermined/Insufficient Data,,
06-065-2007,060652007,33.72537,-116.206842,Indio Amistad High School,West,0,WTDAM,,,,,,,,,,,,,,,,,,,,,,,,,9.0306467108,0,1,8,California,"Riverside-San Bernardino-Ontario, CA",No,PM2.5,Undetermined/Insufficient Data,,,0,No,Undetermined/Insufficient Data,,
06-065-5001,060655001,33.85275,-116.54101,Palm Springs,West,0,WTDAM,9.5969354839,10.721455939,10.012002225,9.0612016719,8.9286398467,,7.752149984,8.5859416274,7.1362752955,6.6386381809,5.9483279651,6.0459854071,6.4978402958,6.5218740399,,5.7604545455,5.4919940476,6.0378505291,6.0158064516,6.0545448647,6.4190053763,6.1986021505,6.3161725992,5.8629741379,6.7526909529,1,23,8,California,"Riverside-San Bernardino-Ontario, CA",Yes,PM2.5,Decreasing,-0.16097064,0.0000197406,1,Yes,No Trend,0.0209833557,0.2175594555
06-065-8001,060658001,33.999580001,-117.41601,Rubidoux,West,0,WTDAM,28.300265711,30.951858296,27.494069664,24.814179877,22.071172602,20.919217579,18.934457198,18.967537441,16.391023778,15.638600143,13.188732051,13.644316029,13.509042558,12.494802876,,11.892121641,12.533298495,12.339378285,12.591248853,11.362802065,13.324695413,12.737758069,10.795254884,10.635868835,12.487299928,1,24,8,California,"Riverside-San Bernardino-Ontario, CA",Yes,PM2.5,Decreasing,-0.658331862,5.244786E-10,1,Yes,Decreasing,-0.152965618,0.0294979225
06-065-8005,060658005,33.996360001,-117.4924,Mira Loma (Van Buren),West,0,WTDAM,,,,,,,20.848260582,20.932539683,18.289837569,17.176487299,15.207434029,15.334223342,15.063001778,14.112147459,,13.336279495,14.064474231,13.524847694,14.187977937,12.614552145,14.705900621,14.478635199,11.494442188,11.75520611,13.940390588,0,18,8,California,"Riverside-San Bernardino-Ontario, CA",No,PM2.5,Undetermined/Insufficient Data,,,1,Yes,Decreasing,-0.191377508,0.0137476326
06-067-0006,060670006,38.613779001,-121.368014,Sacramento-Del Paso Manor,West,0,WTDAM,,,,12.273272307,11.510253802,11.475409395,13.085744715,12.2575,13.24009733,10.695430108,8.7516145833,10.493813496,9.1466666667,11.532367722,8.7512091821,10.4251788,8.7560162489,9.7036692046,12.753799728,8.2732702543,14.698555096,10.230123825,10.075210422,8.4920691989,7.356850215,0,22,8,California,"Sacramento--Roseville--Arden-Arcade, CA",No,PM2.5,Undetermined/Insufficient Data,,,1,Yes,No Trend,-0.038054825,0.2475254263
06-067-0010,060670010,38.56844,-121.49311,Sacramento-1309 T Street,West,0,WTDAM,12.263883808,11.633492639,14.296720348,11.614736613,11.433238306,10.88644802,12.393147028,11.938165494,10.956878558,9.5069354839,8.0951751947,10.122209341,8.3110599078,10.082920507,8.5981107955,9.714411383,7.6946136654,9.1783990148,11.436292419,7.6813033,13.122541306,9.3790482631,8.5587960143,7.0647928783,6.8805844571,1,25,8,California,"Sacramento--Roseville--Arden-Arcade, CA",Yes,PM2.5,Decreasing,-0.18378496,0.0000403564,1,Yes,No Trend,-0.089974398,0.1407830351
06-067-0012,060670012,38.683304,-121.164457,Folsom-Natoma St.,West,0,WTDAM,,,,,,,,,,,,,,,7.1622569358,7.8800707752,6.8559844383,7.6091196374,9.5797061634,,,10.363221851,6.377943542,6.6392201722,5.9427344395,0,9,8,California,"Sacramento--Roseville--Arden-Arcade, CA",No,PM2.5,Undetermined/Insufficient Data,,,0,No,Undetermined/Insufficient Data,,
06-067-0015,060670015,38.593322,-121.503795,Sacramento-Bercut Drive,West,0,WTDAM,,,,,,,,,,,,,,,,,,9.3360637481,12.079454023,8.3713705837,14.466499042,10.903153236,9.3796046482,9.3716561964,7.7995549474,0,8,8,California,"Sacramento--Roseville--Arden-Arcade, CA",No,PM2.5,Undetermined/Insufficient Data,,,0,No,Undetermined/Insufficient Data,,
06-067-4001,060674001,38.556326,-121.458499,Sacramento Health Department-Stockton Blvd.,West,0,WTDAM,,,11.31847199,10.815019944,10.469297206,10.351382902,10.776502029,10.933492984,12.193218391,9.5596870501,7.8196915223,10.098164627,8.2035678532,9.6482078853,8.2894590054,9.685,7.0894265233,,,,,,,,,0,15,8,California,"Sacramento--Roseville--Arden-Arcade, CA",No,PM2.5,Undetermined/Insufficient Data,,,0,No,Undetermined/Insufficient Data,,
06-067-5003,060675003,38.494475,-121.211131,Sloughhouse,West,0,WTDAM,,,,,,,,,,,,,,,,,,,12.138962405,4.8009403484,11.776407831,8.8441628415,5.7306874447,5.9949832607,4.7277372507,0,7,8,California,"Sacramento--Roseville--Arden-Arcade, CA",No,PM2.5,Undetermined/Insufficient Data,,,0,No,Undetermined/Insufficient Data,,
06-069-0002,060690002,36.843425001,-121.3621,Hollister,West,0,WTDAM,,,,,,,,6.2479017857,6.9787946429,5.4975980392,5.6855806116,5.7154679033,4.8229632308,5.9295379993,4.6423322594,4.2805431928,4.3143100967,5.05565697,7.1516435954,4.9043502918,8.8789682148,5.634050937,5.0099408003,4.0425746942,7.1691121379,0,18,8,California,"San Jose-Sunnyvale-Santa Clara, CA",No,PM2.5,Undetermined/Insufficient Data,,,1,Yes,No Trend,0.0186977569,0.4229205212
06-071-0025,060710025,34.03723364,-117.6908886,Ontario Fire Station,West,0,WTDAM,24.052130907,26.47200825,25.399214286,23.795845516,20.891340631,18.783681217,18.414953018,18.28639881,15.786743979,14.676547303,12.997833425,13.289387694,12.419358679,11.97938374,,,,,,,,,,,,0,14,8,California,"Riverside-San Bernardino-Ontario, CA",No,PM2.5,Undetermined/Insufficient Data,,,0,No,Undetermined/Insufficient Data,,
06-071-0027,060710027,34.030833,-117.61722,Ontario-Route 60 Near Road,West,0,WTDAM,,,,,,,,,,,,,,,,14.476525127,14.874205342,14.606434538,14.541309247,12.816842252,15.13953655,14.672542406,12.196535704,12.286358696,14.26067158,0,10,8,California,"Riverside-San Bernardino-Ontario, CA",No,PM2.5,Undetermined/Insufficient Data,,,0,No,Undetermined/Insufficient Data,,
06-071-0306,060710306,34.510961111,-117.32554,Victorville-Park Avenue,West,0,WTDAM,11.986111111,11.519892473,13.868678161,11.635510275,10.795356794,9.6783251232,10.352083333,9.6550857843,8.6696969697,8.9974702381,7.2312937675,,,,,,7.4743175303,8.7789876138,7.9559190241,7.061808679,9.7165725036,10.250571946,8.9785657171,7.9074424695,9.044060559,0,20,8,California,"Riverside-San Bernardino-Ontario, CA",No,PM2.5,Undetermined/Insufficient Data,,,0,No,Undetermined/Insufficient Data,,
06-071-2002,060712002,34.10002,-117.49201,Fontana,West,0,WTDAM,24.490214412,25.044563492,24.300238095,22.137644928,19.875330688,18.833576481,17.511563062,18.877290373,15.296534041,14.218132184,11.948240513,12.55894243,12.823283623,12.292561179,,11.045333333,12.385503687,12.04234255,11.127034651,11.390220245,12.764373877,11.995357143,10.894418799,11.200137189,13.592630701,1,24,8,California,"Riverside-San Bernardino-Ontario, CA",Yes,PM2.5,Decreasing,-0.532117736,1.0162367E-7,1,Yes,No Trend,-0.055745402,0.2475254263
06-071-8001,060718001,34.264640001,-116.86147,Big Bear,West,0,WTDAM,10.164542037,11.216279762,,10.616419414,9.6494755245,,,10.342727273,9.1107291667,9.8781868132,,8.4471794872,,9.6660565476,,7.5492307692,6.7835164835,,6.7955929487,,7.6621875,7.0411904762,8.3368284493,5.9716620336,7.8155488315,0,17,8,California,"Riverside-San Bernardino-Ontario, CA",No,PM2.5,Undetermined/Insufficient Data,,,0,No,Undetermined/Insufficient Data,,
06-071-9004,060719004,34.106678001,-117.274063,San Bernardino,West,0,WTDAM,25.895307692,26.058549112,25.833189655,22.17321561,21.877839757,17.311344322,17.612517857,17.86473775,13.39712963,12.975835297,11.100415173,12.237285416,11.760111416,11.408068783,,10.744781372,11.141577061,11.432223716,11.165109195,10.454015937,12.220683887,11.924252874,11.262628435,10.504741379,13.386128268,1,24,8,California,"Riverside-San Bernardino-Ontario, CA",Yes,PM2.5,Decreasing,-0.466393545,3.1580681E-6,1,Yes,No Trend,0.0068603146,0.4612850452
06-073-0001,060730001,32.631242001,-117.059088,Chula Vista,West,0,WTDAM,13.136543438,15.455475734,13.937043439,14.441607143,12.233246653,11.822497013,11.214005376,12.560789744,12.308362069,11.447413793,9.5695973442,9.8567569334,10.25822766,9.4908083635,9.2594252874,8.3821637137,8.7358333333,9.3462218337,9.9642538065,8.143525641,10.700590677,9.5198678573,8.3127253929,8.858298495,9.9229888072,1,25,8,California,"San Diego-Carlsbad, CA",Yes,PM2.5,Decreasing,-0.231944314,1.7857145E-6,1,Yes,No Trend,-0.033688908,0.2794830361
06-073-0003,060730003,32.791194001,-116.942092,El Cajon,West,0,WTDAM,15.658265566,17.674720108,15.391012065,13.895230725,13.197962114,11.388324728,11.600557263,12.835357639,13.375428754,12.155603448,10.814498252,10.592424495,10.502009217,10.6019919,,,,,,,,,,,,0,14,8,California,"San Diego-Carlsbad, CA",No,PM2.5,Undetermined/Insufficient Data,,,0,No,Undetermined/Insufficient Data,,
06-073-0006,060730006,32.836461001,-117.128752,Kearny Mesa,West,0,WTDAM,12.422381815,13.503633005,12.84996408,11.934405788,10.90206044,10.149463054,11.04838604,10.443244048,11.398620238,10.513894863,8.7468316648,8.9545967742,,,,,,,,,,,,,,0,12,8,California,"San Diego-Carlsbad, CA",No,PM2.5,Undetermined/Insufficient Data,,,0,No,Undetermined/Insufficient Data,,
06-073-0077,060730077,32.650900001,-116.365,Campo Indian Reservation,West,0,WTDAM,,,,,,,,,,,,,,,,,,,,,,,5.4234968711,4.8696618188,5.770323698,0,3,8,California,"San Diego-Carlsbad, CA",No,PM2.5,Undetermined/Insufficient Data,,,0,No,Undetermined/Insufficient Data,,
06-073-1002,060731002,33.127769001,-117.075086,Escondido,West,0,WTDAM,15.779365631,17.494784083,15.989086208,14.1906929,14.064070932,12.259034636,11.468104237,13.310632215,14.235688104,13.460519532,10.542709852,10.413128476,10.577087505,10.544407477,9.5768604004,,,,,,,,,,,0,15,8,California,"San Diego-Carlsbad, CA",No,PM2.5,Undetermined/Insufficient Data,,,0,No,Undetermined/Insufficient Data,,
06-073-1006,060731006,32.842318001,-116.768293,Alpine,West,0,WTDAM,,,,,,,,,,,,,,7.8944125883,,,,,,,,,,5.8817078637,6.7115419575,0,3,8,California,"San Diego-Carlsbad, CA",No,PM2.5,Undetermined/Insufficient Data,,,0,No,Undetermined/Insufficient Data,,
06-073-1007,060731007,32.709223612,-117.1548411,San Diego-12th Ave,West,0,WTDAM,15.625062126,16.615174035,15.540300293,15.470635048,13.77379376,,,,,,,,,,,,,,,,,,,,,0,5,8,California,"San Diego-Carlsbad, CA",No,PM2.5,Undetermined/Insufficient Data,,,,,,,
06-073-1008,060731008,33.217046,-117.396249,Camp Pendleton,West,0,WTDAM,,,,,,,,,,,,,10.731382884,8.5035407478,,,,,,,,,,7.892232009,7.6720385814,0,4,8,California,"San Diego-Carlsbad, CA",No,PM2.5,Undetermined/Insufficient Data,,,0,No,Undetermined/Insufficient Data,,
06-073-1010,060731010,32.701492001,-117.149653,San Diego - Beardsley Street,West,0,WTDAM,,,,,,,13.135177531,12.739503738,13.741832574,11.793757928,10.425879166,10.866956305,11.070058488,10.377652804,10.155104357,9.3316522441,,,,,,,,,,0,10,8,California,"San Diego-Carlsbad, CA",No,PM2.5,Undetermined/Insufficient Data,,,0,No,Undetermined/Insufficient Data,,
06-073-1011,060731011,32.725226001,-116.3652034,La Posta Reservation,West,0,WTDAM,,,,,,,,,,,,,3.574178842,,4.4021445333,4.1080473147,4.9672222222,,,,,,,,,0,4,8,California,"San Diego-Carlsbad, CA",No,PM2.5,Undetermined/Insufficient Data,,,0,No,Undetermined/Insufficient Data,,
06-073-1014,060731014,32.578165,-116.921374,Donovan,West,0,WTDAM,,,,,,,,,,,,,,,,,,,,,,,,12.496044234,13.843830311,0,2,8,California,"San Diego-Carlsbad, CA",No,PM2.5,Undetermined/Insufficient Data,,,0,No,Undetermined/Insufficient Data,,
06-073-1016,060731016,32.845709001,-117.123964,San Diego - Kearny Villa Rd.,West,0,WTDAM,,,,,,,,,,,,,8.7076277563,8.3358249158,8.1134950292,7.2063821006,7.576153191,7.9922519919,8.3239247312,7.0141578249,8.7438793103,7.6973841305,6.876655495,7.0556471842,8.0491608935,0,13,8,California,"San Diego-Carlsbad, CA",No,PM2.5,Undetermined/Insufficient Data,,,1,Yes,Decreasing,-0.09184033,0.0179486187
06-073-1017,060731017,32.985428,-117.082198,San Diego -Rancho Carmel Drive,West,0,WTDAM,,,,,,,,,,,,,,,,,,,,,9.2872849462,8.508172043,7.673429803,6.9364497126,7.7336969793,0,5,8,California,"San Diego-Carlsbad, CA",No,PM2.5,Undetermined/Insufficient Data,,,0,No,Undetermined/Insufficient Data,,
06-073-1018,060731018,32.817978,-116.968133,El Cajon - Floyd Smith Dr.,West,0,WTDAM,,,,,,,,,,,,,,,,8.1999898409,,,,,,,,,,0,1,8,California,"San Diego-Carlsbad, CA",No,PM2.5,Undetermined/Insufficient Data,,,0,No,Undetermined/Insufficient Data,,
06-073-1022,060731022,32.789565001,-116.944308,El Cajon - Lexington Elementary School,West,0,WTDAM,,,,,,,,,,,,,,,,,,9.5757859848,9.6499705188,8.5909938103,10.339748865,9.7292489821,8.9657671891,8.4685626692,9.1970368822,0,8,8,California,"San Diego-Carlsbad, CA",No,PM2.5,Undetermined/Insufficient Data,,,0,No,Undetermined/Insufficient Data,,
06-073-1025,060731025,32.552824,-117.047345,San Ysidro,West,0,WTDAM,,,,,,,,,,,,,,,,,,,,,,,,,13.352591679,0,1,8,California,"San Diego-Carlsbad, CA",No,PM2.5,Undetermined/Insufficient Data,,,0,No,Undetermined/Insufficient Data,,
06-073-1026,060731026,32.710177001,-117.142665,San Diego - Sherman Elementary School,West,0,WTDAM,,,,,,,,,,,,,,,,,,,,,10.68841954,9.7375,9.1227741532,9.0779972262,9.6091570759,0,5,8,California,"San Diego-Carlsbad, CA",No,PM2.5,Undetermined/Insufficient Data,,,0,No,Undetermined/Insufficient Data,,
06-073-1201,060731201,33.362592834,-117.09023,Pala Airpad,West,0,WTDAM,,,,,,,,,,0.0002747253,0.0002840909,9.7897365518,9.5437559723,8.4857079779,7.1966320811,6.5917571137,7.4553960623,7.7370825658,12.067093977,12.738702589,19.519175095,10.348441963,7.1557588788,,4.9521768992,0,15,8,California,"San Diego-Carlsbad, CA",No,PM2.5,Undetermined/Insufficient Data,,,1,Yes,No Trend,-0.049939531,0.4612850452
06-075-0005,060750005,37.765946,-122.399044,San Francisco,West,0,WTDAM,,11.517737199,13.117026015,10.167318561,9.9466669158,9.4969852941,9.6878445234,8.6575987726,9.8411574074,9.7005789516,10.520225732,9.4926840838,8.1611088732,10.072348541,7.6563170862,7.5765550018,7.547767578,9.7249911583,11.672618509,7.6510775909,10.507205566,7.1933888171,6.7666742406,,,1,22,8,California,"San Francisco-Oakland-Hayward, CA",Yes,PM2.5,Decreasing,-0.168700126,0.000050779,1,Yes,Decreasing,-0.142238192,0.005704958
06-077-1002,060771002,37.950740899,-121.2685227,Stockton-Hazelton,West,0,WTDAM,15.463172043,13.854301075,16.6828125,13.584848485,13.202956989,12.47942158,13.098387097,12.908083717,14.355258621,11.321828818,10.594006467,11.311038714,12.355555705,17.684198024,12.099280605,12.788953961,11.813412242,12.082167726,17.583989157,9.3243715513,14.049569199,12.141477198,,,,0,22,8,California,"Stockton-Lodi, CA",No,PM2.5,Undetermined/Insufficient Data,,,0,No,Undetermined/Insufficient Data,,
06-077-1003,060771003,37.961578,-121.281414,Stockton - University Park,West,0,WTDAM,,,,,,,,,,,,,,,,,,,,,,,10.163745964,10.670485421,10.098779469,0,3,8,California,"Stockton-Lodi, CA",No,PM2.5,Undetermined/Insufficient Data,,,0,No,Undetermined/Insufficient Data,,
06-077-2010,060772010,37.793392,-121.247874,Manteca,West,0,WTDAM,,,,,,,,,,,,10.749423744,8.1027977684,11.620626122,9.7998167093,12.620749032,9.8132851915,11.133545535,13.410054453,8.1399474053,14.785717064,11.726241042,9.0348664932,7.8877346838,8.1149927,0,14,8,California,"Stockton-Lodi, CA",No,PM2.5,Undetermined/Insufficient Data,,,1,Yes,No Trend,-0.121770147,0.3485907127
06-079-2002,060792002,35.28386358,-120.6551713,San Luis Obispo-Marsh St.,West,0,WTDAM,8.2903030303,,,7.4106009615,6.8317857143,,,,,,,,,,,,,,,,,,,,,0,3,8,California,"San Luis Obispo-Paso Robles-Arroyo Grande, CA",No,PM2.5,Undetermined/Insufficient Data,,,,,,,
06-079-2004,060792004,35.02083,-120.56388,Mesa2,West,0,WTDAM,,,,,,,,,,,8.1754046306,8.2678363775,8.0538490043,9.7001938339,10.186726344,8.731835133,5.842719138,9.1392738021,7.5636479402,7.0042447526,9.478218636,6.5267058636,6.6060437432,4.7213412493,5.6470755966,0,15,8,California,"San Luis Obispo-Paso Robles-Arroyo Grande, CA",No,PM2.5,Undetermined/Insufficient Data,,,1,Yes,Decreasing,-0.213987373,0.0137476326
06-079-2006,060792006,35.25651,-120.6693,San Luis Obispo,West,0,WTDAM,,,,,,,6.9757211538,6.7530952381,7.5111904762,6.1395833333,5.489375,6.6819027253,6.1678055489,6.8249622428,6.0328664834,,,6.8187409319,5.8601079419,5.2426836881,7.9237733812,,,,,0,13,8,California,"San Luis Obispo-Paso Robles-Arroyo Grande, CA",No,PM2.5,Undetermined/Insufficient Data,,,0,No,Undetermined/Insufficient Data,,
06-079-2007,060792007,35.046730001,-120.58777,CDF,West,0,WTDAM,,,,,,,,,,,,11.950256871,9.6008768436,12.46794472,12.778273948,11.143123447,8.1693268974,9.6262345679,8.7741256447,6.056715813,9.0749601847,8.0495669705,9.1219165262,6.785452164,5.4253746616,0,14,8,California,"San Luis Obispo-Paso Robles-Arroyo Grande, CA",No,PM2.5,Undetermined/Insufficient Data,,,1,Yes,Decreasing,-0.413632652,0.0009679814
06-079-2020,060792020,35.259501518,-120.6447199,SLO Roberto,West,0,WTDAM,,,,,,,,,,,,,,,,,,,,,,5.9299450549,6.5072338116,4.1456070849,3.8041273282,0,4,8,California,"San Luis Obispo-Paso Robles-Arroyo Grande, CA",No,PM2.5,Undetermined/Insufficient Data,,,0,No,Undetermined/Insufficient Data,,
06-079-8001,060798001,35.49158,-120.66804,Atascadero (original site),West,0,WTDAM,10.310520833,10.134315476,9.1869791667,8.1884821429,8.2883333333,7.4039880952,8.3610119048,7.8155952381,8.1479761905,9.2456949988,6.2623146116,7.5322052947,6.0169416182,7.5499243178,5.7737137259,,,,,,,,,,,0,15,8,California,"San Luis Obispo-Paso Robles-Arroyo Grande, CA",No,PM2.5,Undetermined/Insufficient Data,,,0,No,Undetermined/Insufficient Data,,
06-079-8002,060798002,35.49453,-120.66617,Atascadero,West,0,WTDAM,,,,,,,,,,,,,,,,4.9852309885,6.2759827328,5.7011347206,6.4501893078,4.2204678571,9.7729175487,6.6655033859,6.1375471547,3.7524923568,4.8124572162,0,10,8,California,"San Luis Obispo-Paso Robles-Arroyo Grande, CA",No,PM2.5,Undetermined/Insufficient Data,,,0,No,Undetermined/Insufficient Data,,
06-081-1001,060811001,37.482934,-122.20337,Redwood City,West,0,WTDAM,11.087889785,11.321666667,11.508146592,8.8645960108,9.2672881088,8.7775235215,9.6296370968,8.2969321237,9.1142099567,8.6922714604,8.3398449362,8.7110478168,8.4916008655,10.715010598,7.1116594854,5.709590944,8.3016669119,9.0729319292,10.570649192,7.0223300917,9.8284912672,6.0562879458,6.8331381527,8.0246714949,,1,24,8,California,"San Francisco-Oakland-Hayward, CA",Yes,PM2.5,Decreasing,-0.121948946,0.0008473618,1,Yes,No Trend,-0.042448125,0.189725198
06-083-0011,060830011,34.427774996,-119.6912178,Santa Barbara,West,0,WTDAM,,,,9.7901515152,10.989848485,10.607714161,10.128351648,9.49,10.413928571,,8.942904039,10.952796848,8.5378229159,8.915636845,8.8841646089,,,,8.5793709853,6.8092889157,9.2514351777,6.6833734741,7.9527808363,7.975730819,7.3178910763,0,18,8,California,"Santa Maria-Santa Barbara, CA",No,PM2.5,Undetermined/Insufficient Data,,,0,No,Undetermined/Insufficient Data,,
06-083-1008,060831008,34.942872,-120.435611,Santa Maria,West,0,WTDAM,9.906466034,10.396145833,9.5247767857,8.5526190476,7.5469230769,,7.5108974359,7.8752106227,7.8692307692,6.851875,6.1771437198,7.7472470015,7.5904260095,7.5909417829,7.7927742379,7.7150100369,7.0419456522,7.2581753017,6.9942559726,4.8380543163,7.9032862171,,,,,0,20,8,California,"Santa Maria-Santa Barbara, CA",No,PM2.5,Undetermined/Insufficient Data,,,0,No,Undetermined/Insufficient Data,,
06-083-1009,060831009,34.890666667,-120.4328444,Santa Maria,West,0,WTDAM,,,,,,,,,,,,,,,,,,,,,,,,4.1087841024,5.2928671872,0,2,8,California,"Santa Maria-Santa Barbara, CA",No,PM2.5,Undetermined/Insufficient Data,,,0,No,Undetermined/Insufficient Data,,
06-083-2004,060832004,34.637820001,-120.4575,Lompoc H Street,West,0,WTDAM,,,,,,,,,,,,,,,,7.0602638369,7.0428337112,7.8444394675,6.6177218645,4.6339010842,6.52304084,5.7911020592,5.6120375352,4.6164639446,4.3056435609,0,10,8,California,"Santa Maria-Santa Barbara, CA",No,PM2.5,Undetermined/Insufficient Data,,,0,No,Undetermined/Insufficient Data,,
06-083-2011,060832011,34.445510001,-119.8284,Goleta,West,0,WTDAM,,,,,,,,,,,,,,,7.8280580452,8.2603609366,7.0670597087,9.3694980328,7.8834808354,5.0105315035,7.3809960388,5.7459685411,5.160241711,5.6338325589,6.0868883936,0,11,8,California,"Santa Maria-Santa Barbara, CA",No,PM2.5,Undetermined/Insufficient Data,,,0,No,Undetermined/Insufficient Data,,
06-083-9001,060839001,34.39424,-119.514721,,West,0,WTDAM,,,,,,,,,,,,,,,,,,,,,,,,,5.19776784,0,1,8,California,"Santa Maria-Santa Barbara, CA",No,PM2.5,Undetermined/Insufficient Data,,,0,No,Undetermined/Insufficient Data,,
06-085-0002,060850002,36.999571,-121.574684,Gilroy,West,0,WTDAM,,,,,,,,7.0898142717,8.6623201706,8.872311828,8.2148783097,8.1080525724,7.3874857495,8.6193147275,6.8278692724,7.153703844,5.6448870138,5.4642519735,7.7396428963,5.8118356184,9.925,5.4551257938,6.9669112433,4.6818723346,,0,17,8,California,"San Jose-Sunnyvale-Santa Clara, CA",No,PM2.5,Undetermined/Insufficient Data,,,1,Yes,Decreasing,-0.225467785,0.005704958
06-085-0004,060850004,37.339666,-121.888575,San Jose - 4th St.,West,0,WTDAM,13.621141553,12.781524027,,,,,,,,,,,,,,,,,,,,,,,,0,2,8,California,"San Jose-Sunnyvale-Santa Clara, CA",No,PM2.5,Undetermined/Insufficient Data,,,,,,,
06-085-0005,060850005,37.348497,-121.894898,San Jose - Jackson,West,0,WTDAM,,,,11.713968634,11.631585518,11.755777332,10.776904781,10.704884414,11.501685179,10.145049022,8.8335854342,9.856898511,9.1664621044,12.40620687,8.3724884215,9.9677412789,8.364792851,9.5486843242,12.791950483,9.0552322707,11.500158797,8.8708865113,10.121514108,8.1698473038,9.2224730954,0,22,8,California,"San Jose-Sunnyvale-Santa Clara, CA",No,PM2.5,Undetermined/Insufficient Data,,,1,Yes,No Trend,-0.015889976,0.4612850452
06-085-0006,060850006,37.338135,-121.849783,San Jose - Knox Avenue,West,0,WTDAM,,,,,,,,,,,,,,,,8.3754213433,9.121518396,10.771558508,12.274461368,7.3736581756,12.482261755,10.930664915,8.757958742,6.9400871493,,0,9,8,California,"San Jose-Sunnyvale-Santa Clara, CA",No,PM2.5,Undetermined/Insufficient Data,,,0,No,Undetermined/Insufficient Data,,
06-085-2003,060852003,37.3062,-121.84885,San Jose,West,0,WTDAM,12.228401182,11.578788472,11.992141384,10.129484917,10.401343868,10.455902778,,,,,,,,,,,,,,,,,,,,0,6,8,California,"San Jose-Sunnyvale-Santa Clara, CA",No,PM2.5,Undetermined/Insufficient Data,,,,,,,
06-087-0007,060870007,36.983320001,-121.98822,Santa Cruz,West,0,WTDAM,7.93125,9.1289285714,8.5692436975,7.3920821886,,,6.8472172619,6.3517857143,6.785625,5.7094791667,6.5034402041,6.4642218379,5.7633164609,6.6718582182,5.3757345191,4.8536978299,5.2870790182,7.0935821123,8.3281121253,6.5019152461,8.1897823433,4.8599377555,5.4753347743,5.0976242849,6.1515996781,1,23,8,California,"Santa Cruz-Watsonville, CA",Yes,PM2.5,Decreasing,-0.107714694,0.0004914912,1,Yes,No Trend,-0.028798169,0.3132472588
06-087-1005,060871005,37.063150001,-122.083092,San Lorenzo Valley Middle School,West,0,WTDAM,,,,,,,,,,,,,,,,6.1290982631,5.2068210963,5.7942899501,6.5336032105,4.7397529598,10.996115427,5.7014232919,5.0039114143,5.5504498792,6.0708406645,0,10,8,California,"Santa Cruz-Watsonville, CA",No,PM2.5,Undetermined/Insufficient Data,,,0,No,Undetermined/Insufficient Data,,
