"site_id","site","latitude","longitude","local_site_name","noaa_region","POC","statistic","val1990","val1991","val1992","val1993","val1994","val1995","val1996","val1997","val1998","val1999","val2000","val2001","val2002","val2003","val2004","val2005","val2006","val2007","val2008","val2009","val2010","val2011","val2012","val2013","val2014","val2015","val2016","val2017","val2018","val2019","val2020","val2021","trendsite_1990_2021","nyrs","region","state","cbsa","used_in_nat_agg_1990_2021","parameter_name","trend_1990_2021","beta_1990_2021","prob_1990_2021","trendsite_2000_2021","used_in_nat_agg_2000_2021","trend_2000_2021","beta_2000_2021","prob_2000_2021","trendsite_2010_2021","used_in_nat_agg_2010_2021","trend_2010_2021","beta_2010_2021","prob_2010_2021"
01-073-0023,010730023,33.553056001,-86.815,North Birmingham,Southeast,1,P98V,,,,,,,,,,,,,,,,,,,,,,,,,,40.1,,38,37.5,44.9,36.6,38.1,0,6,6,Alabama,"Birmingham-Hoover, AL",No,NO2,Undetermined/Insufficient Data,,,0,No,Undetermined/Insufficient Data,,,0,No,Undetermined/Insufficient Data,,
01-073-2059,010732059,33.521427486,-86.844112,Arkadelphia/Near Road,Southeast,1,P98V,,,,,,,,,,,,,,,,,,,,,,,,,51.2,,52.8,,44.8,49.9,43.7,42,0,6,6,Alabama,"Birmingham-Hoover, AL",No,NO2,Undetermined/Insufficient Data,,,0,No,Undetermined/Insufficient Data,,,0,No,Undetermined/Insufficient Data,,
01-089-0014,010890014,34.687761126,-86.58636248,HUNTSVILLE OLD AIRPORT,Southeast,1,P98V,,59,62,53,,,,,,,,,,,,,,,,,,,,,,,,,,,,,0,3,6,Alabama,"Huntsville, AL",No,NO2,Undetermined/Insufficient Data,,,,,,,,,,,,
02-090-0034,020900034,64.84569,-147.727413,NCORE,None,1,P98V,,,,,,,,,,,,,,,,,,,,,,,,,,68.1,,55.2,53.8,,,,0,3,0,Alaska,"Fairbanks, AK",No,NO2,Undetermined/Insufficient Data,,,0,No,Undetermined/Insufficient Data,,,0,No,Undetermined/Insufficient Data,,
04-012-8000,040128000,34.2439,-113.5586,ALAMO LAKE,Southwest,1,P98V,,,,,,,,,,,,,,,,,,,,,,,,,,4.8,,,,,,,0,1,7,Arizona,,No,NO2,Undetermined/Insufficient Data,,,0,No,Undetermined/Insufficient Data,,,0,No,Undetermined/Insufficient Data,,
04-013-0019,040130019,33.483780001,-112.14256,WEST PHOENIX,Southwest,1,P98V,,,,,,88,,,87,96,109,69,,,69,67,72,65,60,55,55,55,58,56,57,55,54,56,52,47,48,47,0,23,7,Arizona,"Phoenix-Mesa-Scottsdale, AZ",No,NO2,Undetermined/Insufficient Data,,,1,Yes,Decreasing,-1.214285714,1.4954893E-8,1,Yes,Decreasing,-1,0.0068853841
04-013-3002,040133002,33.457970001,-112.04659,CENTRAL PHOENIX,Southwest,6,P98V,,45,,,,89,90,,88,123,92,77,81,,69,69,71,71,67,66,59,60,63,60,60,59,59,62,56,52,54,54,0,26,7,Arizona,"Phoenix-Mesa-Scottsdale, AZ",No,NO2,Undetermined/Insufficient Data,,,1,Yes,Decreasing,-1.230769231,9.750775E-10,1,Yes,Decreasing,-0.708333333,0.0155251214
04-013-3003,040133003,33.479680001,-111.91721,SOUTH SCOTTSDALE,Southwest,1,P98V,,,,,,,,,73,172,225,69,64,,62,62,60,59,57,52,53,,,,,,,,,,,,0,12,7,Arizona,"Phoenix-Mesa-Scottsdale, AZ",No,NO2,Undetermined/Insufficient Data,,,0,No,Undetermined/Insufficient Data,,,0,No,Undetermined/Insufficient Data,,
04-013-3010,040133010,33.460930001,-112.11748,GREENWOOD,Southwest,1,P98V,,,,,,,,,101,120,94,86,91,,82,82,92,76,73,70,68,65,65,63,64,61,,,,,,,0,17,7,Arizona,"Phoenix-Mesa-Scottsdale, AZ",No,NO2,Undetermined/Insufficient Data,,,0,No,Undetermined/Insufficient Data,,,0,No,Undetermined/Insufficient Data,,
04-013-4011,040134011,33.369850001,-112.62068,BUCKEYE,Southwest,1,P98V,,,,,,,,,,,,,,,,40,43,,45,35,35,38,39,33,37,34,29,,34,33,36,33,0,15,7,Arizona,"Phoenix-Mesa-Scottsdale, AZ",No,NO2,Undetermined/Insufficient Data,,,0,No,Undetermined/Insufficient Data,,,1,Yes,No Trend,-0.291666667,0.0984749717
04-013-4019,040134019,33.396230001,-111.96799,Diablo,Southwest,1,P98V,,,,,,,,,,,,,,,,,,,,,,,,,,53,54,58,56,50,,,0,5,7,Arizona,"Phoenix-Mesa-Scottsdale, AZ",No,NO2,Undetermined/Insufficient Data,,,0,No,Undetermined/Insufficient Data,,,0,No,Undetermined/Insufficient Data,,
04-013-4020,040134020,33.461730001,-112.12796,Thirty-Third,Southwest,1,P98V,,,,,,,,,,,,,,,,,,,,,,,,,,,63,67,62,,57,59,0,5,7,Arizona,"Phoenix-Mesa-Scottsdale, AZ",No,NO2,Undetermined/Insufficient Data,,,0,No,Undetermined/Insufficient Data,,,0,No,Undetermined/Insufficient Data,,
04-013-9997,040139997,33.503833,-112.095767,JLG SUPERSITE,Southwest,1,P98V,,,,,,,,,,94,80,,,,66,67,64,61,64,56,,54,58,,52,,51.2,,50.2,48.2,47.5,50.5,0,16,7,Arizona,"Phoenix-Mesa-Scottsdale, AZ",No,NO2,Undetermined/Insufficient Data,,,0,No,Undetermined/Insufficient Data,,,0,No,Undetermined/Insufficient Data,,
04-019-0002,040190002,32.222058001,-110.974681,DOWNTOWN,Southwest,1,P98V,,,73,,,,,,,,,,,,,,,,,,,,,,,,,,,,,,0,1,7,Arizona,"Tucson, AZ",No,NO2,Undetermined/Insufficient Data,,,,,,,,,,,,
04-019-0019,040190019,32.290074946,-111.0006507,Pomona,Southwest,1,P98V,,,77,73,67,66,,,,,,,,,,,,,,,,,,,,,,,,,,,0,4,7,Arizona,"Tucson, AZ",No,NO2,Undetermined/Insufficient Data,,,,,,,,,,,,
04-019-1011,040191011,32.2044107,-110.878067,22ND & CRAYCROFT,Southwest,1,P98V,74,62,62,62,65,,60,59,55,59,60,53,55,54,52,47,45,49,49,44,46.2,47,47,43.7,42.8,40.4,33.5,37.4,41.2,,36.5,38.3,1,30,7,Arizona,"Tucson, AZ",Yes,NO2,Decreasing,-0.978713768,1.252372E-16,1,Yes,Decreasing,-0.933333333,5.2972482E-9,1,Yes,Decreasing,-0.966666667,0.0026901539
04-019-1028,040191028,32.29515,-110.9823,CHILDREN'S PARK NCore,Southwest,1,P98V,,,,,,,,,,,52,52,53,52,52,46,48,46,45,40,40,42.2,,39.7,,35.7,32.8,36,35.7,30.1,27.9,31.3,0,20,7,Arizona,"Tucson, AZ",No,NO2,Undetermined/Insufficient Data,,,1,Yes,Decreasing,-1.185714286,1.782003E-11,1,Yes,Decreasing,-1.205,0.0001200121
04-027-0006,040270006,32.677855,-114.4758605,YUMA GAME & FISH,Southwest,1,P98V,,,,,,,,,,,,,,,,,49,,,,,,,,,,,,,,,,0,1,7,Arizona,"Yuma, AZ",No,NO2,Undetermined/Insufficient Data,,,0,No,Undetermined/Insufficient Data,,,,,,,
05-035-0005,050350005,35.197287632,-90.19314077,MARION,South,1,P98V,,,,,,,,,,,,,,,,,52,51,50,40,51,46,,38.6,41.8,35.9,38,37.1,37.7,40.2,35.6,37.4,0,15,5,Arkansas,"Memphis, TN-MS-AR",No,NO2,Undetermined/Insufficient Data,,,0,No,Undetermined/Insufficient Data,,,1,Yes,Decreasing,-0.88,0.0026901539
05-119-0007,051190007,34.756188804,-92.28129586,PARR,South,1,P98V,,,,,,,,,,,,,62,54,54,54,50,46,40,40,51,47.4,55.2,46.9,44.6,45.2,40.8,39,41.6,38.3,35.9,38.2,0,20,5,Arkansas,"Little Rock-North Little Rock-Conway, AR",No,NO2,Undetermined/Insufficient Data,,,1,Yes,Decreasing,-1.133333333,3.5637669E-7,1,Yes,Decreasing,-1.343333333,0.0000220646
05-119-1002,051191002,34.835721121,-92.26058138,NLR AIRPORT,South,1,P98V,52,50,53,51,59,54,52,47,53,61.2,,,,,,,,,,,,,,,,,,,,,,,0,10,5,Arkansas,"Little Rock-North Little Rock-Conway, AR",No,NO2,Undetermined/Insufficient Data,,,,,,,,,,,,
06-001-0003,060010003,37.6849,-121.7659,Livermore - Old 1st St.,West,1,P98V,80,80,70,70,64,69,64,62,59,69,,,,,,,,,,,,,,,,,,,,,,,0,10,8,California,"San Francisco-Oakland-Hayward, CA",No,NO2,Undetermined/Insufficient Data,,,,,,,,,,,,
06-001-0007,060010007,37.687526,-121.784217,Livermore,West,1,P98V,,,,,,,,,,,54,54,57,52,49,49,49,47,52,43,44,44.3,42,44.6,45.2,37.2,34.4,39,47.9,37.2,38.6,32.7,0,22,8,California,"San Francisco-Oakland-Hayward, CA",No,NO2,Undetermined/Insufficient Data,,,1,Yes,Decreasing,-0.958823529,7.8952023E-7,1,Yes,No Trend,-0.806349206,0.0984749717
06-001-0009,060010009,37.743065,-122.169935,Oakland,West,1,P98V,,,,,,,,,,,,,,,,,,,53,50,54,46.4,48.4,48.7,53.5,42.9,39.4,43.1,45.2,38.8,38.9,35.3,0,14,8,California,"San Francisco-Oakland-Hayward, CA",No,NO2,Undetermined/Insufficient Data,,,0,No,Undetermined/Insufficient Data,,,1,Yes,Decreasing,-1.4,0.0015908235
06-001-0010,060010010,37.760228638,-122.1935782,Oakland-International Blvd.,West,1,P98V,,,,,,,,,,,,,61,,,,,,,,,,,,,,,,,,,,0,1,8,California,"San Francisco-Oakland-Hayward, CA",No,NO2,Undetermined/Insufficient Data,,,0,No,Undetermined/Insufficient Data,,,,,,,
06-001-0011,060010011,37.814781,-122.282347,Oakland West,West,1,P98V,,,,,,,,,,,,,,,,,,,,,47,49.6,47.5,52.7,52,45,41,45.8,49.6,40,43.3,39.1,0,12,8,California,"San Francisco-Oakland-Hayward, CA",No,NO2,Undetermined/Insufficient Data,,,0,No,Undetermined/Insufficient Data,,,1,Yes,Decreasing,-0.747979798,0.0223684493
06-001-0012,060010012,37.793624,-122.263376,Laney College,West,1,P98V,,,,,,,,,,,,,,,,,,,,,,,,,,48.9,46.6,51.7,53.8,47.8,47.5,39.8,0,7,8,California,"San Francisco-Oakland-Hayward, CA",No,NO2,Undetermined/Insufficient Data,,,0,No,Undetermined/Insufficient Data,,,0,No,Undetermined/Insufficient Data,,
06-001-0013,060010013,37.864767001,-122.302741,Berkeley- Aquatic Park,West,1,P98V,,,,,,,,,,,,,,,,,,,,,,,,,,,,50.5,52.1,41.9,40.9,,0,4,8,California,"San Francisco-Oakland-Hayward, CA",No,NO2,Undetermined/Insufficient Data,,,0,No,Undetermined/Insufficient Data,,,0,No,Undetermined/Insufficient Data,,
06-001-0015,060010015,37.701222001,-121.903019,Pleasanton - Owens Ct,West,1,P98V,,,,,,,,,,,,,,,,,,,,,,,,,,,,,,40.6,41.8,35.8,0,3,8,California,"San Francisco-Oakland-Hayward, CA",No,NO2,Undetermined/Insufficient Data,,,0,No,Undetermined/Insufficient Data,,,0,No,Undetermined/Insufficient Data,,
06-001-1001,060011001,37.535833,-121.961823,Fremont - Chapel Way,West,1,P98V,100,100,70,72,74,68,65,72,64,71,65,58,58,53,50,51,48,48,48,45,,,,,,,,,,,,,0,20,8,California,"San Francisco-Oakland-Hayward, CA",No,NO2,Undetermined/Insufficient Data,,,0,No,Undetermined/Insufficient Data,,,,,,,
06-001-2004,060012004,37.877794,-122.30129,Berkeley,West,1,P98V,,,,,,,,,,,,,,,,,,,45,43,44,,,,,,,,,,,,0,3,8,California,"San Francisco-Oakland-Hayward, CA",No,NO2,Undetermined/Insufficient Data,,,0,No,Undetermined/Insufficient Data,,,0,No,Undetermined/Insufficient Data,,
06-001-2005,060012005,37.689615,-121.631916,Patterson Pass,West,1,P98V,,,,,,,,,,,,,,,,,,,,,,,22.1,,,,,,,,,,0,1,8,California,"San Francisco-Oakland-Hayward, CA",No,NO2,Undetermined/Insufficient Data,,,0,No,Undetermined/Insufficient Data,,,0,No,Undetermined/Insufficient Data,,
06-007-0002,060070002,39.757371488,-121.8432863,Chico-Manzanita Ave.,West,1,P98V,70,,60,60,56,59,56,51,55,67,52,48,48,45,46,43,40,,40,34,32,34,,,,,,,,,,,0,20,8,California,"Chico, CA",No,NO2,Undetermined/Insufficient Data,,,0,No,Undetermined/Insufficient Data,,,0,No,Undetermined/Insufficient Data,,
06-007-0008,060070008,39.76168,-121.84047,Chico-East Avenue,West,1,P98V,,,,,,,,,,,,,,,,,,,,,,,,39.9,36.5,32.6,29.2,30.2,36.3,34.9,26.7,21.7,0,9,8,California,"Chico, CA",No,NO2,Undetermined/Insufficient Data,,,0,No,Undetermined/Insufficient Data,,,0,No,Undetermined/Insufficient Data,,
06-013-0002,060130002,37.936013,-122.026154,Concord,West,1,P98V,70,80,70,70,64,63,57,55,52,72,49,54,47,47,44,38,40,38,37,35,31.6,37.9,35.7,38.7,37.8,31,28.9,31.7,32.4,29.6,28.7,25.3,1,32,8,California,"San Francisco-Oakland-Hayward, CA",Yes,NO2,Decreasing,-1.5,1.252372E-16,1,Yes,Decreasing,-1.015,8.9753676E-9,1,Yes,Decreasing,-0.975,0.0068853841
06-013-0003,060130003,37.949923909,-122.3571931,Richmond-13th St.,West,1,P98V,70,70,60,65,60,59,54,,,,,,,,,,,,,,,,,,,,,,,,,,0,7,8,California,"San Francisco-Oakland-Hayward, CA",No,NO2,Undetermined/Insufficient Data,,,,,,,,,,,,
06-013-0010,060130010,38.031220998,-122.1328767,,West,1,P98V,,,,,,,,,,,,,48,,,,,,,,,,,,,,,,,,,,0,1,8,California,"San Francisco-Oakland-Hayward, CA",No,NO2,Undetermined/Insufficient Data,,,0,No,Undetermined/Insufficient Data,,,,,,,
06-013-1002,060131002,38.006311,-121.641918,Bethel Island,West,1,P98V,50,50,50,50,47,43,39,41,35,39,35,37,37,36,29,29,34,36,30,27,24,30.3,28.5,,30.5,26.6,23.5,27,28.3,23.5,24.1,21.3,1,31,8,California,"San Francisco-Oakland-Hayward, CA",Yes,NO2,Decreasing,-0.833333333,3.472073E-13,1,Yes,Decreasing,-0.625,0.0000176314,1,Yes,Decreasing,-0.5875,0.0431585573
06-013-1003,060131003,37.9642,-122.3403,San Pablo - El Portal Center,West,1,P98V,,,,,,,,,45,55,49,52,,,,,,,,,,,,,,,,,,,,,0,4,8,California,"San Francisco-Oakland-Hayward, CA",No,NO2,Undetermined/Insufficient Data,,,0,No,Undetermined/Insufficient Data,,,,,,,
06-013-1004,060131004,37.9604,-122.356811,San Pablo,West,1,P98V,,,,,,,,,,,,,,46,42,42,46,43,44,,,40.1,40.1,40.5,38.6,36.5,34,38.5,40.6,33.8,34.3,30.7,0,17,8,California,"San Francisco-Oakland-Hayward, CA",No,NO2,Undetermined/Insufficient Data,,,0,No,Undetermined/Insufficient Data,,,1,Yes,Decreasing,-0.718333333,0.0155251214
06-013-2007,060132007,37.743649,-121.934188,San Ramon,West,1,P98V,,,,,,,,,,,,,,,,,,,,,,,32.8,,,,,,,32.8,31.5,26.2,0,4,8,California,"San Francisco-Oakland-Hayward, CA",No,NO2,Undetermined/Insufficient Data,,,0,No,Undetermined/Insufficient Data,,,0,No,Undetermined/Insufficient Data,,
06-013-3001,060133001,38.029258,-121.896866,Pittsburg - W 10th St.,West,1,P98V,70,70,60,70,59,59,53,60,47,62,44,49,48,43,42,44,43,44,44,,,,,,,,,,,,,,0,19,8,California,"San Francisco-Oakland-Hayward, CA",No,NO2,Undetermined/Insufficient Data,,,0,No,Undetermined/Insufficient Data,,,,,,,
06-017-0009,060170009,38.945740873,-119.9679585,South Lake Tahoe-Tahoe Blvd,West,1,P98V,60,60,,,,,,,,,,,,,,,,,,,,,,,,,,,,,,,0,2,8,California,"Sacramento--Roseville--Arden-Arcade, CA",No,NO2,Undetermined/Insufficient Data,,,,,,,,,,,,
06-017-0011,060170011,38.944979,-119.970609,South Lake Tahoe-Sandy Way,West,1,P98V,,,,50,48,47,47,46,48,48,45,45,44,44,,,,,,,,,,,,,,,,,,,0,11,8,California,"Sacramento--Roseville--Arden-Arcade, CA",No,NO2,Undetermined/Insufficient Data,,,0,No,Undetermined/Insufficient Data,,,,,,,
06-017-0012,060170012,38.81161,-120.033084,Echo Summit,West,1,P98V,,,,,,,,,,,,,,34,,,,,,,,,,,,,,,,,,,0,1,8,California,"Sacramento--Roseville--Arden-Arcade, CA",No,NO2,Undetermined/Insufficient Data,,,0,No,Undetermined/Insufficient Data,,,,,,,
06-019-0007,060190007,36.705474,-119.741332,Fresno-Drummond,West,1,P98V,100,100,90,90,85,78,76,73,70,93,,70,,75,63,64,64,60,66,57,,,56,59,57,43,,,62.5,,54.3,49.7,1,25,8,California,"Fresno, CA",Yes,NO2,Decreasing,-1.366666667,7.616267E-13,0,No,Undetermined/Insufficient Data,,,0,No,Undetermined/Insufficient Data,,
06-019-0008,060190008,36.781332852,-119.7731898,"3425 N FIRST ST, FRESNO",West,1,P98V,,100,90,100,94,96,78,77,79,90,71,75,73,77,62,69,62,56,61,53,54,50.2,,,,,,,,,,,0,21,8,California,"Fresno, CA",No,NO2,Undetermined/Insufficient Data,,,0,No,Undetermined/Insufficient Data,,,0,No,Undetermined/Insufficient Data,,
06-019-0011,060190011,36.78538,-119.77321,Fresno - Garland,West,3,P98V,,,,,,,,,,,,,,,,,,,,,,,,,,,47.6,53.7,53.1,,45.8,43.7,0,5,8,California,"Fresno, CA",No,NO2,Undetermined/Insufficient Data,,,0,No,Undetermined/Insufficient Data,,,0,No,Undetermined/Insufficient Data,,
06-019-0242,060190242,36.841592,-119.874739,Fresno-Sky Park,West,1,P98V,,80,70,60,64,79,64,56,63,68,53,60,54,51,42,49,44,44,,,,,,61,41,,29.1,36.2,34.7,31.3,32.3,30,0,25,8,California,"Fresno, CA",No,NO2,Undetermined/Insufficient Data,,,0,No,Undetermined/Insufficient Data,,,0,No,Undetermined/Insufficient Data,,
06-019-2016,060192016,36.710833,-119.7775,Fresno-Foundry,West,1,P98V,,,,,,,,,,,,,,,,,,,,,,,,,,,,58.5,,63.1,,55.7,0,3,8,California,"Fresno, CA",No,NO2,Undetermined/Insufficient Data,,,0,No,Undetermined/Insufficient Data,,,0,No,Undetermined/Insufficient Data,,
06-019-4001,060194001,36.597442,-119.503659,Parlier,West,1,P98V,,,,,,,53,46,56,61,48,46,46,42,39,46,47,42,36,,,,,37,36,,,34.6,29.2,27.5,31.6,23.7,0,20,8,California,"Fresno, CA",No,NO2,Undetermined/Insufficient Data,,,0,No,Undetermined/Insufficient Data,,,0,No,Undetermined/Insufficient Data,,
06-019-5001,060195001,36.819449,-119.716433,Clovis-Villa,West,1,P98V,,90,80,90,85,88,69,73,67,81,,63,66,72,55,62,60,58,58,,44,,48,,52,,,51.4,53,50.1,48.6,38.1,1,25,8,California,"Fresno, CA",Yes,NO2,Decreasing,-1.440972222,9.866334E-12,0,No,Undetermined/Insufficient Data,,,0,No,Undetermined/Insufficient Data,,
06-023-1004,060231004,40.776780001,-124.17949,Jacobs,West,1,P98V,,,,,,,,,,,,,,,,,,,22,25,19.1,,18.8,25.7,24.1,,19.7,19.8,21.1,16.5,15.6,,0,11,8,California,"Eureka-Arcata-Fortuna, CA",No,NO2,Undetermined/Insufficient Data,,,0,No,Undetermined/Insufficient Data,,,1,Yes,No Trend,-0.363888889,0.0762952295
06-023-1005,060231005,40.71528,-124.20139,Humboldt Hill,West,1,P98V,,,,,,,,,,,,,,,,,,,,,,,6.4,,,,6.2,,6,,,,0,3,8,California,"Eureka-Arcata-Fortuna, CA",No,NO2,Undetermined/Insufficient Data,,,0,No,Undetermined/Insufficient Data,,,0,No,Undetermined/Insufficient Data,,
06-025-0005,060250005,32.67618,-115.48307,Calexico-Ethel Street,West,1,P98V,,,,,,127,115,,,102,,,88,61,76,80,73,72,73,72,56,63,66,61.7,,59.7,59.9,59.2,64.1,48.9,51.2,44.6,0,22,8,California,"El Centro, CA",No,NO2,Undetermined/Insufficient Data,,,1,Yes,Decreasing,-1.806666667,9.9129461E-8,1,Yes,Decreasing,-1,0.0155251214
06-025-0006,060250006,32.677833084,-115.3905437,PORT OF ENTRY BETWEEN MEXICO AND USA. SCHEDULED TO OPEN 8/96,West,1,P98V,,,,,,,,,,74,,,,130,60,,80,,64,71,,,,,,,,,,,,,0,6,8,California,"El Centro, CA",No,NO2,Undetermined/Insufficient Data,,,0,No,Undetermined/Insufficient Data,,,,,,,
06-025-1003,060251003,32.79222,-115.56306,El Centro-9th Street,West,1,P98V,,,,,,,,,,,,,,,,52,,55,,49.1,,,49.8,44,46.9,42.1,42.4,,,,,37.9,0,9,8,California,"El Centro, CA",No,NO2,Undetermined/Insufficient Data,,,0,No,Undetermined/Insufficient Data,,,0,No,Undetermined/Insufficient Data,,
06-029-0004,060290004,35.374958749,-119.0226018,Bakersfield-Chester Ave.,West,2,P98V,100,100,100,,,,,,,,,,,,,,,,,,,,,,,,,,,,,,0,3,8,California,"Bakersfield, CA",No,NO2,Undetermined/Insufficient Data,,,,,,,,,,,,
06-029-0007,060290007,35.345607,-118.851825,Edison,West,1,P98V,60,60,60,60,56,50,54,48,51,55,46,50,53,48,44,45,42,42,41,37,31,35,36,34,,32.9,26.8,26.5,,30.1,26.5,26.4,1,30,8,California,"Bakersfield, CA",Yes,NO2,Decreasing,-1.156157635,1.989991E-18,1,Yes,Decreasing,-1.2,1.782003E-11,1,Yes,Decreasing,-0.7,0.0015908235
06-029-0010,060290010,35.385574,-119.015009,Bakersfield-Golden / M St,West,1,P98V,,,,,,92,85,72,,86,73,79,69,76,,70,67,59,62,59,,,,,,,,,,,,,0,13,8,California,"Bakersfield, CA",No,NO2,Undetermined/Insufficient Data,,,0,No,Undetermined/Insufficient Data,,,,,,,
06-029-0011,060290011,35.050551349,-118.1472936,Mojave,West,1,P98V,,,,,,53,,52,58,,58,52,,54,,,,,,,,,,,,,,,,,,,0,6,8,California,"Bakersfield, CA",No,NO2,Undetermined/Insufficient Data,,,0,No,Undetermined/Insufficient Data,,,,,,,
06-029-0014,060290014,35.356615,-119.062613,Bakersfield-California,West,1,P98V,,,,,,91,83,70,74,89,79,94,81,75,,64,66,60,65,58,63,56,56,,,49.5,49.8,58.1,51,53.9,44.9,48.4,0,24,8,California,"Bakersfield, CA",No,NO2,Undetermined/Insufficient Data,,,1,Yes,Decreasing,-1.555555556,1.7479277E-9,1,Yes,Decreasing,-1.047222222,0.0104901758
06-029-0232,060290232,35.438035,-119.016787,Oildale,West,1,P98V,80,,,60,61,66,55,51,59,64,59,56,54,51,40,45,,,,,,,,,,,,,,,,,0,14,8,California,"Bakersfield, CA",No,NO2,Undetermined/Insufficient Data,,,0,No,Undetermined/Insufficient Data,,,,,,,
06-029-2012,060292012,35.331612,-118.999961,Bakersfield-Muni,West,1,P98V,,,,,,,,,,,,,,,,,,,,,,,,56,55,45,45.2,52.9,49.4,55.7,53.3,49.9,0,9,8,California,"Bakersfield, CA",No,NO2,Undetermined/Insufficient Data,,,0,No,Undetermined/Insufficient Data,,,0,No,Undetermined/Insufficient Data,,
06-029-5001,060295001,35.20829528,-118.7853737,Arvin-Bear Mtn,West,1,P98V,50,,,40,44,41,40,,38,42,36,35,34,36,36,39,41,34,,34,,,,,,,,,,,,,0,16,8,California,"Bakersfield, CA",No,NO2,Undetermined/Insufficient Data,,,0,No,Undetermined/Insufficient Data,,,,,,,
06-029-6001,060296001,35.503587093,-119.2726062,Shafter,West,1,P98V,70,70,60,60,,68,62,56,59,,57,62,57,62,55,55,73,65,52,43,48,42,45,49.7,48.3,36.7,36.7,39.6,37.6,36.9,32.5,32.9,1,30,8,California,"Bakersfield, CA",Yes,NO2,Decreasing,-1.078888889,2.484324E-10,1,Yes,Decreasing,-1.377777778,3.5637669E-7,1,Yes,Decreasing,-1.334722222,0.0068853841
06-031-1004,060311004,36.31567,-119.643447,Hanford-Irwin,West,1,P98V,,,,,69,77,,67,59,,55,,59,53,55,57,52,,,,,43,48,46,45,41,41.1,42.9,50.7,48.7,43.7,40.8,0,21,8,California,"Hanford-Corcoran, CA",No,NO2,Undetermined/Insufficient Data,,,0,No,Undetermined/Insufficient Data,,,1,Yes,No Trend,-0.025,0.4202941848
06-037-0002,060370002,34.1365,-117.92391,Azusa,West,2,P98V,160,180,130,140,128,172,129,106,115,116,114,104,101,96,80,77,84,87,82,,59.6,,61.5,56.7,61,59.2,58.3,51.1,56.8,49.8,54.1,51,1,30,8,California,"Los Angeles-Long Beach-Anaheim, CA",Yes,NO2,Decreasing,-3.438405797,1.040218E-18,1,Yes,Decreasing,-2.741666667,1.482057E-10,1,Yes,Decreasing,-0.9125,0.0026901539
06-037-0016,060370016,34.14435,-117.85036,Glendora,West,1,P98V,150,160,120,,126,151,121,102,102,109,105,102,84,104,92,75,79,79,71,,55.5,,,50.4,51.7,52.6,45.7,44.5,44.2,36.5,41.9,47.6,1,28,8,California,"Los Angeles-Long Beach-Anaheim, CA",Yes,NO2,Decreasing,-3.5,1.989991E-18,1,Yes,Decreasing,-3.075,8.26793E-12,1,Yes,Decreasing,-1.365714286,0.0004872405
06-037-0113,060370113,34.05111,-118.45636,West Los Angeles,West,1,P98V,160,140,120,110,133,,106,98,97,99,92,86,87,81,74,63,63,64,66,60,57.4,58.2,,,53.9,49.4,49.3,,,43,43.9,41.6,1,27,8,California,"Los Angeles-Long Beach-Anaheim, CA",Yes,NO2,Decreasing,-2.850925926,5.554133E-25,1,Yes,Decreasing,-2.061538462,1.135373E-14,0,No,Undetermined/Insufficient Data,,
06-037-1002,060371002,34.17605,-118.31712,Burbank,West,2,P98V,170,190,140,130,146,142,,135,112,135,129,116,110,111,90,79,72,74,83,,,,,,,,,,,,,,0,18,8,California,"Los Angeles-Long Beach-Anaheim, CA",No,NO2,Undetermined/Insufficient Data,,,0,No,Undetermined/Insufficient Data,,,,,,,
06-037-1103,060371103,34.066590001,-118.22688,Los Angeles-North Main Street,West,1,P98V,240,240,190,140,184,181,,144,125,131,123,123,110,118,,81,83,87,,,70.5,67,,,69.4,62.4,61,61.7,57.2,55.5,55.8,57.3,1,26,8,California,"Los Angeles-Long Beach-Anaheim, CA",Yes,NO2,Decreasing,-4.5,1.3065E-21,1,Yes,Decreasing,-2.728571429,1.782003E-11,1,Yes,Decreasing,-1.425,0.0009016379
06-037-1201,060371201,34.19925,-118.53276,Reseda,West,2,P98V,130,150,110,110,113,,107,93,89,81,88,78,72,82,73,64,57,61,63,55,56,53.8,,,,52.2,46.4,54.2,50.1,43.8,44.6,42.6,0,28,8,California,"Los Angeles-Long Beach-Anaheim, CA",No,NO2,Undetermined/Insufficient Data,,,0,No,Undetermined/Insufficient Data,,,0,No,Undetermined/Insufficient Data,,
06-037-1301,060371301,33.92899,-118.21071,Lynwood,West,2,P98V,180,200,170,140,157,150,128,123,119,121,110,95,98,96,82,81,85,71,,,,,,,,,,,,,,,0,18,8,California,"Los Angeles-Long Beach-Anaheim, CA",No,NO2,Undetermined/Insufficient Data,,,0,No,Undetermined/Insufficient Data,,,,,,,
06-037-1302,060371302,33.901389001,-118.205,Compton,West,1,P98V,,,,,,,,,,,,,,,,,,,,74,68.8,65.3,63.1,61.8,59.7,58.7,58.4,66.8,55.6,52.8,60.5,55.9,0,13,8,California,"Los Angeles-Long Beach-Anaheim, CA",No,NO2,Undetermined/Insufficient Data,,,0,No,Undetermined/Insufficient Data,,,1,Yes,Decreasing,-1.245,0.0026901539
06-037-1601,060371601,34.01407,-118.06056,,West,2,P98V,190,200,190,160,151,171,131,107,,119,117,114,97,107,91,,,,,,,,,,,,,,,,,,0,14,8,California,"Los Angeles-Long Beach-Anaheim, CA",No,NO2,Undetermined/Insufficient Data,,,0,No,Undetermined/Insufficient Data,,,,,,,
06-037-1602,060371602,34.010290001,-118.0685,Pico Rivera #2,West,1,P98V,,,,,,,,,,,,,,,,,,88,85,,,,,,61.9,,60.1,63.7,59.7,55.1,57.8,54.7,0,9,8,California,"Los Angeles-Long Beach-Anaheim, CA",No,NO2,Undetermined/Insufficient Data,,,0,No,Undetermined/Insufficient Data,,,0,No,Undetermined/Insufficient Data,,
06-037-1701,060371701,34.06703,-117.7514,Pomona,West,2,P98V,180,170,160,150,138,145,137,118,123,139,114,96,93,100,89,77,84,78,87,78,72.5,66.7,60.6,64.7,63.8,60.3,62.5,62.9,60.4,57.8,59.8,56,1,32,8,California,"Los Angeles-Long Beach-Anaheim, CA",Yes,NO2,Decreasing,-3.672463768,6.700145E-21,1,Yes,Decreasing,-2.178571429,3.71785E-11,1,Yes,Decreasing,-0.933333333,0.0002494418
06-037-2005,060372005,34.1326,-118.1272,Pasadena,West,1,P98V,170,200,140,120,134,160,149,105,126,129,122,124,109,100,84,75,73,71,74,64,,72.8,,,,55.9,58.4,59.3,54.4,50.6,49.7,52,0,28,8,California,"Los Angeles-Long Beach-Anaheim, CA",No,NO2,Undetermined/Insufficient Data,,,0,No,Undetermined/Insufficient Data,,,0,No,Undetermined/Insufficient Data,,
06-037-2401,060372401,33.923624536,-118.0256201,,West,2,P98V,190,170,150,140,,,,,,,,,,,,,,,,,,,,,,,,,,,,,0,4,8,California,"Los Angeles-Long Beach-Anaheim, CA",No,NO2,Undetermined/Insufficient Data,,,,,,,,,,,,
06-037-4002,060374002,33.82376,-118.18921,Long Beach (North),West,2,P98V,190,180,150,150,142,155,,127,120,127,115,98,104,109,102,76,69,77,88,,70.2,,,,,,,,,,,,0,19,8,California,"Los Angeles-Long Beach-Anaheim, CA",No,NO2,Undetermined/Insufficient Data,,,0,No,Undetermined/Insufficient Data,,,0,No,Undetermined/Insufficient Data,,
06-037-4006,060374006,33.802500001,-118.22,Long Beach (Hudson),West,1,P98V,,,,,,,,,,,,,,,,,,,,,71,74,,71.2,,65.8,66.3,72.9,62.7,55.4,,,0,8,8,California,"Los Angeles-Long Beach-Anaheim, CA",No,NO2,Undetermined/Insufficient Data,,,0,No,Undetermined/Insufficient Data,,,0,No,Undetermined/Insufficient Data,,
06-037-4008,060374008,33.859662001,-118.200707,Long Beach-Route 710 Near Road,West,1,P98V,,,,,,,,,,,,,,,,,,,,,,,,,,,76.6,82.5,79.2,78.3,86.3,76,0,6,8,California,"Los Angeles-Long Beach-Anaheim, CA",No,NO2,Undetermined/Insufficient Data,,,0,No,Undetermined/Insufficient Data,,,0,No,Undetermined/Insufficient Data,,
06-037-4009,060374009,33.793713001,-118.171019,Signal Hill (LBSH),West,1,P98V,,,,,,,,,,,,,,,,,,,,,,,,,,,,,,,56.3,55.3,0,2,8,California,"Los Angeles-Long Beach-Anaheim, CA",No,NO2,Undetermined/Insufficient Data,,,0,No,Undetermined/Insufficient Data,,,0,No,Undetermined/Insufficient Data,,
06-037-4010,060374010,34.181977001,-118.363036,North Hollywood (NOHO),West,1,P98V,,,,,,,,,,,,,,,,,,,,,,,,,,,,,,,52.4,49.4,0,2,8,California,"Los Angeles-Long Beach-Anaheim, CA",No,NO2,Undetermined/Insufficient Data,,,0,No,Undetermined/Insufficient Data,,,0,No,Undetermined/Insufficient Data,,
06-037-5001,060375001,33.92288,-118.37026,Hawthorne,West,1,P98V,180,160,130,140,147,137,117,112,114,112,101,91,86,90,,,,,,,,,,,,,,,,,,,0,14,8,California,"Los Angeles-Long Beach-Anaheim, CA",No,NO2,Undetermined/Insufficient Data,,,0,No,Undetermined/Insufficient Data,,,,,,,
06-037-5005,060375005,33.955070001,-118.43049,LAX Hastings,West,1,P98V,,,,,,,,,,,,,,,,71,72,,76,,60.9,64.8,,58.4,66.4,59.9,54.7,,,48.9,50.9,,0,11,8,California,"Los Angeles-Long Beach-Anaheim, CA",No,NO2,Undetermined/Insufficient Data,,,0,No,Undetermined/Insufficient Data,,,0,No,Undetermined/Insufficient Data,,
06-037-6002,060376002,34.387497514,-118.5345301,,West,1,P98V,110,120,90,100,95,121,,,,,73,,,,,,,,,,,,,,,,,,,,,,0,7,8,California,"Los Angeles-Long Beach-Anaheim, CA",No,NO2,Undetermined/Insufficient Data,,,0,No,Undetermined/Insufficient Data,,,,,,,
06-037-6012,060376012,34.38344,-118.5284,Santa Clarita,West,1,P98V,,,,,,,,,,,,,67,70,70,62,60,63,60,49,54.2,46.8,50.7,44.9,46.1,43.5,39.4,38.3,37.9,35.9,35.9,35.2,0,20,8,California,"Los Angeles-Long Beach-Anaheim, CA",No,NO2,Undetermined/Insufficient Data,,,1,Yes,Decreasing,-1.83,3.70278E-12,1,Yes,Decreasing,-1.603571429,7.3277417E-7
06-037-9002,060379002,34.689985309,-118.1328499,Lancaster-Ponderosa St.,West,1,P98V,,70,70,80,69,71,57,,,56,55,,,,,,,,,,,,,,,,,,,,,,0,8,8,California,"Los Angeles-Long Beach-Anaheim, CA",No,NO2,Undetermined/Insufficient Data,,,0,No,Undetermined/Insufficient Data,,,,,,,
06-037-9033,060379033,34.669739001,-118.130511,Lancaster-Division Street,West,1,P98V,,,,,,,,,,,,,60,59,55,58,58,55,54,51,53,50,46,44.1,,,42.3,,39.7,39.8,40,42.1,0,17,8,California,"Los Angeles-Long Beach-Anaheim, CA",No,NO2,Undetermined/Insufficient Data,,,1,Yes,Decreasing,-1.125,6.589646E-13,1,Yes,Decreasing,-0.882857143,0.0000537117
06-039-0004,060390004,36.867125,-120.010158,Madera-Pump Yard,West,1,P98V,,,,,,,,,43,57,47,45,44,41,,44,40,40,45,36,34,,,,,,26.8,31.3,32.8,28.8,28.6,26.4,0,18,8,California,"Madera, CA",No,NO2,Undetermined/Insufficient Data,,,0,No,Undetermined/Insufficient Data,,,0,No,Undetermined/Insufficient Data,,
06-041-0001,060410001,37.97231,-122.520004,San Rafael,West,1,P98V,60,70,60,60,57,49,52,53,45,55,48,50,47,48,44,46,44,45,47,42,42,43.7,43.6,46.9,50,40,36.3,44.1,45.8,39.9,35.9,33.1,1,32,8,California,"San Francisco-Oakland-Hayward, CA",Yes,NO2,Decreasing,-0.704761905,4.493304E-10,1,Yes,Decreasing,-0.5,0.0002720475,1,Yes,No Trend,-0.814545455,0.0579754389
06-045-0008,060450008,39.14566,-123.20298,Ukiah-Gobbi Street,West,1,P98V,,,,,,,,38,37,49,35,36,35,33,32,31,34,30,31,36,,,,,,,,,,,,,0,13,8,California,"Ukiah, CA",No,NO2,Undetermined/Insufficient Data,,,0,No,Undetermined/Insufficient Data,,,,,,,
06-045-0009,060450009,39.402941885,-123.3502881,Willits-899 South Main Street,West,1,P98V,,,,,36,32,,,39,30,25,27,32,30,26,24,31,27,,,,,,,,,,,,,,,0,12,8,California,"Ukiah, CA",No,NO2,Undetermined/Insufficient Data,,,0,No,Undetermined/Insufficient Data,,,,,,,
06-047-0003,060470003,37.281853,-120.433671,Merced-Coffee,West,1,P98V,,,,60,59,58,58,60,52,63,,,55,52,46,45,42,42,48,,38,37,39,,,,31.8,35,35.6,33.6,31,33.2,0,23,8,California,"Merced, CA",No,NO2,Undetermined/Insufficient Data,,,0,No,Undetermined/Insufficient Data,,,0,No,Undetermined/Insufficient Data,,
06-053-0005,060530005,36.22746594,-121.1165841,KING CITY AMS,West,1,P98V,,30,,,,,,,,,,,,,,,,,,,,,,,,,,,,,,,0,1,8,California,"Salinas, CA",No,NO2,Undetermined/Insufficient Data,,,,,,,,,,,,
06-053-1002,060531002,36.697181317,-121.6335564,Salinas-Natividad Rd.,West,2,P98V,50,50,50,50,48,,42,46,40,,,,,,,,,,,,,,,,,,,,,,,,0,8,8,California,"Salinas, CA",No,NO2,Undetermined/Insufficient Data,,,,,,,,,,,,
06-053-1003,060531003,36.694261001,-121.623271,Salinas 3,West,1,P98V,,,,,,,,,,,35,35,38,33,37,39,37,35,34,34,31,34,35,36,32,28,24,27,29,26,25,23,0,22,8,California,"Salinas, CA",No,NO2,Undetermined/Insufficient Data,,,1,Yes,Decreasing,-0.6,9.3858254E-6,1,Yes,Decreasing,-1,0.0026901539
06-055-0003,060550003,38.310942,-122.296189,Napa,West,1,P98V,60,70,50,60,54,48,45,50,42,58,41,47,45,46,41,42,41,41,42,35,34,40,37.4,39.5,41,33,32.5,35.2,,,,,0,28,8,California,"Napa, CA",No,NO2,Undetermined/Insufficient Data,,,0,No,Undetermined/Insufficient Data,,,0,No,Undetermined/Insufficient Data,,
06-055-0004,060550004,38.278849001,-122.275024,Napa Valley College,West,1,P98V,,,,,,,,,,,,,,,,,,,,,,,,,,,,,,29,26.3,,0,2,8,California,"Napa, CA",No,NO2,Undetermined/Insufficient Data,,,0,No,Undetermined/Insufficient Data,,,0,No,Undetermined/Insufficient Data,,
06-057-0005,060570005,39.233477001,-121.055608,Grass Valley-Litton Building,West,1,P98V,,,,,,,,,,,,,,,,,,,,,20.3,,,,,,,,,,,,0,1,8,California,"Truckee-Grass Valley, CA",No,NO2,Undetermined/Insufficient Data,,,0,No,Undetermined/Insufficient Data,,,0,No,Undetermined/Insufficient Data,,
06-059-0001,060590001,33.821353001,-117.91427,Anaheim (1010 Harbor Blvd),West,5,P98V,170,170,160,140,130,144,97,104,101,,103,,,,,,,,,,,,,,,,,,,,,,0,10,8,California,"Los Angeles-Long Beach-Anaheim, CA",No,NO2,Undetermined/Insufficient Data,,,0,No,Undetermined/Insufficient Data,,,,,,,
06-059-0007,060590007,33.83062,-117.93845,Anaheim,West,5,P98V,,,,,,,,,,,,,80,92,77,70,,61,73,62,,,53.5,,,54.6,57.2,64.9,54.5,49.2,52.1,53.2,0,15,8,California,"Los Angeles-Long Beach-Anaheim, CA",No,NO2,Undetermined/Insufficient Data,,,0,No,Undetermined/Insufficient Data,,,0,No,Undetermined/Insufficient Data,,
06-059-0008,060590008,33.819305,-117.918759,Anaheim Near-Road,West,1,P98V,,,,,,,,,,,,,,,,,,,,,,,,,66,61.4,60.1,64.1,55.8,50.4,52.6,55.8,0,8,8,California,"Los Angeles-Long Beach-Anaheim, CA",No,NO2,Undetermined/Insufficient Data,,,0,No,Undetermined/Insufficient Data,,,0,No,Undetermined/Insufficient Data,,
06-059-1003,060591003,33.67464,-117.92568,Costa Mesa,West,1,P98V,,130,130,110,114,109,88,74,75,96,90,74,80,80,75,,62,60,64,57,56,,50.6,53.1,54.7,48.1,51.2,,,,,,0,24,8,California,"Los Angeles-Long Beach-Anaheim, CA",No,NO2,Undetermined/Insufficient Data,,,0,No,Undetermined/Insufficient Data,,,0,No,Undetermined/Insufficient Data,,
06-059-5001,060595001,33.92513,-117.95264,La Habra,West,2,P98V,160,160,130,130,142,141,116,104,103,126,,99,,98,80,73,77,70,73,64,,,,,57.6,50.8,52.2,61.3,50.4,44.5,50.1,50.8,0,26,8,California,"Los Angeles-Long Beach-Anaheim, CA",No,NO2,Undetermined/Insufficient Data,,,0,No,Undetermined/Insufficient Data,,,0,No,Undetermined/Insufficient Data,,
06-061-0006,060610006,38.74643,-121.26498,Roseville-N Sunrise Ave,West,1,P98V,,,,,76,83,75,68,72,73,68,63,69,67,55,58,60,53,59,47,54,50,49,49.8,45.6,44,,40.2,43.4,42.8,,34.1,0,26,8,California,"Sacramento--Roseville--Arden-Arcade, CA",No,NO2,Undetermined/Insufficient Data,,,1,Yes,Decreasing,-1.5,7.527074E-11,1,Yes,Decreasing,-1.595,8.1711627E-6
06-061-3001,060613001,38.788789662,-121.217727,Rocklin,West,1,P98V,,,70,70,60,65,,,,,,,,,,,,,,,,,,,,,,,,,,,0,4,8,California,"Sacramento--Roseville--Arden-Arcade, CA",No,NO2,Undetermined/Insufficient Data,,,,,,,,,,,,
06-065-0009,060650009,33.447867001,-117.088649,Pechanga,West,1,P98V,,,,,,,,,,,,,,,,,,,,24.3,20.7,,25.6,25.7,20.6,,,,,,20.1,,0,6,8,California,"Riverside-San Bernardino-Ontario, CA",No,NO2,Undetermined/Insufficient Data,,,0,No,Undetermined/Insufficient Data,,,0,No,Undetermined/Insufficient Data,,
06-065-0012,060650012,33.92086,-116.85841,Banning Airport,West,1,P98V,,,,,,,,,,141,158,154,,72,,,66,64,58,53,53.2,,,,45.8,44.3,42.6,46,46.5,43.3,47.1,47.4,0,17,8,California,"Riverside-San Bernardino-Ontario, CA",No,NO2,Undetermined/Insufficient Data,,,0,No,Undetermined/Insufficient Data,,,0,No,Undetermined/Insufficient Data,,
06-065-1003,060651003,33.94603,-117.40063,Riverside (Magnolia),West,3,P98V,,,,,,,,,,,,,,,,,,,,60,51.5,,,,50.2,,,,,,,,0,3,8,California,"Riverside-San Bernardino-Ontario, CA",No,NO2,Undetermined/Insufficient Data,,,0,No,Undetermined/Insufficient Data,,,0,No,Undetermined/Insufficient Data,,
06-065-1016,060651016,33.9447129,-116.830074,Morongo Air Monitoring Station,West,1,P98V,,,,,,,,,,,,,,,,,,,,,,,,,,22.8,23.4,20.8,19.9,,17.3,19.6,0,6,8,California,"Riverside-San Bernardino-Ontario, CA",No,NO2,Undetermined/Insufficient Data,,,0,No,Undetermined/Insufficient Data,,,0,No,Undetermined/Insufficient Data,,
06-065-5001,060655001,33.85275,-116.54101,Palm Springs,West,2,P98V,80,70,,70,71,71,65,,65,62,56,60,58,59,55,49,50,51,45,39,39,39.4,39.3,38.8,,37.7,34.4,37.7,35.4,32.2,34.3,32.9,1,29,8,California,"Riverside-San Bernardino-Ontario, CA",Yes,NO2,Decreasing,-1.469669118,3.128504E-20,1,Yes,Decreasing,-1.325,8.26793E-12,1,Yes,Decreasing,-0.598214286,0.0000537117
06-065-8001,060658001,33.999580001,-117.41601,Rubidoux,West,2,P98V,130,130,110,100,106,105,96,91,,96,77,84,,77,73,66,64,63,67,59,,,,,53.4,52.3,52.2,57.9,50.5,52.8,54.1,50.7,0,26,8,California,"Riverside-San Bernardino-Ontario, CA",No,NO2,Undetermined/Insufficient Data,,,0,No,Undetermined/Insufficient Data,,,0,No,Undetermined/Insufficient Data,,
06-065-8005,060658005,33.996360001,-117.4924,Mira Loma (Van Buren),West,1,P98V,,,,,,,,,,,,,,,,,,,64,,50.3,,,50.7,49.6,49.2,48.3,51.9,50.6,49.4,49.9,45.1,0,11,8,California,"Riverside-San Bernardino-Ontario, CA",No,NO2,Undetermined/Insufficient Data,,,0,No,Undetermined/Insufficient Data,,,1,Yes,No Trend,-0.147916667,0.155405007
06-065-9001,060659001,33.67649,-117.33098,Lake Elsinore,West,1,P98V,,,,,79,90,70,,68,72,67,64,59,66,64,53,55,51,50,43,40.6,41.3,40.9,,,38.8,35.6,38.3,36.4,33.3,37.9,36.4,0,25,8,California,"Riverside-San Bernardino-Ontario, CA",No,NO2,Undetermined/Insufficient Data,,,1,Yes,Decreasing,-1.553846154,1.595485E-12,1,Yes,Decreasing,-0.51,0.0004872405
06-067-0001,060670001,38.667125664,-121.2513382,,West,1,P98V,80,,80,,,,,,,,,,,,,,,,,,,,,,,,,,,,,,0,2,8,California,"Sacramento--Roseville--Arden-Arcade, CA",No,NO2,Undetermined/Insufficient Data,,,,,,,,,,,,
06-067-0002,060670002,38.71209,-121.38109,North Highlands-Blackfoot,West,1,P98V,80,90,,,,,61,58,60,65,53,59,59,57,57,,,,,44,47,42,43,45,45,39,,,,,,,0,18,8,California,"Sacramento--Roseville--Arden-Arcade, CA",No,NO2,Undetermined/Insufficient Data,,,0,No,Undetermined/Insufficient Data,,,0,No,Undetermined/Insufficient Data,,
06-067-0006,060670006,38.613779001,-121.368014,Sacramento-Del Paso Manor,West,1,P98V,80,,190,,,69,62,56,,76,53,54,60,,,47,47,47,48,42,40,40,39,,38,45,,31,34,34,30,,0,23,8,California,"Sacramento--Roseville--Arden-Arcade, CA",No,NO2,Undetermined/Insufficient Data,,,1,Yes,Decreasing,-1.214285714,1.482057E-10,1,Yes,Decreasing,-0.878571429,0.0002494418
06-067-0010,060670010,38.56844,-121.49311,Sacramento-1309 T Street,West,1,P98V,80,100,90,,79,81,73,65,66,81,65,67,67,,61,56,54,57,59,51,52,50,51,,,,,,,,,41.2,0,22,8,California,"Sacramento--Roseville--Arden-Arcade, CA",No,NO2,Undetermined/Insufficient Data,,,0,No,Undetermined/Insufficient Data,,,0,No,Undetermined/Insufficient Data,,
06-067-0011,060670011,38.302591,-121.420838,Elk Grove-Bruceville,West,1,P98V,,,,,,43,52,45,38,60,40,40,,,32,38,,37,37,33,30,34,32,33,30,23,,23,25,,20,,0,21,8,California,"Sacramento--Roseville--Arden-Arcade, CA",No,NO2,Undetermined/Insufficient Data,,,0,No,Undetermined/Insufficient Data,,,1,Yes,Decreasing,-1.30952381,0.0004872405
06-067-0012,060670012,38.683304,-121.164457,Folsom-Natoma St.,West,1,P98V,,,,,,,,42,41,,,56,39,37,36,35,34,36,32,30,25,29,24,,26,20,19,21,21,,,,0,19,8,California,"Sacramento--Roseville--Arden-Arcade, CA",No,NO2,Undetermined/Insufficient Data,,,0,No,Undetermined/Insufficient Data,,,0,No,Undetermined/Insufficient Data,,
06-067-0013,060670013,38.636847937,-121.5144,LOCATED APPROXIMATELY 1 MILE NORTH OF I-5 AND I-80 FREEWAYS,West,1,P98V,,,,,,,,,,77,59,,68,,62,57,56,54,,,,,,,,,,,,,,,0,7,8,California,"Sacramento--Roseville--Arden-Arcade, CA",No,NO2,Undetermined/Insufficient Data,,,0,No,Undetermined/Insufficient Data,,,,,,,
06-067-0014,060670014,38.650783001,-121.506767,Sacramento-Goldenland Ct.,West,1,P98V,,,,,,,,,,,,,,,,,,,,49,45,45,46,,,,40,,,,,,0,5,8,California,"Sacramento--Roseville--Arden-Arcade, CA",No,NO2,Undetermined/Insufficient Data,,,0,No,Undetermined/Insufficient Data,,,0,No,Undetermined/Insufficient Data,,
06-067-0015,060670015,38.593322,-121.503795,Sacramento-Bercut Drive,West,1,P98V,,,,,,,,,,,,,,,,,,,,,,,,,,,43,,,,46,,0,2,8,California,"Sacramento--Roseville--Arden-Arcade, CA",No,NO2,Undetermined/Insufficient Data,,,0,No,Undetermined/Insufficient Data,,,0,No,Undetermined/Insufficient Data,,
06-067-1001,060671001,38.674903541,-121.1868916,,West,2,P98V,80,80,,70,60,66,,,,,,,,,,,,,,,,,,,,,,,,,,,0,5,8,California,"Sacramento--Roseville--Arden-Arcade, CA",No,NO2,Undetermined/Insufficient Data,,,,,,,,,,,,
06-067-5002,060675002,38.716846791,-121.5930138,Sacramento-Earhart Dr.,West,1,P98V,,80,60,,,59,50,,,,,,,,,,,,,,,,,,,,,,,,,,0,4,8,California,"Sacramento--Roseville--Arden-Arcade, CA",No,NO2,Undetermined/Insufficient Data,,,,,,,,,,,,
06-071-0001,060710001,34.893980001,-117.0248039,Barstow,West,1,P98V,,,,,,74,76,,88,85,84,78,79,82,77,76,73,68,66,55,58,62,96,,59.1,54.6,55.7,56.3,55.1,53.4,56.8,50.8,0,25,8,California,"Riverside-San Bernardino-Ontario, CA",No,NO2,Undetermined/Insufficient Data,,,1,Yes,Decreasing,-1.49375,3.430061E-6,1,Yes,Decreasing,-0.992857143,0.0068853841
06-071-0012,060710012,34.425100001,-117.5898,Phelan-Beekley Road & Phelan Road,West,1,P98V,,,30,,,,,33,,,,,,,,,,,,,,,,,,,,,,,,,0,2,8,California,"Riverside-San Bernardino-Ontario, CA",No,NO2,Undetermined/Insufficient Data,,,,,,,,,,,,
06-071-0014,060710014,34.512495973,-117.3308794,Victorville-Amargosa Road,West,1,P98V,,,,,,82,79,70,81,79,,,,,,,,,,,,,,,,,,,,,,,0,5,8,California,"Riverside-San Bernardino-Ontario, CA",No,NO2,Undetermined/Insufficient Data,,,,,,,,,,,,
06-071-0015,060710015,35.774954094,-117.3675572,Trona-Athol,West,1,P98V,,,,,,42,,,,,,,,,,,,,,,,,,,,,,,,,,,0,1,8,California,"Riverside-San Bernardino-Ontario, CA",No,NO2,Undetermined/Insufficient Data,,,,,,,,,,,,
06-071-0017,060710017,34.14194644,-116.0558357,Twenty Nine Palms-Adobe,West,1,P98V,,,,,,39,30,32,,,,,,,,,,,,,,,,,,,,,,,,,0,3,8,California,"Riverside-San Bernardino-Ontario, CA",No,NO2,Undetermined/Insufficient Data,,,,,,,,,,,,
06-071-0026,060710026,34.068120001,-117.52579,Ontario Near Road (Etiwanda),West,1,P98V,,,,,,,,,,,,,,,,,,,,,,,,,,73.2,74.3,77.3,67.7,70.5,75.1,68.3,0,7,8,California,"Riverside-San Bernardino-Ontario, CA",No,NO2,Undetermined/Insufficient Data,,,0,No,Undetermined/Insufficient Data,,,0,No,Undetermined/Insufficient Data,,
06-071-0027,060710027,34.030833,-117.61722,Ontario-Route 60 Near Road,West,1,P98V,,,,,,,,,,,,,,,,,,,,,,,,,,,71.3,77.1,71.3,73.9,78,72.9,0,6,8,California,"Riverside-San Bernardino-Ontario, CA",No,NO2,Undetermined/Insufficient Data,,,0,No,Undetermined/Insufficient Data,,,0,No,Undetermined/Insufficient Data,,
06-071-0306,060710306,34.510961111,-117.32554,Victorville-Park Avenue,West,1,P98V,,,,,,,,,,,73,76,77,75,70,69,65,63,64,59,65,60,50,55.7,52.7,,47.7,50.6,44.9,48.5,54.8,51.4,0,21,8,California,"Riverside-San Bernardino-Ontario, CA",No,NO2,Undetermined/Insufficient Data,,,1,Yes,Decreasing,-1.555555556,6.309934E-8,1,Yes,No Trend,-1.035,0.0579754389
06-071-1004,060711004,34.10374,-117.62914,Upland,West,2,P98V,140,140,120,130,129,159,,102,113,110,104,107,96,100,89,86,88,,69,,58,60.1,60.2,,56.7,55.7,55.1,48.7,48.9,,44.8,49.4,1,27,8,California,"Riverside-San Bernardino-Ontario, CA",Yes,NO2,Decreasing,-3.333333333,6.547519E-20,1,Yes,Decreasing,-2.94375,2.597388E-13,1,Yes,Decreasing,-1.324285714,0.0002494418
06-071-1234,060711234,35.774170001,-117.3714,Trona - Athol/Telescope #2,West,1,P98V,,,,,,,,,42,42,45,,42,,47,,42,46,43,39,43,,,,37,,38.7,,33.4,,32.1,37.7,0,15,8,California,"Riverside-San Bernardino-Ontario, CA",No,NO2,Undetermined/Insufficient Data,,,0,No,Undetermined/Insufficient Data,,,0,No,Undetermined/Insufficient Data,,
06-071-2002,060712002,34.10002,-117.49201,Fontana,West,1,P98V,130,130,110,120,124,144,113,110,107,111,103,104,,88,,88,80,72,79,71,64.8,64.6,61.1,60.5,,68.5,56.9,58.4,55.9,57.7,57.9,60.7,1,29,8,California,"Riverside-San Bernardino-Ontario, CA",Yes,NO2,Decreasing,-2.666666667,2.297677E-17,1,Yes,Decreasing,-2.165,9.750775E-10,1,Yes,Decreasing,-0.5325,0.0314345735
06-071-4001,060714001,34.416390001,-117.2858,Hesperia-Olive Street,West,1,P98V,60,,60,,,66,61,64,,,,,,,,,,,,,,,,,,,,,,,,,0,5,8,California,"Riverside-San Bernardino-Ontario, CA",No,NO2,Undetermined/Insufficient Data,,,,,,,,,,,,
06-071-9004,060719004,34.106678001,-117.274063,San Bernardino,West,1,P98V,130,120,110,120,106,135,116,109,93,98,87,88,80,79,78,70,73,69,64,58,,,,,56.1,52.7,51.4,56.5,49.9,48.9,45.6,48.9,0,28,8,California,"Riverside-San Bernardino-Ontario, CA",No,NO2,Undetermined/Insufficient Data,,,0,No,Undetermined/Insufficient Data,,,0,No,Undetermined/Insufficient Data,,
06-073-0001,060730001,32.631242001,-117.059088,Chula Vista,West,1,P98V,100,110,90,78,78,75,70,81,68,73,63,62,67,68,63,60,63,59,63,54,48,50,48,46,49,45,46,,42,41,41,41,1,31,8,California,"San Diego-Carlsbad, CA",Yes,NO2,Decreasing,-1.555555556,5.349861E-19,1,Yes,Decreasing,-1.333333333,5.325416E-10,1,Yes,Decreasing,-0.8,0.0001200121
06-073-0003,060730003,32.791194001,-116.942092,El Cajon,West,1,P98V,120,110,90,81,88,89,75,72,70,78,68,66,69,69,64,63,58,,55,48,47,44,45,45,,,,,,,,,0,23,8,California,"San Diego-Carlsbad, CA",No,NO2,Undetermined/Insufficient Data,,,0,No,Undetermined/Insufficient Data,,,0,No,Undetermined/Insufficient Data,,
06-073-0005,060730005,33.202686124,-117.366797,Oceanside-Mission Ave,West,1,P98V,130,110,120,97,95,88,82,86,77,87,,69,,,,,,,,,,,,,,,,,,,,,0,11,8,California,"San Diego-Carlsbad, CA",No,NO2,Undetermined/Insufficient Data,,,0,No,Undetermined/Insufficient Data,,,,,,,
06-073-0006,060730006,32.836461001,-117.128752,Kearny Mesa,West,1,P98V,,110,100,88,95,101,,82,67,80,69,67,67,58,63,66,64,54,60,55,56,51,,,,,,,,,,,0,20,8,California,"San Diego-Carlsbad, CA",No,NO2,Undetermined/Insufficient Data,,,0,No,Undetermined/Insufficient Data,,,0,No,Undetermined/Insufficient Data,,
06-073-1002,060731002,33.127769001,-117.075086,Escondido,West,1,P98V,120,110,100,88,84,111,75,81,,79,67,74,72,68,64,60,59,60,71,57,53,,51,51,55,,,,,,,,0,23,8,California,"San Diego-Carlsbad, CA",No,NO2,Undetermined/Insufficient Data,,,0,No,Undetermined/Insufficient Data,,,0,No,Undetermined/Insufficient Data,,
06-073-1006,060731006,32.842318001,-116.768293,Alpine,West,1,P98V,80,70,60,56,58,69,54,,52,64,,51,54,,50,44,43,41,37,,37,30,30,26,25,26,20,20,20,19,18,20,1,28,8,California,"San Diego-Carlsbad, CA",Yes,NO2,Decreasing,-1.785714286,1.343402E-19,1,Yes,Decreasing,-1.909090909,6.589646E-13,1,Yes,Decreasing,-1.354166667,0.0000537117
06-073-1007,060731007,32.709223612,-117.1548411,San Diego-12th Ave,West,1,P98V,130,120,110,96,104,96,85,100,78,96,87,,83,75,72,,,,,,,,,,,,,,,,,,0,14,8,California,"San Diego-Carlsbad, CA",No,NO2,Undetermined/Insufficient Data,,,0,No,Undetermined/Insufficient Data,,,,,,,
06-073-1008,060731008,33.217055001,-117.396177,Camp Pendleton,West,1,P98V,,,,,,,,,70,84,,77,67,79,73,62,66,59,62,55,51,46,46,,51,44,47,50,,39,43,,0,20,8,California,"San Diego-Carlsbad, CA",No,NO2,Undetermined/Insufficient Data,,,1,Yes,Decreasing,-1.75,3.0715658E-9,1,Yes,Decreasing,-0.666666667,0.0223684493
06-073-1010,060731010,32.701492001,-117.149653,San Diego - Beardsley Street,West,1,P98V,,,,,,,,,,,,,,,,,78,66,78,65,59,58,54,56,61,53,,,,,,,0,10,8,California,"San Diego-Carlsbad, CA",No,NO2,Undetermined/Insufficient Data,,,0,No,Undetermined/Insufficient Data,,,0,No,Undetermined/Insufficient Data,,
06-073-1014,060731014,32.578160001,-116.92135,Donovan,West,1,P98V,,,,,,,,,,,,,,,,,,,,,,,,,,51,53,50,48,47,49,54,0,7,8,California,"San Diego-Carlsbad, CA",No,NO2,Undetermined/Insufficient Data,,,0,No,Undetermined/Insufficient Data,,,0,No,Undetermined/Insufficient Data,,
06-073-1016,060731016,32.845709001,-117.123964,Kearny Villa Rd.,West,1,P98V,,,,,,,,,,,,,,,,,,,,,,,,47,45,44,42,41,38,39,39,33,0,9,8,California,"San Diego-Carlsbad, CA",No,NO2,Undetermined/Insufficient Data,,,0,No,Undetermined/Insufficient Data,,,0,No,Undetermined/Insufficient Data,,
06-073-1017,060731017,32.985442,-117.08218,San Diego -Rancho Carmel Drive,West,1,P98V,,,,,,,,,,,,,,,,,,,,,,,,,,,51,52,48,47,48,,0,5,8,California,"San Diego-Carlsbad, CA",No,NO2,Undetermined/Insufficient Data,,,0,No,Undetermined/Insufficient Data,,,0,No,Undetermined/Insufficient Data,,
06-073-1022,060731022,32.789565001,-116.944308,El Cajon - Lexington Elementary School,West,1,P98V,,,,,,,,,,,,,,,,,,,,,,,,,,,,41,37,35,35,,0,4,8,California,"San Diego-Carlsbad, CA",No,NO2,Undetermined/Insufficient Data,,,0,No,Undetermined/Insufficient Data,,,0,No,Undetermined/Insufficient Data,,
06-073-1026,060731026,32.710177001,-117.142665,San Diego - Sherman Elementary School,West,1,P98V,,,,,,,,,,,,,,,,,,,,,,,,,,,,,,,45,45,0,2,8,California,"San Diego-Carlsbad, CA",No,NO2,Undetermined/Insufficient Data,,,0,No,Undetermined/Insufficient Data,,,0,No,Undetermined/Insufficient Data,,
06-073-2007,060732007,32.552164001,-116.937772,Otay Mesa,West,1,P98V,,,,72,82,87,79,90,79,100,85,104,85,96,82,,86,82,,77,74,73,72,75,,,,,,,,,0,19,8,California,"San Diego-Carlsbad, CA",No,NO2,Undetermined/Insufficient Data,,,0,No,Undetermined/Insufficient Data,,,0,No,Undetermined/Insufficient Data,,
06-075-0005,060750005,37.765946,-122.399044,San Francisco,West,1,P98V,,80,80,70,68,67,68,59,56,70,60,59,58,60,53,50,61,53,55,55,76.6,79.6,65.9,59.6,57.9,53.2,50.7,58.6,58.6,45.9,40.9,38.2,1,31,8,California,"San Francisco-Oakland-Hayward, CA",Yes,NO2,Decreasing,-0.857142857,7.4630761E-6,1,Yes,Decreasing,-0.5375,0.0310790013,1,Yes,Decreasing,-3.101388889,0.0001200121
06-077-1002,060771002,37.950740899,-121.2685227,Stockton-Hazelton,West,2,P98V,100,100,80,90,90,79,80,74,75,,68,68,64,65,54,58,60,56,63,54,49,51,52,57.3,54.4,48.4,45.3,51.7,57.9,57.7,53.9,,1,30,8,California,"Stockton-Lodi, CA",Yes,NO2,Decreasing,-1.430952381,2.728087E-11,1,Yes,Decreasing,-0.652941176,0.001307236,1,Yes,No Trend,0.4155844156,0.155405007
06-077-3003,060773003,37.73798527,-121.5355025,Tracy-Holden farm,West,1,P98V,,,,,,,51,51,60,62,53,54,56,52,,,,,,,,,,,,,,,,,,,0,8,8,California,"Stockton-Lodi, CA",No,NO2,Undetermined/Insufficient Data,,,0,No,Undetermined/Insufficient Data,,,,,,,
06-077-3005,060773005,37.682635,-121.442495,Tracy-Airport,West,1,P98V,,,,,,,,,,,,,,,,,43,41,40,35,30,34,,,29,,25.2,31,32.9,32.8,27.4,26.7,0,13,8,California,"Stockton-Lodi, CA",No,NO2,Undetermined/Insufficient Data,,,0,No,Undetermined/Insufficient Data,,,1,Yes,No Trend,-0.283333333,0.155405007
06-079-1004,060791004,35.20691919,-120.6190594,,West,1,P98V,,,30,,30,,,,,,,,,,,,,,,,,,,,,,,,,,,,0,2,8,California,"San Luis Obispo-Paso Robles-Arroyo Grande, CA",No,NO2,Undetermined/Insufficient Data,,,,,,,,,,,,
06-079-2001,060792001,35.12389,-120.63215,Grover Beach,West,1,P98V,50,50,40,50,41,,38,42,40,45,42,39,37,38,36,,,,,,,,,,,,,,,,,,0,14,8,California,"San Luis Obispo-Paso Robles-Arroyo Grande, CA",No,NO2,Undetermined/Insufficient Data,,,0,No,Undetermined/Insufficient Data,,,,,,,
06-079-2002,060792002,35.28386358,-120.6551713,San Luis Obispo-Marsh St.,West,1,P98V,,,60,60,56,47,48,,49,53,45,47,46,,35,,,,,,,,,,,,,,,,,,0,11,8,California,"San Luis Obispo-Paso Robles-Arroyo Grande, CA",No,NO2,Undetermined/Insufficient Data,,,0,No,Undetermined/Insufficient Data,,,,,,,
06-079-3001,060793001,35.36631,-120.84271,Morro Bay,West,1,P98V,,,,,,,,,,,,,39,36,35,36,35,35,33,,28,32,35,31,31,30,,,,,,,0,13,8,California,"San Luis Obispo-Paso Robles-Arroyo Grande, CA",No,NO2,Undetermined/Insufficient Data,,,0,No,Undetermined/Insufficient Data,,,0,No,Undetermined/Insufficient Data,,
06-079-4001,060794001,35.041643912,-120.5009998,,West,1,P98V,,40,40,40,39,,,,,,,,,,,,,,,,,,,,,,,,,,,,0,4,8,California,"San Luis Obispo-Paso Robles-Arroyo Grande, CA",No,NO2,Undetermined/Insufficient Data,,,,,,,,,,,,
06-079-4002,060794002,35.03146,-120.50103,Nipomo Regional Park (NRP),West,1,P98V,,,,,,,,,,,37,,36,33,33,32,30,29,29,30,26,28,26,30,25,22,19,23,20,17,17,16,0,21,8,California,"San Luis Obispo-Paso Robles-Arroyo Grande, CA",No,NO2,Undetermined/Insufficient Data,,,1,Yes,Decreasing,-1,3.70278E-12,1,Yes,Decreasing,-1.154761905,0.0001200121
06-079-8001,060798001,35.49158,-120.66804,Atascadero (original site),West,1,P98V,,60,60,60,53,49,51,53,49,63,49,47,51,48,42,45,47,43,41,42,36,37,40,37,41,,,,,,,,0,24,8,California,"San Luis Obispo-Paso Robles-Arroyo Grande, CA",No,NO2,Undetermined/Insufficient Data,,,0,No,Undetermined/Insufficient Data,,,0,No,Undetermined/Insufficient Data,,
06-079-8002,060798002,35.49453,-120.66617,Atascadero,West,1,P98V,,,,,,,,,,,,,,,,,,,,,,,,,,,26,32,31,27,26,22,0,6,8,California,"San Luis Obispo-Paso Robles-Arroyo Grande, CA",No,NO2,Undetermined/Insufficient Data,,,0,No,Undetermined/Insufficient Data,,,0,No,Undetermined/Insufficient Data,,
06-081-1001,060811001,37.482934,-122.20337,Redwood City,West,1,P98V,80,100,80,75,79,64,71,61,54,67,53,57,53,52,49,53,48,49,46,42,45,45.2,43,46.6,48.3,40.3,39.6,46.2,54.3,43.5,38.1,34.7,1,32,8,California,"San Francisco-Oakland-Hayward, CA",Yes,NO2,Decreasing,-1.2,1.117436E-12,1,Yes,Decreasing,-0.783333333,0.0000569643,1,Yes,No Trend,-0.7,0.1247897606
06-083-0008,060830008,34.462450001,-120.02551,El Capitan,West,1,P98V,60,49,42,46,41,41,43,40,36,43,39,35,35,38,32,33,30,32,31,26,25,21,23,21,22,20,21,19,20,,,,0,29,8,California,"Santa Maria-Santa Barbara, CA",No,NO2,Undetermined/Insufficient Data,,,0,No,Undetermined/Insufficient Data,,,0,No,Undetermined/Insufficient Data,,
06-083-0010,060830010,34.421386228,-119.7020792,Santa Barbara-W. Carrillo St.,West,1,P98V,,80,70,70,70,71,65,59,65,67,,,,,,,,,,,,,,,,,,,,,,,0,9,8,California,"Santa Maria-Santa Barbara, CA",No,NO2,Undetermined/Insufficient Data,,,,,,,,,,,,
06-083-0011,060830011,34.427774996,-119.6912178,Santa Barbara,West,1,P98V,,,,,,,,,,,,,,,48,46,,,48,41,43,42,43,,41.5,38.3,36.9,,,,,,0,10,8,California,"Santa Maria-Santa Barbara, CA",No,NO2,Undetermined/Insufficient Data,,,0,No,Undetermined/Insufficient Data,,,0,No,Undetermined/Insufficient Data,,
06-083-1007,060831007,34.94803419,-120.4354409,Santa Maria-500 S. Broadway,West,1,P98V,,,,,,45,,43,39,,,,,,,,,,,,,,,,,,,,,,,,0,3,8,California,"Santa Maria-Santa Barbara, CA",No,NO2,Undetermined/Insufficient Data,,,,,,,,,,,,
06-083-1008,060831008,34.942872,-120.435611,Santa Maria,West,1,P98V,,,,,,,,,,,,,,41,41,39,,,43,39,34,37,33.4,37.4,36.5,34.1,30.6,,,26.4,28.4,,0,14,8,California,"Santa Maria-Santa Barbara, CA",No,NO2,Undetermined/Insufficient Data,,,0,No,Undetermined/Insufficient Data,,,1,Yes,Decreasing,-0.941666667,0.0026901539
06-083-1010,060831010,34.924422604,-120.4018282,,West,1,P98V,50,42,43,42,42,,,,,,,,,,,,,,,,,,,,,,,,,,,,0,5,8,California,"Santa Maria-Santa Barbara, CA",No,NO2,Undetermined/Insufficient Data,,,,,,,,,,,,
06-083-1011,060831011,34.511651982,-120.499887,,West,1,P98V,18,,16,17,13,,,,,,,,,,,,,,,,,,,,,,,,,,,,0,4,8,California,"Santa Maria-Santa Barbara, CA",No,NO2,Undetermined/Insufficient Data,,,,,,,,,,,,
06-083-1012,060831012,34.451930705,-120.4587731,,West,1,P98V,,,17,23,16,15,23,,,,,,,,,,,,,,,,,,,,,,,,,,0,5,8,California,"Santa Maria-Santa Barbara, CA",No,NO2,Undetermined/Insufficient Data,,,,,,,,,,,,
06-083-1013,060831013,34.725352001,-120.428717,Lompoc HSP,West,1,P98V,14,17,11,15,13,11,13,13,12,11,12,10,9,13,10,8,8,8,6,7,8,10,8,6,6,5,4,5,5,3,,4,1,31,8,California,"Santa Maria-Santa Barbara, CA",Yes,NO2,Decreasing,-0.363636364,1.016692E-13,1,Yes,Decreasing,-0.352941176,6.309934E-8,1,Yes,Decreasing,-0.5,0.0002494418
06-083-1014,060831014,34.541660001,-119.79146,Paradise Road,West,1,P98V,15,14,19,12,13,11,15,10,14,12,9,10,10,15,10,7,6,7,6,6,6,4,5,4,5,,5,6,4,4,4,,1,30,8,California,"Santa Maria-Santa Barbara, CA",Yes,NO2,Decreasing,-0.375,3.405204E-12,1,Yes,Decreasing,-0.25,1.1566553E-6,1,Yes,No Trend,0,0.1247897606
06-083-1015,060831015,34.478045019,-120.2118157,,West,1,P98V,32,35,28,29,30,30,31,29,,,,,,,,,,,,,,,,,,,,,,,,,0,8,8,California,"Santa Maria-Santa Barbara, CA",No,NO2,Undetermined/Insufficient Data,,,,,,,,,,,,
06-083-1016,060831016,34.477767084,-120.2065385,,West,1,P98V,37,36,30,30,32,29,31,29,,,,,,,,,,,,,,,,,,,,,,,,,0,8,8,California,"Santa Maria-Santa Barbara, CA",No,NO2,Undetermined/Insufficient Data,,,,,,,,,,,,
06-083-1017,060831017,34.471378041,-120.221816,,West,1,P98V,,,47,48,49,,,,,,,,,,,,,,,,,,,,,,,,,,,,0,3,8,California,"Santa Maria-Santa Barbara, CA",No,NO2,Undetermined/Insufficient Data,,,,,,,,,,,,
06-083-1018,060831018,34.527440001,-120.1965,Nojoqui,West,1,P98V,43,41,34,34,32,32,32,31,29,34,31,28,29,31,25,27,27,24,25,21,22,19,18,18,15,12,12,13,14,,,,0,29,8,California,"Santa Maria-Santa Barbara, CA",No,NO2,Undetermined/Insufficient Data,,,0,No,Undetermined/Insufficient Data,,,0,No,Undetermined/Insufficient Data,,
06-083-1019,060831019,34.475267325,-120.1898708,,West,1,P98V,,,28,32,31,25,32,32,,,,,,,,,,,,,,,,,,,,,,,,,0,6,8,California,"Santa Maria-Santa Barbara, CA",No,NO2,Undetermined/Insufficient Data,,,,,,,,,,,,
06-083-1020,060831020,34.414941671,-119.879511,UCSB West Campus,West,1,P98V,52,56,51,53,46,45,41,41,,,,,,,,,,,,,,,,,,,,,,,,,0,8,8,California,"Santa Maria-Santa Barbara, CA",No,NO2,Undetermined/Insufficient Data,,,,,,,,,,,,
06-083-1021,060831021,34.403052001,-119.457914,Carpinteria,West,1,P98V,34,49,27,33,35,29,26,27,29,30,29,28,26,,19,20,21,18,20,17,18,12,12,12,11,11,8,,14,,,8,1,28,8,California,"Santa Maria-Santa Barbara, CA",Yes,NO2,Decreasing,-0.918333333,1.785696E-14,1,Yes,Decreasing,-0.923076923,3.0715658E-9,1,Yes,Decreasing,-0.333333333,0.0223684493
06-083-1025,060831025,34.489740001,-120.04692,Los Flores Canyon #1,West,1,P98V,31,32,32,29,23,28,21,20,22,22,23,21,16,23,18,16,14,14,16,12,11,13,15,16,4,7,5,6,7,6,5,,1,31,8,California,"Santa Maria-Santa Barbara, CA",Yes,NO2,Decreasing,-0.870833333,1.541666E-13,1,Yes,Decreasing,-0.833333333,5.333296E-7,1,Yes,Decreasing,-0.633333333,0.0431585573
06-083-1026,060831026,34.479434996,-120.0334758,,West,1,P98V,31,,,,25,24,23,22,22,,,,,,,,,,,,,,,,,,,,,,,,0,6,8,California,"Santa Maria-Santa Barbara, CA",No,NO2,Undetermined/Insufficient Data,,,,,,,,,,,,
06-083-1027,060831027,34.469158171,-120.0404198,,West,1,P98V,35,38,31,31,28,25,30,23,24,,,,,,,,,,,,,,,,,,,,,,,,0,9,8,California,"Santa Maria-Santa Barbara, CA",No,NO2,Undetermined/Insufficient Data,,,,,,,,,,,,
06-083-1030,060831030,34.452209126,-120.4215491,,West,1,P98V,19,27,,,,,,,,,,,,,,,,,,,,,,,,,,,,,,,0,2,8,California,"Santa Maria-Santa Barbara, CA",No,NO2,Undetermined/Insufficient Data,,,,,,,,,,,,
06-083-2002,060832002,34.445274708,-119.7951392,,West,1,P98V,70,60,,,,,,,,,,,,,,,,,,,,,,,,,,,,,,,0,2,8,California,"Santa Maria-Santa Barbara, CA",No,NO2,Undetermined/Insufficient Data,,,,,,,,,,,,
06-083-2004,060832004,34.637820001,-120.4575,Lompoc H Street,West,1,P98V,50,,39,44,37,35,34,37,33,35,30,33,,32,32,30,29,31,29,25,23,26,26,27,28,25,24,27,23,23,24,20,1,30,8,California,"Santa Maria-Santa Barbara, CA",Yes,NO2,Decreasing,-0.6,1.023767E-15,1,Yes,Decreasing,-0.5,5.333296E-7,1,Yes,No Trend,-0.354166667,0.0762952295
06-083-2011,060832011,34.445510001,-119.8284,Goleta,West,1,P98V,,,,,57,,45,47,43,51,45,42,42,,36,38,36,37,35,34,33,32,32,32,30,25,25,25,23,,,,0,23,8,California,"Santa Maria-Santa Barbara, CA",No,NO2,Undetermined/Insufficient Data,,,0,No,Undetermined/Insufficient Data,,,0,No,Undetermined/Insufficient Data,,
06-083-4003,060834003,34.595900001,-120.631315,VAFB South Base,West,1,P98V,,13,13,19,14,14,13,16,14,12,15,12,9,14,13,8,9,8,9,9,8,5,4,6,12,,5,,5,,,,0,26,8,California,"Santa Maria-Santa Barbara, CA",No,NO2,Undetermined/Insufficient Data,,,0,No,Undetermined/Insufficient Data,,,0,No,Undetermined/Insufficient Data,,
06-083-4004,060834004,34.577056648,-120.6409855,Pt. Arguello,West,1,P98V,14,21,14,17,14,,,,,,,,,,,,,,,,,,,,,,,,,,,,0,5,8,California,"Santa Maria-Santa Barbara, CA",No,NO2,Undetermined/Insufficient Data,,,,,,,,,,,,
06-083-5001,060835001,34.780813654,-120.6073927,,West,1,P98V,,,,,,,15,,,,,,,,,,,,,,,,,,,,,,,,,,0,1,8,California,"Santa Maria-Santa Barbara, CA",No,NO2,Undetermined/Insufficient Data,,,,,,,,,,,,
06-085-0004,060850004,37.339666,-121.888575,San Jose - 4th St.,West,1,P98V,,,,94,93,87,82,82,70,93,76,74,,,,,,,,,,,,,,,,,,,,,0,9,8,California,"San Jose-Sunnyvale-Santa Clara, CA",No,NO2,Undetermined/Insufficient Data,,,0,No,Undetermined/Insufficient Data,,,,,,,
06-085-0005,060850005,37.348497,-121.894898,San Jose - Jackson,West,1,P98V,,,,,,,,,,,,,,66,61,58,60,54,55,51,50.7,48.7,51.9,51.8,54.7,43.8,41.8,49.6,59,52,44.7,39.2,0,19,8,California,"San Jose-Sunnyvale-Santa Clara, CA",No,NO2,Undetermined/Insufficient Data,,,0,No,Undetermined/Insufficient Data,,,1,Yes,No Trend,-0.53,0.2726023504
06-085-0006,060850006,37.338135,-121.849783,San Jose - Knox Avenue,West,1,P98V,,,,,,,,,,,,,,,,,,,,,,,,,,47.4,45.7,52.1,55.4,50.5,48.7,38.8,0,7,8,California,"San Jose-Sunnyvale-Santa Clara, CA",No,NO2,Undetermined/Insufficient Data,,,0,No,Undetermined/Insufficient Data,,,0,No,Undetermined/Insufficient Data,,
06-085-2004,060852004,37.322997915,-121.9271785,San Jose-W. San Carlos St.,West,1,P98V,,120,90,80,84,,,,,,,,,,,,,,,,,,,,,,,,,,,,0,4,8,California,"San Jose-Sunnyvale-Santa Clara, CA",No,NO2,Undetermined/Insufficient Data,,,,,,,,,,,,
06-085-2009,060852009,37.318435,-122.069705,Cupertino Monta Vista,West,1,P98V,,,,,,,,,,,,,,,,,,,,,,38,38,35.9,,,,,,,,,0,3,8,California,"San Jose-Sunnyvale-Santa Clara, CA",No,NO2,Undetermined/Insufficient Data,,,0,No,Undetermined/Insufficient Data,,,0,No,Undetermined/Insufficient Data,,
06-087-0003,060870003,37.011893858,-122.1944131,Davenport,West,1,P98V,,,30,,40,,34,,26,30,25,26,28,,,22,26,25,28,13,,,,,,,,,,,,,0,13,8,California,"Santa Cruz-Watsonville, CA",No,NO2,Undetermined/Insufficient Data,,,0,No,Undetermined/Insufficient Data,,,,,,,
06-089-0004,060890004,40.550130001,-122.38092,Redding - Health Department,West,1,P98V,,60,,,,,,,,,,,,,,,,,,,,,,,,,,,,,,,0,1,8,California,"Redding, CA",No,NO2,Undetermined/Insufficient Data,,,,,,,,,,,,
06-095-0004,060950004,38.102507,-122.237976,Vallejo,West,1,P98V,70,80,60,57,58,53,51,51,48,60,46,45,45,44,43,43,43,43,45,39,39,43.4,40.6,42.7,43.4,37.9,36.3,41.7,,40.5,41.7,,1,30,8,California,"Vallejo-Fairfield, CA",Yes,NO2,Decreasing,-0.642559524,2.728087E-11,1,Yes,Decreasing,-0.208333333,0.0005499143,1,Yes,No Trend,0,0.4732796446
06-095-0006,060950006,38.0656,-122.1507,Benicia - VIP,West,1,P98V,,,,,,,,,,,,,,,,,,,35,,,,,,,,,,,,,,0,1,8,California,"Vallejo-Fairfield, CA",No,NO2,Undetermined/Insufficient Data,,,0,No,Undetermined/Insufficient Data,,,,,,,
06-097-0003,060970003,38.443503,-122.710169,Santa Rosa - 5th St,West,1,P98V,70,60,60,,58,54,46,48,42,52,44,46,45,46,39,41,38,39,40,35,35,36.8,36.3,37.4,,,,,,,,,0,23,8,California,"Santa Rosa, CA",No,NO2,Undetermined/Insufficient Data,,,0,No,Undetermined/Insufficient Data,,,0,No,Undetermined/Insufficient Data,,
06-097-0004,060970004,38.403765,-122.818294,Sebastopol,West,1,P98V,,,,,,,,,,,,,,,,,,,,,,,,,31.2,29.3,25.3,29.3,40.7,28.2,25,20.1,0,8,8,California,"Santa Rosa, CA",No,NO2,Undetermined/Insufficient Data,,,0,No,Undetermined/Insufficient Data,,,0,No,Undetermined/Insufficient Data,,
06-099-0005,060990005,37.642165,-120.994212,Modesto-14th Street,West,1,P98V,90,80,80,80,76,79,72,72,,87,61,71,59,65,57,58,,,,,,,,,,,,,,,,,0,15,8,California,"Modesto, CA",No,NO2,Undetermined/Insufficient Data,,,0,No,Undetermined/Insufficient Data,,,,,,,
06-099-0006,060990006,37.488317,-120.836008,Turlock,West,1,P98V,,,,,66,66,58,,61,72,55,,68,58,55,,51,46,52,48,39,,,46,,36,41.6,45.7,47.1,44.3,41.4,34.4,0,22,8,California,"Modesto, CA",No,NO2,Undetermined/Insufficient Data,,,1,Yes,Decreasing,-1.036363636,9.3858254E-6,1,Yes,No Trend,0.06,0.4202941848
06-099-1004,060991004,37.371046634,-121.1332648,,West,1,P98V,50,,,,,,,,,,,,,,,,,,,,,,,,,,,,,,,,0,1,8,California,"Modesto, CA",No,NO2,Undetermined/Insufficient Data,,,,,,,,,,,,
06-101-0003,061010003,39.138772544,-121.618549,Yuba City,West,1,P98V,,,70,70,65,66,61,61,51,69,,,62,62,52,51,53,47,54,47,45,44,46,51.6,43.7,39.1,,41.7,41.4,40.4,38.4,33.6,1,27,8,California,"Yuba City, CA",Yes,NO2,Decreasing,-1.151315789,1.785696E-14,1,Yes,Decreasing,-1.166666667,1.7479277E-9,1,Yes,Decreasing,-0.83,0.0009016379
06-107-2002,061072002,36.332179311,-119.2912276,Visalia-Church,West,1,P98V,90,90,80,90,,100,66,75,69,83,66,66,81,74,62,60,57,59,68,57,56,50,53,53.2,54.1,45.6,,55.6,52.9,55,48.1,39.4,1,30,8,California,"Visalia-Porterville, CA",Yes,NO2,Decreasing,-1.387222222,4.880886E-12,1,Yes,Decreasing,-1,7.8952023E-7,1,Yes,No Trend,-0.43125,0.155405007
06-111-0005,061110005,34.386939658,-119.4167846,,West,1,P98V,30,30,,,32,26,,28,25,,,,,,,,,,,,,,,,,,,,,,,,0,6,8,California,"Oxnard-Thousand Oaks-Ventura, CA",No,NO2,Undetermined/Insufficient Data,,,,,,,,,,,,
06-111-0007,061110007,34.210169,-118.870509,Thousand Oaks,West,1,P98V,,,,,74,73,,62,62,63,57,55,55,52,,,,,,,,,,,,,,,,,,,0,9,8,California,"Oxnard-Thousand Oaks-Ventura, CA",No,NO2,Undetermined/Insufficient Data,,,0,No,Undetermined/Insufficient Data,,,,,,,
06-111-1003,061111003,34.446660887,-119.2712238,,West,1,P98V,50,46,40,41,39,41,,,,,,,,,,,,,,,,,,,,,,,,,,,0,6,8,California,"Oxnard-Thousand Oaks-Ventura, CA",No,NO2,Undetermined/Insufficient Data,,,,,,,,,,,,
06-111-1004,061111004,34.44806,-119.2313,Ojai - East Ojai Ave,West,1,P98V,,,,,,,,33,32,36,35,31,30,30,,,,,,,,,,,,,,,,,,,0,7,8,California,"Oxnard-Thousand Oaks-Ventura, CA",No,NO2,Undetermined/Insufficient Data,,,0,No,Undetermined/Insufficient Data,,,,,,,
06-111-2002,061112002,34.276316,-118.683685,Simi Valley-Cochran Street,West,1,P98V,90,90,,82,,93,,69,66,,70,63,61,55,52,52,45,46,46,42,41,36,38,37,41,36,35,37,37,34,34,32,1,28,8,California,"Oxnard-Thousand Oaks-Ventura, CA",Yes,NO2,Decreasing,-2,2.704957E-19,1,Yes,Decreasing,-1.375,1.782003E-11,1,Yes,Decreasing,-0.571428571,0.0043788664
06-111-2003,061112003,34.280401307,-119.3145572,"Emma Wood State Beach, Ventura",West,1,P98V,80,60,,59,51,51,,49,42,44,,,38,44,,,,,,,,,,,,,,,,,,,0,10,8,California,"Oxnard-Thousand Oaks-Ventura, CA",No,NO2,Undetermined/Insufficient Data,,,0,No,Undetermined/Insufficient Data,,,,,,,
06-111-3001,061113001,34.25239,-119.143182,El Rio-Rio Mesa School #2,West,1,P98V,70,70,,61,66,63,54,57,48,55,51,46,40,48,41,42,41,39,39,35,37,37,33,33,30,28,29,29,28,26,24,22,1,31,8,California,"Oxnard-Thousand Oaks-Ventura, CA",Yes,NO2,Decreasing,-1.459166667,5.549586E-22,1,Yes,Decreasing,-1.166666667,6.589646E-13,1,Yes,Decreasing,-1.292857143,2.6596988E-6
06-113-0004,061130004,38.53445,-121.7734,Davis-UCD Campus,West,1,P98V,,,,,,,,44,48,60,39,50,49,44,41,37,39,38,36,34,,34,34,34.3,29.9,26.2,,,27,24.1,23.5,20.5,0,22,8,California,"Sacramento--Roseville--Arden-Arcade, CA",No,NO2,Undetermined/Insufficient Data,,,1,Yes,Decreasing,-1.158333333,1.482057E-10,1,Yes,Decreasing,-1.219191919,0.0009016379
08-001-3001,080013001,39.838119001,-104.94984,Welby,Southwest,1,P98V,,,,,,78,,,80,78,78,,,,87,75,75,80,71,,,64,64,58,66,61,60,,60.3,61.8,57.3,54.5,0,19,7,Colorado,"Denver-Aurora-Lakewood, CO",No,NO2,Undetermined/Insufficient Data,,,0,No,Undetermined/Insufficient Data,,,1,Yes,Decreasing,-0.668333333,0.0223684493
08-005-0003,080050003,39.657209434,-104.9985938,,Southwest,1,P98V,,,94,95,87,81,,,,,,,,,,,,,,,,,,,,,,,,,,,0,4,7,Colorado,"Denver-Aurora-Lakewood, CO",No,NO2,Undetermined/Insufficient Data,,,,,,,,,,,,
08-007-7004,080077004,37.205862,-107.254118,,Southwest,1,P98V,,,,,,,,,,,,,,,,,,,,,,,,,,,,,14.5,,,14.6,0,2,7,Colorado,,No,NO2,Undetermined/Insufficient Data,,,0,No,Undetermined/Insufficient Data,,,0,No,Undetermined/Insufficient Data,,
08-029-0007,080290007,38.876400001,-107.6023,"Paonia, Colorado",Southwest,1,P98V,,,,,,,,,,,,,,,,,,,,,,,,,,,,,,11.5,10.7,12.1,0,3,7,Colorado,,No,NO2,Undetermined/Insufficient Data,,,0,No,Undetermined/Insufficient Data,,,0,No,Undetermined/Insufficient Data,,
08-031-0002,080310002,39.751184001,-104.987625,DENVER - CAMP,Southwest,1,P98V,,,,,104,,,,94,,,106,87,,69,67,,83,,,71,,72,67.6,76.6,71.6,74.8,67.4,66.2,66,66.8,62.2,0,18,7,Colorado,"Denver-Aurora-Lakewood, CO",No,NO2,Undetermined/Insufficient Data,,,0,No,Undetermined/Insufficient Data,,,1,Yes,Decreasing,-0.69375,0.0155251214
08-031-0026,080310026,39.77949,-105.00518,La Casa,Southwest,1,P98V,,,,,,,,,,,,,,,,,,,,,,,,,,59.9,64.4,60.2,,,57.5,58.6,0,5,7,Colorado,"Denver-Aurora-Lakewood, CO",No,NO2,Undetermined/Insufficient Data,,,0,No,Undetermined/Insufficient Data,,,0,No,Undetermined/Insufficient Data,,
08-031-0027,080310027,39.73217,-105.0153,I-25,Southwest,1,P98V,,,,,,,,,,,,,,,,,,,,,,,,,69.6,63.8,64.7,63.2,62.2,69.4,62.5,59.4,0,8,7,Colorado,"Denver-Aurora-Lakewood, CO",No,NO2,Undetermined/Insufficient Data,,,0,No,Undetermined/Insufficient Data,,,0,No,Undetermined/Insufficient Data,,
08-031-0028,080310028,39.7861,-104.9886,Globeville,Southwest,1,P98V,,,,,,,,,,,,,,,,,,,,,,,,,,,77.1,69.8,69.6,68.7,70.6,71.1,0,6,7,Colorado,"Denver-Aurora-Lakewood, CO",No,NO2,Undetermined/Insufficient Data,,,0,No,Undetermined/Insufficient Data,,,0,No,Undetermined/Insufficient Data,,
08-041-6001,080416001,38.633608482,-104.7160848,SITE IS IN A FIELD WEST OF THE NIXON POWER PLANT,Southwest,1,P98V,44,50,42,40,43,43,37,41,41,39,41,,,,,,,,,,,,,,,,,,,,,,0,11,7,Colorado,"Colorado Springs, CO",No,NO2,Undetermined/Insufficient Data,,,0,No,Undetermined/Insufficient Data,,,,,,,
08-041-6003,080416003,38.597498084,-104.6749723,SITE IS IN A FIELD SOUTHEAST OF THE NIXON POWER PLANT,Southwest,1,P98V,47,,,,,,,,,,,,,,,,,,,,,,,,,,,,,,,,0,1,7,Colorado,"Colorado Springs, CO",No,NO2,Undetermined/Insufficient Data,,,,,,,,,,,,
08-041-6004,080416004,38.92138188,-104.8130321,OPEN FIELD NEAR RESIDENTIAL AREA AT 6000 PULPIT ROCK DRIVE.,Southwest,1,P98V,59,57,52,55,59,59,49,50,47,45,,,,,,,,,,,,,,,,,,,,,,,0,10,7,Colorado,"Colorado Springs, CO",No,NO2,Undetermined/Insufficient Data,,,,,,,,,,,,
08-041-6005,080416005,38.763328128,-104.7574721,WEST OF HIGHWAY 85/87 ON THE PINELLO RANCH PROPERTY.,Southwest,1,P98V,,98,68,67,58,58,,,,,,,,,,,,,,,,,,,,,,,,,,,0,5,7,Colorado,"Colorado Springs, CO",No,NO2,Undetermined/Insufficient Data,,,,,,,,,,,,
08-041-6006,080416006,38.922490142,-104.9963692,SITE IS LOCATED AT THE CHIPITA PARK ELECTRICAL SUBSTATION.,Southwest,1,P98V,36,47,44,51,42,45,,,,,,,,,,,,,,,,,,,,,,,,,,,0,6,7,Colorado,"Colorado Springs, CO",No,NO2,Undetermined/Insufficient Data,,,,,,,,,,,,
08-041-6009,080416009,38.640830381,-104.7141396,SITE IS LOCATED JUST NORTH OF THE NIXON POWER PLANT.,Southwest,1,P98V,52,51,,,49,46,,,,,,,,,,,,,,,,,,,,,,,,,,,0,4,7,Colorado,"Colorado Springs, CO",No,NO2,Undetermined/Insufficient Data,,,,,,,,,,,,
08-041-6011,080416011,38.846659577,-104.8277525,EASTERN BANK OF MONUMENT CREEK DRAINAGE ON COLORADO COLLEGE CAMPUS.,Southwest,1,P98V,,101,73,61,,,178,59,57,54,46,,,,,,,,,,,,,,,,,,,,,,0,8,7,Colorado,"Colorado Springs, CO",No,NO2,Undetermined/Insufficient Data,,,0,No,Undetermined/Insufficient Data,,,,,,,
08-041-6013,080416013,38.810548856,-104.8174735,SITE IS LOCATED IN A FIELD JUST SW OF INTERSTATE 25,Southwest,1,P98V,77,80,74,71,69,62,,,,,,,,,,,,,,,,,,,,,,,,,,,0,6,7,Colorado,"Colorado Springs, CO",No,NO2,Undetermined/Insufficient Data,,,,,,,,,,,,
08-041-6018,080416018,38.81138387,-104.7519179,"INTERSECTION OF FOUNTAIN AND ACADEMY, SOUTHEAST OF THE CITY",Southwest,1,P98V,,,,,,,,,61,88,180,,,,,,,,,,,,,,,,,,,,,,0,3,7,Colorado,"Colorado Springs, CO",No,NO2,Undetermined/Insufficient Data,,,0,No,Undetermined/Insufficient Data,,,,,,,
08-045-0019,080450019,39.43806,-108.02611,Battlement Mesa,Southwest,1,P98V,,,,,,,,,,,,,,,,,,,,,,,,38.1,23.9,,,21.4,,,18.3,,0,4,7,Colorado,"Glenwood Springs, CO",No,NO2,Undetermined/Insufficient Data,,,0,No,Undetermined/Insufficient Data,,,0,No,Undetermined/Insufficient Data,,
08-057-0003,080570003,40.882222,-106.306111,"Walden - Colorado, Chandler Ranch",Southwest,1,P98V,,,,,,,,,,,,,,,,,,,,,,,,6.1,,6.3,,,,,,,0,2,7,Colorado,,No,NO2,Undetermined/Insufficient Data,,,0,No,Undetermined/Insufficient Data,,,0,No,Undetermined/Insufficient Data,,
08-059-0006,080590006,39.912799001,-105.188587,ROCKY FLATS-N,Southwest,1,P98V,,,,,,,,,50,,,,,,,,,,,,,,,,,,,,,,25.1,25.2,0,3,7,Colorado,"Denver-Aurora-Lakewood, CO",No,NO2,Undetermined/Insufficient Data,,,0,No,Undetermined/Insufficient Data,,,0,No,Undetermined/Insufficient Data,,
08-059-0008,080590008,39.876390001,-105.165611,ROCKY FLATS - SE,Southwest,1,P98V,,,,62,,,51,55,,47,54,,,,,,,,,,,,,,,,,,,,,,0,5,7,Colorado,"Denver-Aurora-Lakewood, CO",No,NO2,Undetermined/Insufficient Data,,,0,No,Undetermined/Insufficient Data,,,,,,,
08-059-0009,080590009,39.861930459,-105.2035994,"ON S. EDGE OF UNUSED PARKING LOT, S. OF HWY. 72 (18000 W. HWY. 72)",Southwest,1,P98V,,,,,,,48,59,52,,,,,,,,,,,,,,,,,,,,,,,,0,3,7,Colorado,"Denver-Aurora-Lakewood, CO",No,NO2,Undetermined/Insufficient Data,,,,,,,,,,,,
08-059-0010,080590010,39.899708306,-105.2408227,ROCKY FLATS -W,Southwest,1,P98V,,,,,,,48,47,48,,51,,,,,,,,,,,,,,,,,,,,,,0,4,7,Colorado,"Denver-Aurora-Lakewood, CO",No,NO2,Undetermined/Insufficient Data,,,0,No,Undetermined/Insufficient Data,,,,,,,
08-067-1004,080671004,37.303890001,-107.484167,,Southwest,1,P98V,,,,,,,,,,,,,,,,18,17,19,13,16,,21,14,,10.1,,7.1,9.6,7.4,,6.9,7.2,0,13,7,Colorado,"Durango, CO",No,NO2,Undetermined/Insufficient Data,,,0,No,Undetermined/Insufficient Data,,,0,No,Undetermined/Insufficient Data,,
08-067-7001,080677001,37.13678,-107.62863,UTE 1,Southwest,1,P98V,,,,,,28,,27,,,,,,,,,26,,30,,35,33,,28,22,22,22.6,22,18.8,,,16.1,0,13,7,Colorado,"Durango, CO",No,NO2,Undetermined/Insufficient Data,,,0,No,Undetermined/Insufficient Data,,,1,Yes,Decreasing,-1.709090909,2.6596988E-6
08-067-7002,080677002,37.09638853,-108.1839656,PLATEAU ABOVE LAPLATA RIVER LONG ROLLING PLATEAUS RANGING FROM 6400,Southwest,1,P98V,,,,15,23,,,,,,,,,,,,,,,,,,,,,,,,,,,,0,2,7,Colorado,"Durango, CO",No,NO2,Undetermined/Insufficient Data,,,,,,,,,,,,
08-067-7003,080677003,37.10258,-107.870219,UTE 3,Southwest,1,P98V,,,,,,,,,30,,38,,39,,37,,40,42,,37,39,,29,35,24,25,22,26.8,25.7,,20.7,22.8,0,17,7,Colorado,"Durango, CO",No,NO2,Undetermined/Insufficient Data,,,0,No,Undetermined/Insufficient Data,,,1,Yes,Decreasing,-1.333333333,0.0015908235
08-093-0002,080930002,39.240278,-105.983056,"Fairplay, Colorado",Southwest,1,P98V,,,,,,,,,,,,,,,,,,,,,,,,,,,4.5,5.8,,,,,0,2,7,Colorado,"Denver-Aurora-Lakewood, CO",No,NO2,Undetermined/Insufficient Data,,,0,No,Undetermined/Insufficient Data,,,0,No,Undetermined/Insufficient Data,,
08-103-0005,081030005,40.038889001,-107.8475,,Southwest,1,P98V,,,,,,,,,,,,,,,,,,,,,,4.5,5.3,4.2,3.8,4,4.2,,3.9,,,,0,7,7,Colorado,,No,NO2,Undetermined/Insufficient Data,,,0,No,Undetermined/Insufficient Data,,,0,No,Undetermined/Insufficient Data,,
08-103-0006,081030006,40.086944001,-108.761389,"Rangely, Golf Course",Southwest,1,P98V,,,,,,,,,,,,,,,,,,,,,,22.7,18.6,24.2,14.3,15.9,13.6,,24,24.5,25.7,21.7,0,10,7,Colorado,,No,NO2,Undetermined/Insufficient Data,,,0,No,Undetermined/Insufficient Data,,,1,Yes,No Trend,0.2196428571,0.2295119787
08-123-0013,081230013,40.181625001,-104.72613,Platteville Atmospheric Observatory,Southwest,1,P98V,,,,,,,,,,,,,,,,,,,,,,,,,,,,,,,,42.2,0,1,7,Colorado,"Greeley, CO",No,NO2,Undetermined/Insufficient Data,,,0,No,Undetermined/Insufficient Data,,,0,No,Undetermined/Insufficient Data,,
09-001-0113,090010113,41.183707795,-73.18983451,,Northeast,1,P98V,86,80,75,71,78,82,72,69,,,,,,,,,,,,,,,,,,,,,,,,,0,8,3,Connecticut,"Bridgeport-Stamford-Norwalk, CT",No,NO2,Undetermined/Insufficient Data,,,,,,,,,,,,
09-001-9003,090019003,41.118333001,-73.336667,Sherwood Island Connector,Northeast,1,P98V,,,,,,,,,65,67,62,75,72,61,53,60,53,57,52,48,50,,38,44,48,,,,40.2,,38.7,40.7,0,19,3,Connecticut,"Bridgeport-Stamford-Norwalk, CT",No,NO2,Undetermined/Insufficient Data,,,0,No,Undetermined/Insufficient Data,,,0,No,Undetermined/Insufficient Data,,
09-003-0025,090030025,41.771444,-72.679923,Huntley Place-Hartford,Northeast,1,P98V,,,,,,,,,,,,,,,,,,,,,,,,,51,51.2,53.7,55.5,40.8,42.3,42.1,38.8,0,8,3,Connecticut,"Hartford-West Hartford-East Hartford, CT",No,NO2,Undetermined/Insufficient Data,,,0,No,Undetermined/Insufficient Data,,,0,No,Undetermined/Insufficient Data,,
09-003-1003,090031003,41.784722001,-72.631667,McAuliffe Park,Northeast,1,P98V,68,,,59,76,59,,,59,62,60,64,57,58,54,59,48,49,44,46,44,58,37,,45,47.4,42.8,47.1,39.5,38.9,36.1,39.3,1,27,3,Connecticut,"Hartford-West Hartford-East Hartford, CT",Yes,NO2,Decreasing,-0.937254902,3.791658E-11,1,Yes,Decreasing,-1.075,2.4099648E-6,1,Yes,No Trend,-0.7,0.0579754389
09-005-0004,090050004,41.64486,-73.07908,THOMASTON WPCF,Northeast,1,P98V,,,,,,,,,,,,,,,,,,40,32,34,,,,,,,,,,,,,0,3,3,Connecticut,"Torrington, CT",No,NO2,Undetermined/Insufficient Data,,,0,No,Undetermined/Insufficient Data,,,,,,,
09-005-0005,090050005,41.821342001,-73.297257,Mohawk Mt-Cornwall,Northeast,1,P98V,,,,,,,,,,,,,,,,,,,,,,25,19,23,23,26.4,,,,,,,0,5,3,Connecticut,"Torrington, CT",No,NO2,Undetermined/Insufficient Data,,,0,No,Undetermined/Insufficient Data,,,0,No,Undetermined/Insufficient Data,,
09-009-0027,090090027,41.301400001,-72.902871,Criscuolo Park-New Haven,Northeast,1,P98V,,,,,,,,,,,,,,,,75,66,64,54,52,57,67,46,52,50,54.5,53.2,,52,46.3,44.5,48.1,0,16,3,Connecticut,"New Haven-Milford, CT",No,NO2,Undetermined/Insufficient Data,,,0,No,Undetermined/Insufficient Data,,,1,Yes,Decreasing,-0.933333333,0.0314345735
09-009-1123,090091123,41.310833,-72.916944,State St-New Haven,Northeast,1,P98V,83,80,75,83,86,79,72,71,75,71,71,77,76,66,,,,,,,,,,,,,,,,,,,0,14,3,Connecticut,"New Haven-Milford, CT",No,NO2,Undetermined/Insufficient Data,,,0,No,Undetermined/Insufficient Data,,,,,,,
10-003-1003,100031003,39.761111,-75.491944,Bellefonte River Road Park,Northeast,1,P98V,,,,62,,64,59,57,,,,,,,,,,,,,,,,,,,,,,,,,0,4,3,Delaware,"Philadelphia-Camden-Wilmington, PA-NJ-DE-MD",No,NO2,Undetermined/Insufficient Data,,,,,,,,,,,,
10-003-2004,100032004,39.739444,-75.558056,MLK  CORNER OF MLK BLVD AND JUSTISON ST,Northeast,1,P98V,,,,,,,,,,,,,,60,,65,,,68,,50,,,,,,,42,,,41.9,,0,6,3,Delaware,"Philadelphia-Camden-Wilmington, PA-NJ-DE-MD",No,NO2,Undetermined/Insufficient Data,,,0,No,Undetermined/Insufficient Data,,,0,No,Undetermined/Insufficient Data,,
10-003-3001,100033001,39.812334716,-75.4551964,,Northeast,2,P98V,84,,,,,,,,,,,,,,,,,,,,,,,,,,,,,,,,0,1,3,Delaware,"Philadelphia-Camden-Wilmington, PA-NJ-DE-MD",No,NO2,Undetermined/Insufficient Data,,,,,,,,,,,,
10-005-1003,100051003,38.7791,-75.16323,"Lewes SPM SITE, NEAR UD ACID RAIN/MERCURY COLLECTORS",Northeast,1,P98V,,,,,,,,,,,,,,,,,,,,,,,,18.2,,,,,,,,,0,1,3,Delaware,"Salisbury, MD-DE",No,NO2,Undetermined/Insufficient Data,,,0,No,Undetermined/Insufficient Data,,,0,No,Undetermined/Insufficient Data,,
11-001-0017,110010017,38.903722634,-77.05136643,,Northeast,2,P98V,85,101,88,77,78,77,,,,,,,,,,,,,,,,,,,,,,,,,,,0,6,3,District of Columbia,"Washington-Arlington-Alexandria, DC-VA-MD-WV",No,NO2,Undetermined/Insufficient Data,,,,,,,,,,,,
11-001-0025,110010025,38.583226,-77.1219,TAKOMA SCHOOL,Northeast,1,P98V,,75,78,80,79,,62,65,71,65,60,66,70,70,61,59,56,54,49,53,55.2,,,,,,,,,,,,0,19,3,District of Columbia,"Washington-Arlington-Alexandria, DC-VA-MD-WV",No,NO2,Undetermined/Insufficient Data,,,0,No,Undetermined/Insufficient Data,,,0,No,Undetermined/Insufficient Data,,
11-001-0041,110010041,38.895572,-76.958072,RIVER TERRACE,Northeast,1,P98V,,,,,,73,68,73,80,74,80,69,74,68,64,71,60,58,61,63,59,55,51,48,,,,43,45,49.3,42.2,47.9,0,24,3,District of Columbia,"Washington-Arlington-Alexandria, DC-VA-MD-WV",No,NO2,Undetermined/Insufficient Data,,,0,No,Undetermined/Insufficient Data,,,0,No,Undetermined/Insufficient Data,,
11-001-0043,110010043,38.921847001,-77.013178,MCMILLAN  NCore-PAMS,Northeast,1,P98V,,,,,,86,70,70,61,68,67,76,68,67,65,67,59,57,58,62,57,52,50.1,47.7,44.9,52.9,51.4,44.4,43.8,45.9,44.7,47.1,0,27,3,District of Columbia,"Washington-Arlington-Alexandria, DC-VA-MD-WV",No,NO2,Undetermined/Insufficient Data,,,1,Yes,Decreasing,-1.363636364,5.2972482E-9,1,Yes,Decreasing,-0.8225,0.0155251214
11-001-0050,110010050,38.970092,-77.016715,Takoma Rec Center,Northeast,1,P98V,,,,,,,,,,,,,,,,,,,,,,,,,47,52,43.9,40.5,39.8,48,43.4,47.8,0,8,3,District of Columbia,"Washington-Arlington-Alexandria, DC-VA-MD-WV",No,NO2,Undetermined/Insufficient Data,,,0,No,Undetermined/Insufficient Data,,,0,No,Undetermined/Insufficient Data,,
11-001-0051,110010051,38.894770001,-76.953426,Near Road,Northeast,1,P98V,,,,,,,,,,,,,,,,,,,,,,,,,,,58.6,58.3,49,47.6,44.4,50.2,0,6,3,District of Columbia,"Washington-Arlington-Alexandria, DC-VA-MD-WV",No,NO2,Undetermined/Insufficient Data,,,0,No,Undetermined/Insufficient Data,,,0,No,Undetermined/Insufficient Data,,
12-011-0003,120110003,26.281469356,-80.28254931,,Southeast,1,P98V,,44,45,47,44,46,41,,,,,,,,,,,,,,,,,,,,,,,,,,0,6,6,Florida,"Miami-Fort Lauderdale-West Palm Beach, FL",No,NO2,Undetermined/Insufficient Data,,,,,,,,,,,,
12-011-0031,120110031,26.272358711,-80.29477165,SAWGRASS SPRINGS MIDDLE SCHOOL,Southeast,1,P98V,,,,,,,,,,47,44,44,42,,37,,43,40,,31,36,33,,,,,,,,,,,0,10,6,Florida,"Miami-Fort Lauderdale-West Palm Beach, FL",No,NO2,Undetermined/Insufficient Data,,,0,No,Undetermined/Insufficient Data,,,0,No,Undetermined/Insufficient Data,,
12-011-0035,120110035,26.132677,-80.169817,Near Road - Fort Lauderdale,Southeast,1,P98V,,,,,,,,,,,,,,,,,,,,,,,,,,,,,,47.5,39.4,,0,2,6,Florida,"Miami-Fort Lauderdale-West Palm Beach, FL",No,NO2,Undetermined/Insufficient Data,,,0,No,Undetermined/Insufficient Data,,,0,No,Undetermined/Insufficient Data,,
12-011-8002,120118002,26.087567132,-80.11115212,Dr. Von Mizell-Eula Johnson State Park (prev. John U Lloyd State Park),Southeast,1,P98V,,54,62,60,50,55,56,49,60,64,,61,47,52,59,53,55,54,,43,49,40,,42,50,39,43,43.8,45.6,44.8,,,1,26,6,Florida,"Miami-Fort Lauderdale-West Palm Beach, FL",Yes,NO2,Decreasing,-0.571428571,0.0000329398,1,Yes,Decreasing,-0.707692308,0.0023797872,1,Yes,No Trend,0.4111111111,0.155405007
12-031-0032,120310032,30.356339,-81.635396,Kooker Park,Southeast,2,P98V,57,53,61,58,53,,60,53,58,53,63,,51,,,,48,43,42,38,44,39,37,38,40,,,34.8,31.8,32.7,31.7,34.1,0,25,6,Florida,"Jacksonville, FL",No,NO2,Undetermined/Insufficient Data,,,0,No,Undetermined/Insufficient Data,,,1,Yes,Decreasing,-0.9,0.0004872405
12-031-0108,120310108,30.262778,-81.606833,Pepsi Place,Southeast,1,P98V,,,,,,,,,,,,,,,,,,,,,,,,,,43,,,40.7,39.1,36.8,40.5,0,5,6,Florida,"Jacksonville, FL",No,NO2,Undetermined/Insufficient Data,,,0,No,Undetermined/Insufficient Data,,,0,No,Undetermined/Insufficient Data,,
12-033-0004,120330004,30.525367,-87.20355,Ellyson Industrial Park,Southeast,1,P98V,,,,,,,,,,,50,47,42,36,37,36,32,33,29,28,,,,,,,,,,,,,0,10,6,Florida,"Pensacola-Ferry Pass-Brent, FL",No,NO2,Undetermined/Insufficient Data,,,0,No,Undetermined/Insufficient Data,,,,,,,
12-057-0081,120570081,27.740032817,-82.46514565,Simmons Park,Southeast,1,P98V,,,,,,,,40,37,,,41,39,39,33,29,34,36,25,23,,,,,,,,,,,,,0,11,6,Florida,"Tampa-St. Petersburg-Clearwater, FL",No,NO2,Undetermined/Insufficient Data,,,0,No,Undetermined/Insufficient Data,,,,,,,
12-057-0113,120570113,27.955133001,-82.469532,Munro Street (Near-Road),Southeast,1,P98V,,,,,,,,,,,,,,,,,,,,,,,,,,,,,,37.4,35.1,37.4,0,3,6,Florida,"Tampa-St. Petersburg-Clearwater, FL",No,NO2,Undetermined/Insufficient Data,,,0,No,Undetermined/Insufficient Data,,,0,No,Undetermined/Insufficient Data,,
12-057-1065,120571065,27.892523006,-82.53842941,USMC Reserve Center (Gandy),Southeast,1,P98V,,,59,57,46,54,47,52,52,46,55,51,,43,41,37,41,38,37,37,,,,32,30,,,,,,,,0,19,6,Florida,"Tampa-St. Petersburg-Clearwater, FL",No,NO2,Undetermined/Insufficient Data,,,0,No,Undetermined/Insufficient Data,,,0,No,Undetermined/Insufficient Data,,
12-057-1111,120571111,27.95555,-82.46714,Julian B. Lane Park,Southeast,1,P98V,,,,,,,,,,,,,,,,,,,,,,,,,,47,,,,,,,0,1,6,Florida,"Tampa-St. Petersburg-Clearwater, FL",No,NO2,Undetermined/Insufficient Data,,,0,No,Undetermined/Insufficient Data,,,0,No,Undetermined/Insufficient Data,,
12-057-3002,120573002,27.965650001,-82.2304,SYDNEY,Southeast,1,P98V,,,,,,,,,,,,,,,35,33,32,31,,,,,,,,,,,,,,,0,4,6,Florida,"Tampa-St. Petersburg-Clearwater, FL",No,NO2,Undetermined/Insufficient Data,,,0,No,Undetermined/Insufficient Data,,,,,,,
12-081-4012,120814012,27.480873047,-82.6187093,G.T. BRAY PARK,Southeast,1,P98V,,,,,,,,,,36,43,35,,,,32,30,32,,,,,,,,,,,,,,,0,6,6,Florida,"North Port-Sarasota-Bradenton, FL",No,NO2,Undetermined/Insufficient Data,,,0,No,Undetermined/Insufficient Data,,,,,,,
12-086-0027,120860027,25.732877981,-80.16175011,Rosenstiel,Southeast,1,P98V,53,49,,58,46,50,,49,,54,54,,44,45,47,53,52,42,37,37,43,36,40,42,40,33,36,,37.8,,33.5,,1,25,6,Florida,"Miami-Fort Lauderdale-West Palm Beach, FL",Yes,NO2,Decreasing,-0.655494505,6.9437894E-9,1,Yes,Decreasing,-0.756666667,2.4099648E-6,1,Yes,Decreasing,-0.75,0.0155251214
12-086-0035,120860035,25.785472,-80.284206,Perimeter Road,Southeast,1,P98V,,,,,,,,,,,,,,,,,,,,,,,,,,,,,,46.8,,48.6,0,2,6,Florida,"Miami-Fort Lauderdale-West Palm Beach, FL",No,NO2,Undetermined/Insufficient Data,,,0,No,Undetermined/Insufficient Data,,,0,No,Undetermined/Insufficient Data,,
12-086-4002,120864002,25.798709016,-80.21004844,Lab Annex,Southeast,2,P98V,63,62,67,,51,53,63,63,59,67,72,58,53,,58,56,49,,42,41,47,47,46,44,48,,42,,44.2,,,,0,24,6,Florida,"Miami-Fort Lauderdale-West Palm Beach, FL",No,NO2,Undetermined/Insufficient Data,,,0,No,Undetermined/Insufficient Data,,,0,No,Undetermined/Insufficient Data,,
12-095-2002,120952002,28.596389,-81.3625,WINTER PARK,Southeast,1,P98V,63,,55,57,45,52,56,54,50,58,59,54,49,51,48,45,46,43,38,38,40,33,35,34,36,25,29,29.5,29.6,29.6,,,1,29,6,Florida,"Orlando-Kissimmee-Sanford, FL",Yes,NO2,Decreasing,-1.115,1.629561E-12,1,Yes,Decreasing,-1.35,1.4954893E-8,1,Yes,No Trend,-0.614285714,0.0984749717
12-099-0020,120990020,26.591230001,-80.060867,AG Holley,Southeast,1,P98V,,,,,,,,,,,,,,,,,,,,37,46,38,,,,,,,,,,,0,3,6,Florida,"Miami-Fort Lauderdale-West Palm Beach, FL",No,NO2,Undetermined/Insufficient Data,,,0,No,Undetermined/Insufficient Data,,,0,No,Undetermined/Insufficient Data,,
12-099-1004,120991004,26.693399268,-80.09920888,Belvedere Road,Southeast,1,P98V,54,53,54,,,50,,48,53,49,40,41,,46,,50,46,42,,,,,,,,,,,,,,,0,13,6,Florida,"Miami-Fort Lauderdale-West Palm Beach, FL",No,NO2,Undetermined/Insufficient Data,,,0,No,Undetermined/Insufficient Data,,,,,,,
12-103-0018,121030018,27.78586555,-82.73987536,Azalea Park,Southeast,1,P98V,63,53,56,58,48,51,49,57,,57,58,48,48,45,41,36,41,42,41,38,38,34,34,34,30,26,31,29.2,28,26.4,21.9,24.7,1,31,6,Florida,"Tampa-St. Petersburg-Clearwater, FL",Yes,NO2,Decreasing,-1.2,1.133461E-14,1,Yes,Decreasing,-1.25,1.782003E-11,1,Yes,Decreasing,-1.2,0.0001200121
12-103-0027,121030027,27.83440925,-82.66525125,Sawgrass Lake Park (Near-Road),Southeast,1,P98V,,,,,,,,,,,,,,,,,,,,,,,,,,,,29.4,31,28.1,27,27.4,0,5,6,Florida,"Tampa-St. Petersburg-Clearwater, FL",No,NO2,Undetermined/Insufficient Data,,,0,No,Undetermined/Insufficient Data,,,0,No,Undetermined/Insufficient Data,,
12-111-1002,121111002,27.449205591,-80.40810435,Ft. Pierce,Southeast,1,P98V,,,,,,,,,,52,,,42,,,,,,,,,,,,,,,,,,,,0,2,6,Florida,"Port St. Lucie, FL",No,NO2,Undetermined/Insufficient Data,,,0,No,Undetermined/Insufficient Data,,,,,,,
12-115-1006,121151006,27.350278,-82.479722,Paw Park,Southeast,1,P98V,,,,,,,,,,,,,32,33,,,,,,,,,,,17,12,15.2,13.9,14.4,,,,0,7,6,Florida,"North Port-Sarasota-Bradenton, FL",No,NO2,Undetermined/Insufficient Data,,,0,No,Undetermined/Insufficient Data,,,0,No,Undetermined/Insufficient Data,,
13-089-0002,130890002,33.687800001,-84.2905,South DeKalb,Southeast,1,P98V,61,,,,58,54,66,59,,,74,71,62,,62,58,60,,58,50,58,56.5,52.6,42.9,52.8,48.4,49.4,44.9,39.2,42.4,37.9,,0,24,6,Georgia,"Atlanta-Sandy Springs-Roswell, GA",No,NO2,Undetermined/Insufficient Data,,,1,Yes,Decreasing,-1.44,1.782003E-11,1,Yes,Decreasing,-1.832386364,0.0001200121
13-089-0003,130890003,33.698642843,-84.27261363,NR-285,Southeast,1,P98V,,,,,,,,,,,,,,,,,,,,,,,,,,54.1,,,46.6,50.1,42.2,49.9,0,5,6,Georgia,"Atlanta-Sandy Springs-Roswell, GA",No,NO2,Undetermined/Insufficient Data,,,0,No,Undetermined/Insufficient Data,,,0,No,Undetermined/Insufficient Data,,
13-089-3001,130893001,33.845741379,-84.2133977,Tucker-Idlewood Road,Southeast,1,P98V,,,,,,,64,,,,64,62,59,,53,53,48,,,,,,,,,,,,,,,,0,7,6,Georgia,"Atlanta-Sandy Springs-Roswell, GA",No,NO2,Undetermined/Insufficient Data,,,0,No,Undetermined/Insufficient Data,,,,,,,
13-121-0048,131210048,33.779330045,-84.39576027,"Georgia Tech, Ford Environmental Science and Technology Bldg, roof",Southeast,1,P98V,87,89,88,,,79,92,,87,87,88,89,86,70,70,77,67,75,63,,,,,,,,,,,,,,0,16,6,Georgia,"Atlanta-Sandy Springs-Roswell, GA",No,NO2,Undetermined/Insufficient Data,,,0,No,Undetermined/Insufficient Data,,,,,,,
13-121-0056,131210056,33.778400001,-84.3914,NR-GA Tech,Southeast,1,P98V,,,,,,,,,,,,,,,,,,,,,,,,,,49.3,53.6,46.3,41.2,,41.3,45.7,0,6,6,Georgia,"Atlanta-Sandy Springs-Roswell, GA",No,NO2,Undetermined/Insufficient Data,,,0,No,Undetermined/Insufficient Data,,,0,No,Undetermined/Insufficient Data,,
13-223-0003,132230003,33.9285,-85.04534,"Yorkville, King Farm",Southeast,1,P98V,,,,,,,,,38,,38,40,34,32,29,26,24,25,,16,18,18.4,15.1,18.2,17.1,13,,,,,,,0,16,6,Georgia,"Atlanta-Sandy Springs-Roswell, GA",No,NO2,Undetermined/Insufficient Data,,,0,No,Undetermined/Insufficient Data,,,0,No,Undetermined/Insufficient Data,,
13-247-0001,132470001,33.588545283,-84.06960764,Conyers,Southeast,1,P98V,,,,,,29,30,41,37,38,43,39,33,32,33,31,31,27,28,18,24,18,18.3,19.9,20.8,18.3,,,,,,,0,21,6,Georgia,"Atlanta-Sandy Springs-Roswell, GA",No,NO2,Undetermined/Insufficient Data,,,0,No,Undetermined/Insufficient Data,,,0,No,Undetermined/Insufficient Data,,
15-003-0010,150030010,21.32374479,-158.0886127,Kapolei,None,1,P98V,,,,,,25,,28,27,27,,26,,26,23,24,24,26,,26,24,22,19,23,,24.3,,33,26.9,28.1,25.5,21.5,0,21,0,Hawaii,"Urban Honolulu, HI",No,NO2,Undetermined/Insufficient Data,,,1,Yes,No Trend,0,0.5,1,Yes,No Trend,0.525,0.0984749717
15-003-0011,150030011,21.33274299,-158.1141296,West Beach,None,1,P98V,,,,,,,,,,,22,23,26,27,21,,30,24,18,26,20,,,,,,,,,,,,0,10,0,Hawaii,"Urban Honolulu, HI",No,NO2,Undetermined/Insufficient Data,,,0,No,Undetermined/Insufficient Data,,,0,No,Undetermined/Insufficient Data,,
15-007-0007,150070007,21.949599342,-159.3662401,Niumalu,None,1,P98V,,,,,,,,,,,,,,,,,,,,,,,,31.9,33,,,,39.3,38,33.8,13.8,0,6,0,Hawaii,"Kapaa, HI",No,NO2,Undetermined/Insufficient Data,,,0,No,Undetermined/Insufficient Data,,,0,No,Undetermined/Insufficient Data,,
16-001-0010,160010010,43.600699,-116.347853,Meridian - St. Luke's,Northwest,1,P98V,,,,,,,,,,,,,,,,,,,,,45,,,,,,,,,,43.1,45.1,0,3,4,Idaho,"Boise City, ID",No,NO2,Undetermined/Insufficient Data,,,0,No,Undetermined/Insufficient Data,,,0,No,Undetermined/Insufficient Data,,
16-001-0016,160010016,43.618668,-116.213138,168 FEET FROM BOISE FIRE STATION #5.,Northwest,1,P98V,,,,,,,,,56,55,,,,,,,,,,,,,,,,,,,,,,,0,2,4,Idaho,"Boise City, ID",No,NO2,Undetermined/Insufficient Data,,,,,,,,,,,,
16-001-0023,160010023,43.593929,-116.38125,,Northwest,2,P98V,,,,,,,,,,,,,,,,,,,,,,,,,,,41.3,,,,,,0,1,4,Idaho,"Boise City, ID",No,NO2,Undetermined/Insufficient Data,,,0,No,Undetermined/Insufficient Data,,,0,No,Undetermined/Insufficient Data,,
16-005-0015,160050015,42.876725,-112.460347,Pocatello - Garrett and Gould,Northwest,1,P98V,,,,,,,54,,,,,,,,,,,,,,,,,,,,,,,,,,0,1,4,Idaho,"Pocatello, ID",No,NO2,Undetermined/Insufficient Data,,,,,,,,,,,,
16-021-0003,160210003,48.721150271,-116.1995944,,Northwest,1,P98V,,,,,,,,,,,,,,26,,,,,,,,,,,,,,,,,,,0,1,4,Idaho,,No,NO2,Undetermined/Insufficient Data,,,0,No,Undetermined/Insufficient Data,,,,,,,
16-039-0002,160390002,43.151644498,-115.7110597,,Northwest,1,P98V,,,,,,,,,,,,,,38,,,,,,,,,,,,,,,,,,,0,1,4,Idaho,"Mountain Home, ID",No,NO2,Undetermined/Insufficient Data,,,0,No,Undetermined/Insufficient Data,,,,,,,
16-055-0003,160550003,47.788908,-116.804539,Coeur d'Alene - Lancaster Rd.,Northwest,1,P98V,,,,,,,,,,,,,,,,38,32,,,,,,,,,,,,,,,,0,2,4,Idaho,"Coeur d'Alene, ID",No,NO2,Undetermined/Insufficient Data,,,0,No,Undetermined/Insufficient Data,,,,,,,
16-077-0011,160770011,42.9125,-112.535556,PRIMARY PARTICULATE AND METEOROLOGICAL MONITORING SITE,Northwest,1,P98V,,,,,,,,,,,,,,,38.5,,,,,,,,,,,,,,,,,,0,1,4,Idaho,"Pocatello, ID",No,NO2,Undetermined/Insufficient Data,,,0,No,Undetermined/Insufficient Data,,,,,,,
17-031-0037,170310037,41.979475885,-87.67005654,,Central,1,P98V,99,61,69,69,78,81,,,,,,,,,,,,,,,,,,,,,,,,,,,0,6,1,Illinois,"Chicago-Naperville-Elgin, IL-IN-WI",No,NO2,Undetermined/Insufficient Data,,,,,,,,,,,,
17-031-0039,170310039,41.894476894,-87.62033045,,Central,1,P98V,79,89,82,75,,,,,,,,,,,,,,,,,,,,,,,,,,,,,0,4,1,Illinois,"Chicago-Naperville-Elgin, IL-IN-WI",No,NO2,Undetermined/Insufficient Data,,,,,,,,,,,,
17-031-0063,170310063,41.877682,-87.635027,CTA BUILDING,Central,1,P98V,77,82,,78,83,89,83,94,87,83,92,85,92,83,82,84,97,119,132,79,71,65,,63,,,,52.2,,,,,0,23,1,Illinois,"Chicago-Naperville-Elgin, IL-IN-WI",No,NO2,Undetermined/Insufficient Data,,,0,No,Undetermined/Insufficient Data,,,0,No,Undetermined/Insufficient Data,,
17-031-0064,170310064,41.790786878,-87.60164649,UNIVERSITY OF CHICAGO,Central,1,P98V,,,,67,83,79,75,77,79,76,64,,,,,,,,,,,,,,,,,,,,,,0,8,1,Illinois,"Chicago-Naperville-Elgin, IL-IN-WI",No,NO2,Undetermined/Insufficient Data,,,0,No,Undetermined/Insufficient Data,,,,,,,
17-031-0071,170310071,41.866699909,-87.64977476,,Central,1,P98V,,,,,82,,,,,,,,,,,,,,,,,,,,,,,,,,,,0,1,1,Illinois,"Chicago-Naperville-Elgin, IL-IN-WI",No,NO2,Undetermined/Insufficient Data,,,,,,,,,,,,
17-031-0075,170310075,41.964199061,-87.65866671,PROBE LOCATED 39 M FROM S EDGE AND 2 M FROM E EDGE OF ROOF.,Central,1,P98V,,,,,,,,,74,78,69,64,,,,,,,,,,,,,,,,,,,,,0,4,1,Illinois,"Chicago-Naperville-Elgin, IL-IN-WI",No,NO2,Undetermined/Insufficient Data,,,0,No,Undetermined/Insufficient Data,,,,,,,
17-031-0076,170310076,41.751399979,-87.71348815,COM ED MAINTENANCE BLDG,Central,1,P98V,,,,,,,,,,,,,85,68,66,74,56,61,56,58,56,57,,62,67,45.2,60.8,54.1,,46.8,,,0,16,1,Illinois,"Chicago-Naperville-Elgin, IL-IN-WI",No,NO2,Undetermined/Insufficient Data,,,0,No,Undetermined/Insufficient Data,,,0,No,Undetermined/Insufficient Data,,
17-031-0119,170310119,41.578619621,-87.55740607,Kingery Near Road #1,Central,1,P98V,,,,,,,,,,,,,,,,,,,,,,,,,,,,,,,47.8,49,0,2,1,Illinois,"Chicago-Naperville-Elgin, IL-IN-WI",No,NO2,Undetermined/Insufficient Data,,,0,No,Undetermined/Insufficient Data,,,0,No,Undetermined/Insufficient Data,,
17-031-0219,170310219,41.920009,-87.672995,Kennedy Near Road 2,Central,1,P98V,,,,,,,,,,,,,,,,,,,,,,,,,,,,,,,49.9,52.1,0,2,1,Illinois,"Chicago-Naperville-Elgin, IL-IN-WI",No,NO2,Undetermined/Insufficient Data,,,0,No,Undetermined/Insufficient Data,,,0,No,Undetermined/Insufficient Data,,
17-031-1601,170311601,41.668120337,-87.99056969,COOK COUNTY TRAILER,Central,1,P98V,74,,,,,,,,,,,,,,,,,,,,,,,,,,,,,,,,0,1,1,Illinois,"Chicago-Naperville-Elgin, IL-IN-WI",No,NO2,Undetermined/Insufficient Data,,,,,,,,,,,,
17-031-3101,170313101,41.965283232,-87.87632965,,Central,1,P98V,70,89,75,67,83,76,81,77,,,,,,,,,,,,,,,,,,,,,,,,,0,8,1,Illinois,"Chicago-Naperville-Elgin, IL-IN-WI",No,NO2,Undetermined/Insufficient Data,,,,,,,,,,,,
17-031-3103,170313103,41.965193481,-87.87626473,IEPA TRAILER,Central,1,P98V,,,,,,,,,78,,,72,88,80,75,79,67,78,72,64,60,64,63,,59,60.8,56,50,61,54.1,50.2,54.3,0,21,1,Illinois,"Chicago-Naperville-Elgin, IL-IN-WI",No,NO2,Undetermined/Insufficient Data,,,1,Yes,Decreasing,-1.393333333,9.9129461E-8,1,Yes,Decreasing,-0.99,0.0104901758
17-031-4002,170314002,41.855243133,-87.7524697,COOK COUNTY TRAILER,Central,1,P98V,77,82,77,75,79,83,79,84,81,80,74,74,66,81,70,75,63,67,66,60,64,62,,64,64,62.4,,55.1,,55.7,,,1,27,1,Illinois,"Chicago-Naperville-Elgin, IL-IN-WI",Yes,NO2,Decreasing,-0.923076923,2.484324E-10,1,Yes,Decreasing,-0.922222222,1.1566553E-6,0,No,Undetermined/Insufficient Data,,
17-031-4004,170314004,41.999474007,-87.87506461,,Central,1,P98V,81,,,,,,,,,,,,,,,,,,,,,,,,,,,,,,,,0,1,1,Illinois,"Chicago-Naperville-Elgin, IL-IN-WI",No,NO2,Undetermined/Insufficient Data,,,,,,,,,,,,
17-031-4201,170314201,42.139996191,-87.79922692,NORTHBROOK WATER PLANT,Central,1,P98V,,,,,,,,,53,56,60,61,,,,,,,,54,53,,44,48,50,42.8,,,,,,,0,10,1,Illinois,"Chicago-Naperville-Elgin, IL-IN-WI",No,NO2,Undetermined/Insufficient Data,,,0,No,Undetermined/Insufficient Data,,,0,No,Undetermined/Insufficient Data,,
17-031-8003,170318003,41.631423983,-87.56810033,COOK COUNTY TRAILER,Central,1,P98V,,,69,69,79,80,68,73,70,79,67,65,73,,,,,,,,,,,,,,,,,,,,0,11,1,Illinois,"Chicago-Naperville-Elgin, IL-IN-WI",No,NO2,Undetermined/Insufficient Data,,,0,No,Undetermined/Insufficient Data,,,,,,,
17-117-0002,171170002,39.396075334,-89.80973892,IEPA TRAILER,Central,1,P98V,,,,,,,,,,,,,,,,,,,,,,,,,,,,,,15,15.5,13,0,3,1,Illinois,"St. Louis, MO-IL",No,NO2,Undetermined/Insufficient Data,,,0,No,Undetermined/Insufficient Data,,,0,No,Undetermined/Insufficient Data,,
17-163-0010,171630010,38.612034481,-90.16047663,IEPA-RAPS TRAILER,Central,2,P98V,58,61,64,61,62,67,57,54,56,60,57,55,51,53,49,50,50,52,48,49,43,37,,43,43,39.9,35.3,35.9,38.2,39.1,39.1,38.8,1,31,1,Illinois,"St. Louis, MO-IL",Yes,NO2,Decreasing,-0.909090909,1.541666E-13,1,Yes,Decreasing,-0.942105263,1.5372411E-7,1,Yes,No Trend,-0.183333333,0.1247897606
17-163-0900,171630900,38.525944958,-90.03909999,"Prairie State Generating Company, LLC",Central,1,P98V,,,,,,,,,,,,,,,,,,,,,,37.3,32.3,32.1,33.7,,,,,,,,0,4,1,Illinois,"St. Louis, MO-IL",No,NO2,Undetermined/Insufficient Data,,,0,No,Undetermined/Insufficient Data,,,0,No,Undetermined/Insufficient Data,,
17-197-1011,171971011,41.221537068,-88.19096718,COM ED TRAINING CENTER,Central,1,P98V,,,,,,,41,38,35,44,37,,,,,,,,,,,,,,,,,,,,,,0,5,1,Illinois,"Chicago-Naperville-Elgin, IL-IN-WI",No,NO2,Undetermined/Insufficient Data,,,0,No,Undetermined/Insufficient Data,,,,,,,
18-003-0006,180030006,40.980603362,-85.28886192,,Central,1,P98V,,58,57,51,,,,,,,,,,,,,,,,,,,,,,,,,,,,,0,3,1,Indiana,"Fort Wayne, IN",No,NO2,Undetermined/Insufficient Data,,,,,,,,,,,,
18-005-0007,180050007,39.294322001,-85.76681648,Hope- Hauser Jr-Sr High School,Central,1,P98V,,,,,,,,,,,,,,,,,,,,,,,,,21.8,20.1,,,,,,,0,2,1,Indiana,"Columbus, IN",No,NO2,Undetermined/Insufficient Data,,,0,No,Undetermined/Insufficient Data,,,0,No,Undetermined/Insufficient Data,,
18-033-0002,180330002,41.364217215,-84.926353,STEEL DYNAMICS,Central,1,P98V,,,,,,,31,,,,,,,,,,,,,,,,,,,,,,,,,,0,1,1,Indiana,"Auburn, IN",No,NO2,Undetermined/Insufficient Data,,,,,,,,,,,,
18-051-0010,180510010,38.276322919,-87.55293837,TOYOTA SITE,Central,1,P98V,,,,,,,,,,,37,41,38,41,41,,,,,,,,,,,,,,,,,,0,5,1,Indiana,"Evansville, IN-KY",No,NO2,Undetermined/Insufficient Data,,,0,No,Undetermined/Insufficient Data,,,,,,,
18-063-0001,180630001,39.876987921,-86.47388799,PLANT SITE --- QUALITECH,Central,1,P98V,,,,,,,,,,,,,,,72,54,45,,,,,,,,,,,,,,,,0,3,1,Indiana,"Indianapolis-Carmel-Anderson, IN",No,NO2,Undetermined/Insufficient Data,,,0,No,Undetermined/Insufficient Data,,,,,,,
18-063-0002,180630002,39.863366993,-86.47053948,Pittsboro Elementary School,Central,1,P98V,,,,,,,,,,,,,,,,42,38,43,,,,,,,,,,,,,,,0,3,1,Indiana,"Indianapolis-Carmel-Anderson, IN",No,NO2,Undetermined/Insufficient Data,,,0,No,Undetermined/Insufficient Data,,,,,,,
18-063-0003,180630003,39.880870987,-86.54193043,TRIWEST HIGH SCHOOL --- QUALITECH_DOWNWIND SITE,Central,1,P98V,,,,,,,,,,,,,,,46,37,40,,,,,,,,,,,,,,,,0,3,1,Indiana,"Indianapolis-Carmel-Anderson, IN",No,NO2,Undetermined/Insufficient Data,,,0,No,Undetermined/Insufficient Data,,,,,,,
18-089-0022,180890022,41.606662324,-87.30494332,Gary-IITRI/ 1219.5 meters east of Tennessee St.- old ammuntion bunker,Central,1,P98V,,,,,,,,,68,,68,,,65,,60,,,49.5,52.8,52.8,52.8,47.7,,54.6,45.5,42.1,43.8,46.5,,,,0,14,1,Indiana,"Chicago-Naperville-Elgin, IL-IN-WI",No,NO2,Undetermined/Insufficient Data,,,0,No,Undetermined/Insufficient Data,,,0,No,Undetermined/Insufficient Data,,
18-089-1016,180891016,41.600314284,-87.33476011,,Central,2,P98V,,,72,65,83,75,70,,,,,,,,,,,,,,,,,,,,,,,,,,0,5,1,Indiana,"Chicago-Naperville-Elgin, IL-IN-WI",No,NO2,Undetermined/Insufficient Data,,,,,,,,,,,,
18-097-0057,180970057,39.749027001,-86.186269,Indpls- Harding St.,Central,1,P98V,60,,,,,,,,,,,,,,,,,,,,,,,,,,,,,,,,0,1,1,Indiana,"Indianapolis-Carmel-Anderson, IN",No,NO2,Undetermined/Insufficient Data,,,,,,,,,,,,
18-097-0073,180970073,39.789485611,-86.06084985,Indpls.- E. 16th St.,Central,1,P98V,,,64,61,66,71,62,55,63,,58,56,,,52,53,42,48,44.6,39.4,53.5,46.9,,44.1,46.3,,,,,,,,0,19,1,Indiana,"Indianapolis-Carmel-Anderson, IN",No,NO2,Undetermined/Insufficient Data,,,0,No,Undetermined/Insufficient Data,,,0,No,Undetermined/Insufficient Data,,
18-097-0078,180970078,39.810833001,-86.114444,Indpls- Washington Park/  in parking lot next to police station,Central,3,P98V,,,,,,,,,,,,,,,,,,,,,,,,,,,,,,37.2,38.6,36.2,0,3,1,Indiana,"Indianapolis-Carmel-Anderson, IN",No,NO2,Undetermined/Insufficient Data,,,0,No,Undetermined/Insufficient Data,,,0,No,Undetermined/Insufficient Data,,
18-097-0087,180970087,39.787933053,-86.13087959,Indpls.- I 70,Central,2,P98V,,,,,,,,,,,,,,,,,,,,,,,,,,,,,,,37.5,40.4,0,2,1,Indiana,"Indianapolis-Carmel-Anderson, IN",No,NO2,Undetermined/Insufficient Data,,,0,No,Undetermined/Insufficient Data,,,0,No,Undetermined/Insufficient Data,,
18-109-0004,181090004,39.481714644,-86.40832718,,Central,1,P98V,,,32,,,,,,,,,,,,,,,,,,,,,,,,,,,,,,0,1,1,Indiana,"Indianapolis-Carmel-Anderson, IN",No,NO2,Undetermined/Insufficient Data,,,,,,,,,,,,
18-141-0012,181410012,41.699767856,-86.45695953,,Central,1,P98V,,,,,48,50,43,47,49,,,,,,,,,,,,,,,,,,,,,,,,0,5,1,Indiana,"South Bend-Mishawaka, IN-MI",No,NO2,Undetermined/Insufficient Data,,,,,,,,,,,,
18-141-0015,181410015,41.696660411,-86.214722,South Bend-Shields Dr.,Central,1,P98V,,,,,,,,,,,,,,,,,,35,26,,,,35.8,38.1,45.8,38,33.9,36.3,39.3,40.4,,,0,10,1,Indiana,"South Bend-Mishawaka, IN-MI",No,NO2,Undetermined/Insufficient Data,,,0,No,Undetermined/Insufficient Data,,,0,No,Undetermined/Insufficient Data,,
18-141-1008,181411008,41.693659029,-86.23667336,SOUTH BEND CAAP,Central,1,P98V,,,,,,,,,,,53,49,54,51,52,,,,,,,,,,,,,,,,,,0,5,1,Indiana,"South Bend-Mishawaka, IN-MI",No,NO2,Undetermined/Insufficient Data,,,0,No,Undetermined/Insufficient Data,,,,,,,
18-147-0002,181470002,37.9825521,-86.96637461,,Central,1,P98V,32,,41,40,36,,,,,,,,,,,,,,,,,,,,,,,,,,,,0,4,1,Indiana,,No,NO2,Undetermined/Insufficient Data,,,,,,,,,,,,
18-147-0006,181470006,37.881438304,-87.08360838,,Central,1,P98V,36,,34,36,35,,,,,,,,,,,,,,,,,,,,,,,,,,,,0,4,1,Indiana,,No,NO2,Undetermined/Insufficient Data,,,,,,,,,,,,
18-147-0008,181470008,37.981161742,-87.03249668,AK STEEL_SPENCER COUNTY,Central,1,P98V,,,,,,,,,,38,44,,,,,,,,,,,,,,,,,,,,,,0,2,1,Indiana,,No,NO2,Undetermined/Insufficient Data,,,0,No,Undetermined/Insufficient Data,,,,,,,
18-163-0012,181630012,38.021726652,-87.56945775,Evansville CAAP,Central,1,P98V,,,,,,,,,,,49,43,36,39,,39,32,,36.9,,,,,,,,,,,,,,0,7,1,Indiana,"Evansville, IN-KY",No,NO2,Undetermined/Insufficient Data,,,0,No,Undetermined/Insufficient Data,,,,,,,
