site_code,latitude,longitude,site_name,location,state,2000,2001,2002,2003,2004,2005,2006,2007,2008,2009,2010,2011,2012,2013,2014,2015,2016,correlation,slope,pvalue,trend,rhr_site,used_in_nat_agg,site_id
ACAD1,44.377103,-68.26100067,MCFARLAND HILL Air Pollutant Research Site,Acadia NP,Maine,20.752768,22.374298,22.909758,22.696695,21.337646,21.720299,22.687712,20.835775,19.349384,18.168552,17.519251,17.30718,15.915804,15.312183,15.364676,16.070274,13.518853,-0.925954,-0.56893,0,Significantly Improving,yes,Yes,23-009-0103
ADPI1,42.0912,-77.2099,PINNACLE STATE PARK,Addison Pinnacle,New York,,,28.452517,27.366655,26.540956,29.084877,25.778343,26.793972,24.454836,21.935343,,,,,,,,-0.800426,-0.746748,0.017017,Significantly Improving,no,No,36-101-0003
AGTI1,33.463646,-116.9706255,Aqua Tibia Wilderness,Agua Tibia,California,,21.390757,22.441568,21.315308,21.3517,20.392557,,21.208508,18.882933,18.59469,17.613289,17.434456,17.633347,17.015789,17.27491,15.325258,16.106846,-0.956676,-0.439672,0,Significantly Improving,yes,Yes,06-065-9000
AREN1,39.9232,-77.3079,NARSTO SITE ARENDTSVILLE,Arendtsville,Pennsylvania,,,29.194469,28.682701,29.435528,30.990931,28.874004,27.506941,26.284107,24.97357,24.250879,,,,,,,-0.833653,-0.678143,0.005232,Significantly Improving,no,No,42-001-0001
BADL1,43.7435,-101.941167,SOUTH OF BADLANDS NP HEADQUARTERS,Badlands NP,South Dakota,14.340455,16.053833,14.442244,15.214389,14.850883,15.706433,14.841147,15.144371,14.832445,14.447391,15.888989,14.387134,13.548881,13.373448,12.241261,11.51856,11.692231,-0.748262,-0.203702,0.000551,Significantly Improving,yes,Yes,46-071-0001
BALD1,34.058441,-109.440564,Mount Baldy,Mount Baldy,Arizona,,,,9.193981,8.091308,9.427115,8.040979,9.007134,8.899364,7.595778,8.354664,,8.846925,7.910711,6.877663,7.385373,6.43819,-0.732593,-0.154859,0.004398,Significantly Improving,yes,No,04-001-8001
BALT1,39.2547,-76.7093,,Baltimore,Maryland,,,,,,30.765602,29.358541,,,,,,,,,,,,,,,no,No,24-005-9000
BAND1,35.77967467,-106.2664027,,Bandelier NM,New Mexico,10.263112,9.487897,9.798786,10.039253,8.903149,10.506528,9.605666,10.542361,9.567261,9.674641,8.252537,9.266839,9.893343,8.762168,9.232192,9.056016,7.229524,-0.601014,-0.099042,0.010721,Significantly Improving,yes,Yes,35-028-1002
BIBE1,29.3027265,-103.178015,"Big Bend National Park, K-Bar Ranch Road",Big Bend NP,Texas,,15.683769,16.20462,14.80301,15.597953,17.40715,16.055933,16.593569,14.70961,13.942945,16.28651,13.687896,14.550804,13.385889,14.862004,14.835104,13.310659,-0.616395,-0.156151,0.010995,Significantly Improving,yes,Yes,48-043-0101
BIRM1,33.5531,-86.8148,North Birmingham,North Birmingham,Alabama,,,,,,30.271053,29.129881,29.06786,27.039743,26.113173,24.682129,25.24892,23.309296,22.842169,22.3594,21.498055,20.724588,-0.98771,-0.872341,0,Significantly Improving,no,No,01-073-0023
BLIS1,38.97608043,-120.1024508,Bliss SP,Bliss SP,California,10.667546,9.55405,9.707228,10.315582,,10.000924,10.03782,10.749357,10.570191,9.352657,9.317,9.515165,9.771772,9.03424,9.393864,9.464286,9.161526,-0.606196,-0.06477,0.012801,Significantly Improving,yes,Yes,06-017-9000
BLMO1,43.7158,-96.1913,,Blue Mounds,Minnesota,,,,25.881491,24.957235,24.574492,22.948189,25.886339,22.6831,25.10054,25.497921,21.66641,22.377932,21.951458,20.980461,19.038658,,-0.786252,-0.432796,0.001436,Significantly Improving,no,No,27-133-9000
BOAP1,33.8695155,-106.8519618,,Bosque del Apache,New Mexico,,,11.608483,11.934452,11.275994,12.302691,12.376376,13.362786,11.533903,11.012188,10.190084,11.850481,11.509451,11.392926,,10.77605,9.863558,-0.557775,-0.113173,0.038212,Significantly Improving,yes,Yes,35-053-9000
BOLA1,42.85,-109.64,Boulder Lake,Boulder Lake,Wyoming,,,,,,,,,,,6.654999,6.899265,7.367588,6.16049,6.188735,5.848763,5.363355,-0.82035,-0.255528,0.02379,Significantly Improving,no,No,56-035-9001
BOND1,40.052,-88.3733,ISWS CLIMATE STATION,Bondville,Illinois,,,28.017128,29.619078,27.989424,31.997086,28.441765,27.894054,27.329071,26.6894,27.527138,26.503365,24.203913,24.074282,25.176102,22.542088,22.395134,-0.867713,-0.510252,0.000028,Significantly Improving,no,Yes,17-019-1001
BOWA1,47.946637,-91.49546367,Fernberg Road,Boundary Waters Canoe Area,Minnesota,18.214134,19.65941,,,,20.575209,18.485798,19.024239,18.755051,19.510311,15.75502,15.482257,15.628098,15.79915,15.421835,13.856068,12.215075,-0.823345,-0.413554,0.000296,Significantly Improving,yes,No,27-075-0005
BRCA1,37.61837567,-112.173555,,Bryce Canyon NP,Utah,9.095646,8.791506,7.851041,7.753842,8.592753,8.457331,8.313693,9.26553,8.010988,7.22433,7.803958,7.90626,7.489112,6.909131,6.684593,6.519732,,-0.780311,-0.134363,0.000362,Significantly Improving,yes,Yes,49-017-0101
BRID1,42.97486967,-109.75786,,Bridger Wilderness,Wyoming,7.928359,7.855452,7.867276,8.353111,7.794401,7.562152,8.209972,7.719039,7.899065,6.527896,7.01266,7.306602,7.343204,6.373118,6.369812,6.153434,6.100183,-0.852902,-0.126425,0.000014,Significantly Improving,yes,Yes,56-035-9000
BRIG1,39.464995,-74.449223,Brigantine,Brigantine NWR,New Jersey,27.366362,27.072119,26.532768,28.492538,27.687372,28.809124,26.883261,26.168974,,23.057764,24.509138,22.664751,20.951916,20.118025,21.088577,20.836605,19.058765,-0.919702,-0.583043,0,Significantly Improving,yes,Yes,34-001-0006
BRIS1,30.1086,-89.7617,Breton Island,Breton Island,Louisiana,,,,,,,,,,23.514452,23.782701,22.666809,,19.991253,21.740597,19.240742,17.588675,-0.92168,-0.817412,0.00316,Significantly Improving,yes,No,22-071-9000
BRLA1,41.3662,-106.2418,,Brooklyn Lake,Wyoming,,8.23794,8.978309,8.976651,,,,,,,,,,,,,,0.865053,0.369356,0.334569,No Trend,no,No,56-001-9000
BRMA1,44.1074,-70.7292,,Bridgton,Maine,,,22.103367,21.921745,22.312033,20.790346,22.207096,20.578993,18.169344,17.779696,17.117712,17.718491,16.083607,15.600245,15.602407,15.494875,,-0.954446,-0.619765,0,Significantly Improving,no,Yes,23-005-0103
CABA1,43.8325,-70.0644,,Casco Bay,Maine,,,23.575197,22.237484,21.957727,22.149157,22.357279,21.150364,20.022854,19.230795,18.084137,18.192759,17.233534,16.861736,16.649715,17.182537,13.959719,-0.968327,-0.601975,0,Significantly Improving,no,Yes,23-005-9002
CABI1,47.954903,-115.670876,,Cabinet Mountains,Montana,,10.069037,11.002553,11.00433,10.849449,10.995897,11.37079,10.890327,10.644362,10.211531,9.673223,10.286798,10.444547,9.900057,9.42959,10.586516,9.205576,-0.644703,-0.084692,0.007013,Significantly Improving,yes,Yes,30-089-9000
CACO1,41.9758,-70.0242,TRURO NATIONAL SEASHORE,Cape Cod,Massachusetts,,,23.585932,25.590942,23.740458,24.784235,22.934351,24.712368,20.912468,21.060059,19.407595,19.2218,18.475611,16.995802,16.786306,17.036449,14.920704,-0.950629,-0.727751,0,Significantly Improving,no,Yes,25-001-0002
CACR1,34.45435167,-94.14289033,EAGLE MOUNTAIN,Caney Creek,Arkansas,,,25.14715,23.610769,23.205654,28.373621,23.770126,,22.062508,21.620825,21.51512,20.703449,21.044193,19.462242,19.368086,18.165442,17.711372,-0.877393,-0.546051,0.000037,Significantly Improving,yes,Yes,05-113-0003
CADI1,36.7842,-87.8501,"OLD DOVER HIGHWAY CADIZ,KY",Cadiz,Kentucky,,,28.390661,28.83292,27.835396,31.835817,29.580215,29.363455,26.003407,25.514517,24.656897,,,,,,,-0.623406,-0.51711,0.072847,Possible Improvement,no,No,21-221-8001
CANY1,38.45870025,-109.8210083,"Canyonlands National Park, Island in the Sky",Canyonlands NP,Utah,9.094258,9.37746,8.656972,8.296071,8.524718,8.355254,8.53497,8.819266,8.192236,7.648575,8.873631,8.488163,7.409707,8.887868,7.390079,6.648096,6.198707,-0.734393,-0.126145,0.000788,Significantly Improving,yes,Yes,49-037-0101
CAPI1,38.3022155,-111.292561,,Capitol Reef NP,Utah,,,,7.72856,9.519398,9.080709,,9.185258,8.459282,7.676777,8.817316,8.198756,7.718285,7.845271,7.30439,6.714767,6.475728,-0.754416,-0.166988,0.002883,Significantly Improving,yes,No,49-055-9000
CEBL1,38.7701,-99.7634,CEDAR BLUFF,Cedar Bluff,Kansas,,,,23.167295,19.894407,22.244175,18.887657,20.447294,19.327015,18.313889,19.317007,18.566271,17.350462,18.227839,19.673763,16.807556,14.79121,-0.816361,-0.411781,0.000368,Significantly Improving,no,No,20-195-0001
CHAS1,28.74841233,-82.55486667,,Chassahowitzka NWR,Florida,24.935987,24.551067,24.358221,,,,24.701946,23.042557,21.04215,20.396227,20.788393,20.740538,19.052393,18.73068,18.483181,17.636482,16.364552,-0.955934,-0.527212,0,Significantly Improving,yes,No,12-017-9000
CHER1,36.9562,-97.0313,NEWKIRK IMPROVE,Cherokee Nation,Oklahoma,,,,23.537277,22.770277,25.330051,22.350445,23.806526,22.105129,21.630039,,,,,,,,-0.526341,-0.306269,0.224899,No Trend,no,No,40-071-9010
CHIR1,32.009381,-109.3889515,Chiricahua National Monument,Chiricahua NM,Arizona,11.010058,10.074799,11.193819,10.816653,9.401598,10.602154,10.614193,10.838666,10.206388,9.330086,9.452631,10.323343,10.621002,10.20171,8.927189,9.681844,9.134274,-0.602965,-0.083877,0.010403,Significantly Improving,yes,Yes,04-003-8001
CLPE1,44.3335,-106.9565,,Cloud Peak,Wyoming,,,,8.771137,8.381537,8.983596,8.709557,9.154399,8.521705,7.258648,7.109001,7.587695,8.014252,7.807614,6.736517,,,-0.754983,-0.165525,0.00453,Significantly Improving,no,No,56-019-9000
COGO1,45.5693,-122.2103,,Columbia Gorge #1,Washington,,,21.505693,20.669415,22.203104,21.212255,20.291925,20.422884,17.942074,19.59066,,,,,,,,-0.745959,-0.396463,0.033575,Significantly Improving,no,No,53-039-0010
COHI1,42.4009,-76.6534,Connecticut Hill,Connecticut Hill,New York,,,28.346588,27.211081,26.136873,29.058298,,,,,,,,,,,,0.106682,0.106092,0.893318,No Trend,no,No,36-109-9991
COHU1,34.7851845,-84.62649925,Fort Mountain,Cohutta,Georgia,,,28.890478,,28.778513,30.208824,,29.249353,26.310341,22.21892,22.313139,22.140944,19.558815,19.73307,19.042475,17.789845,16.63529,-0.949555,-1.044053,0.000001,Significantly Improving,yes,Yes,13-213-0003
CORI1,45.6644,-121.0008,,Columbia River Gorge,Washington,,24.807852,,22.334642,23.234627,23.607153,20.770628,22.26166,19.667316,21.889139,21.429514,17.689919,,22.419569,19.907969,18.941366,20.776035,-0.670175,-0.276727,0.008725,Significantly Improving,no,Yes,53-039-0011
CRES1,41.7627,-102.4336,,Crescent Lake,Nebraska,,,,17.840157,16.824055,16.631954,15.159602,16.263931,15.154938,15.791884,15.898525,14.804687,13.812396,13.600202,15.494063,12.662912,,-0.841617,-0.308005,0.000309,Significantly Improving,no,No,31-069-9000
CRLA1,42.895772,-122.136099,,Crater Lake NP,Oregon,,,9.356906,9.284619,9.427559,9.049809,9.596174,9.408744,9.849309,9.419334,8.579081,7.889243,9.457724,,8.170254,8.891128,7.773427,-0.639385,-0.093632,0.013814,Significantly Improving,yes,Yes,41-035-8001
CRMO1,43.4605455,-113.5550645,"Craters of the Moon National Monument, Visitor Center",Craters of the Moon NM,Idaho,,13.248891,12.893542,10.199755,11.291655,11.667178,11.608597,11.642084,10.889221,9.971602,9.424468,12.15923,9.07065,11.552624,9.480639,8.077122,7.751031,-0.750869,-0.255347,0.000802,Significantly Improving,yes,Yes,16-023-0101
DENA1,63.72333,-148.9675,,Denali NP,Alaska,6.8466,6.84587,7.73853,7.692612,6.189114,6.637667,8.610105,7.336369,8.64489,9.795583,6.511421,7.724024,7.244855,7.542241,7.393006,6.359338,6.235455,-0.068757,-0.013176,0.793161,No Trend,yes,Yes,02-068-0003
DEVA1,36.5089,-116.8478,Death Valley National Park,Death Valley NP,California,,13.177529,12.968723,,13.516528,13.41307,13.359365,12.775456,11.751776,12.819539,11.739071,11.178318,12.376945,,,,,-0.714418,-0.155444,0.013506,Significantly Improving,no,No,06-027-0101
DOME1,35.727833,-118.137707,Lebec-Peace Valley/Frazier Park Roads,Dome Lands Wilderness,California,,16.955709,18.271921,16.095449,17.477652,,,17.468988,16.613693,16.766338,14.741565,16.435623,15.54442,16.586254,15.236588,15.585218,13.844723,-0.730322,-0.174348,0.003016,Significantly Improving,yes,Yes,06-029-9001
DOSO1,39.10525767,-79.42607733,,Dolly Sods Wilderness,West Virginia,27.716789,27.532631,27.958155,29.325859,28.906649,30.454882,28.912212,28.389587,24.473917,21.889013,22.67981,23.656857,20.878777,18.827013,19.412743,18.551729,16.562031,-0.899393,-0.802309,0.000001,Significantly Improving,yes,Yes,54-093-9000
DOUG1,31.3492,-109.5397,DOUGLAS RED CROSS,Douglas,Arizona,,,,,,16.702009,16.188482,,16.477169,15.827945,15.90957,16.07445,16.142702,15.458714,15.597903,,,-0.80345,-0.103691,0.009092,Significantly Improving,no,No,04-003-1005
ELDO1,37.7009,-94.0348,El Dorado Springs,El Dorado Springs,Missouri,,,,25.03367,24.489901,27.160303,25.412977,24.254831,23.042198,22.733986,24.021814,23.736668,21.791479,21.393578,21.50457,18.849213,,-0.86198,-0.472646,0.000151,Significantly Improving,no,No,29-039-0001
ELLI1,36.0853,-99.9354,,Ellis,Oklahoma,,,,22.019955,20.229532,22.469997,19.743954,21.463507,19.487995,19.31176,19.708775,18.182858,18.551973,18.138678,17.994938,,,-0.858509,-0.362815,0.00035,Significantly Improving,no,No,40-045-0890
EVER1,25.391001,-80.6806035,SITE MOVED ACROSS ROAD FROM BEARD CENTER TO BEHIND IORI RESEARCH BLD,Everglades NP,Florida,,19.455194,18.603828,20.731726,19.353264,21.130508,20.168606,18.336815,18.259712,16.367838,16.895737,16.696766,16.391687,15.170835,15.139882,15.24749,14.592724,-0.895064,-0.400688,0.000003,Significantly Improving,yes,Yes,12-086-0030
FLAT1,47.7734,-114.269,,Flathead,Montana,,,,11.933778,11.830079,11.933843,12.237517,11.790046,11.290835,11.054198,10.190522,10.028448,11.169365,10.539702,9.660237,10.458614,9.318447,-0.875305,-0.196015,0.000041,Significantly Improving,no,No,30-047-9000
FLTO1,39.92,-107.63,Flat Tops,Flat Tops,Colorado,,,,,,,,,,,,,7.306069,6.316157,5.614175,5.872824,4.684639,-0.935755,-0.568619,0.019358,Significantly Improving,no,No,08-103-9000
FOPE1,48.308,-105.1022,,Fort Peck,Montana,,,,15.289459,17.994909,15.616087,16.477648,15.721562,16.721733,14.81338,19.444553,,16.820122,14.099943,15.104137,13.766549,12.494437,-0.510542,-0.215435,0.074626,Possible Improvement,no,No,30-085-9000
FRES1,36.7818,-119.7732,"3425 N FIRST ST, FRESNO",Fresno,California,,,,,,32.275661,29.355749,31.237104,32.29113,30.24124,30.117552,31.179285,31.492748,30.560688,33.738426,31.827541,28.299349,-0.067706,-0.027343,0.834395,No Trend,no,No,06-019-0008
FRRE1,39.7058,-79.0122,Piney Run,Frostberg Reservoir,Maryland,,,,,,31.799677,29.671244,27.898195,24.911324,23.822783,24.13945,23.902643,21.084873,20.94751,21.217312,19.84193,17.64016,-0.962668,-1.116274,0.000001,Significantly Improving,no,No,24-023-0002
GAAR1,66.9025,-151.517,Gates of the arctic,Gates of the Arctic NP,Alaska,,,,,,,,,,,8.264758,8.361795,8.345296,,7.81803,,,-0.804943,-0.120889,0.195057,No Trend,no,No,02-290-9000
GAMO1,46.82620625,-111.7107105,,Gates of the Mountains,Montana,,8.895292,8.74052,9.346428,8.820155,8.728348,8.230485,,8.126125,8.301502,,,,7.888169,6.777906,8.152433,6.494097,-0.847364,-0.133565,0.000502,Significantly Improving,yes,No,30-049-9000
GICL1,33.22044875,-108.235084,,Gila Wilderness,New Mexico,,9.696876,9.076,8.635922,8.295961,9.378056,9.021395,9.530392,8.740777,7.916275,7.890887,,8.788868,8.378412,7.75343,7.935964,6.833427,-0.745508,-0.118631,0.001421,Significantly Improving,yes,Yes,35-003-9000
GLAC1,48.51049925,-113.9966033,,Glacier NP,Montana,16.25646,15.534186,,,16.791124,16.754419,15.696654,15.330875,14.757695,,13.932926,13.772988,14.048808,13.791923,13.638196,13.683849,12.967785,-0.892754,-0.221544,0.000017,Significantly Improving,yes,Yes,30-029-9001
GRBA1,39.0052,-114.2161,Great Basin National Park,Great Basin NP,Nevada,7.078587,8.108721,7.808217,8.629449,8.100255,7.959459,8.287564,7.621243,7.886358,7.187627,6.864679,6.322065,6.583803,6.539568,7.336532,6.383457,5.261838,-0.75912,-0.132715,0.00041,Significantly Improving,no,Yes,32-033-0101
GRCA2,35.9731085,-111.9840835,,Hance Camp at Grand Canyon NP,Arizona,8.719817,,7.406776,7.98931,7.640767,8.476497,8.840654,8.63385,8.849438,7.892301,7.327487,7.796416,7.334803,7.293404,6.971457,6.786616,6.229646,-0.694489,-0.112018,0.002833,Significantly Improving,yes,Yes,04-005-8102
GRGU1,44.3081595,-71.2176505,"CAMP DODGE, GREENS GRANT",Great Gulf Wilderness,New Hampshire,,22.465265,23.428955,20.651976,21.157217,20.506605,19.7355,21.062841,16.095663,,,17.551218,14.85867,13.873529,15.185585,14.499818,11.021733,-0.943945,-0.698561,0,Significantly Improving,yes,Yes,33-007-4002
GRRI1,43.9373,-91.4052,,Great River Bluffs,Minnesota,,,,27.029541,24.94866,27.079374,24.639626,24.825684,25.429211,26.557106,23.623438,24.587622,22.060778,21.154198,22.080601,19.875822,20.100578,-0.884974,-0.515489,0.000026,Significantly Improving,no,No,27-169-9000
GRSA1,37.7248995,-105.518548,,Great Sand Dunes NM,Colorado,10.263661,9.686664,8.933739,10.490369,8.925315,9.868187,9.891533,9.258615,9.279851,8.60815,7.768377,9.576224,9.163898,8.79067,8.046876,7.713346,7.366203,-0.755873,-0.13635,0.000448,Significantly Improving,yes,Yes,08-003-9000
GRSM1,35.63342,-83.94164733,"Great Smoky Mountains National Park, Look Rock",Great Smoky Mountains NP,Tennessee,27.301115,30.111311,28.853109,30.148809,29.366629,30.736439,29.175911,28.755737,25.323656,22.23185,22.508245,22.694168,19.942085,19.561176,19.060837,17.110924,16.341259,-0.919517,-0.911906,0,Significantly Improving,yes,Yes,47-009-0101
GUMO1,31.833006,-104.8094335,,Guadalupe Mountains NP,Texas,14.97829,14.674927,15.993546,13.661488,13.711375,16.149054,13.855092,14.800742,13.403572,12.829238,12.077228,12.738232,13.289207,13.132236,13.371051,13.135,11.190015,-0.736895,-0.188518,0.00074,Significantly Improving,yes,Yes,48-109-0101
HACR1,20.7585,-156.2479,Haleakala Crater,Haleakala Crater,Hawaii,,,,,,,,7.794559,11.689094,10.301658,9.049076,9.049784,9.016035,,8.115767,7.590864,8.807624,-0.470486,-0.190889,0.2012,No Trend,yes,No,15-009-9001
HALE1,20.8085625,-156.282256,Haleakala National Park,Haleakala NP,Hawaii,,12.45377,12.04271,13.899286,12.171003,12.784414,13.045915,12.722193,17.722851,14.649332,13.774852,14.009296,,,,,,0.52453,0.254526,0.097621,Possible Degradation,yes,No,15-009-9000
HAVO1,19.4309045,-155.257945,,Hawaii Volcanoes NP,Hawaii,,16.022432,17.765146,21.947573,18.922768,21.982452,20.556717,23.811216,27.453817,30.398403,24.4354,14.967993,16.174431,19.687977,19.004555,19.023874,20.130436,-0.018961,-0.016596,0.944434,No Trend,yes,Yes,15-001-9002
HECA1,44.970228,-116.84376,,Hells Canyon,Oregon,,17.6973,15.236609,,16.585678,16.445133,13.3791,13.906535,12.363457,,11.817073,13.634939,11.555972,16.863466,12.472383,12.493303,12.056974,-0.643615,-0.280311,0.013006,Significantly Improving,yes,Yes,41-063-0002
HEGL1,36.6137995,-92.9220565,,Hercules-Glades,Missouri,,,26.281658,24.668493,24.545074,27.962366,24.444248,24.898508,23.883236,22.835056,22.468348,23.065363,20.075069,19.730495,20.313715,18.231071,18.037315,-0.918543,-0.602171,0.000001,Significantly Improving,yes,Yes,29-213-0003
HILL1,34.4289,-112.9628,HILLSIDE,Hillside,Arizona,,,10.833987,11.442227,10.658876,,,,,,,,,,,,,-0.212953,-0.087555,0.863384,No Trend,no,No,04-025-0005
HOOV1,38.08812233,-119.1771023,Hoover Wilderness,Hoover,California,,,9.158041,8.842301,8.913231,9.096192,8.509293,8.997585,9.21302,7.668202,7.229728,6.91907,8.473706,8.151658,7.832869,7.424029,7.29824,-0.74207,-0.131983,0.001537,Significantly Improving,yes,Yes,06-051-9000
IKBA1,34.340486,-111.6831813,Mazatzal Wilderness - Ike's Backbone,Ike's Backbone,Arizona,,10.505911,11.696731,11.139303,11.420729,11.28964,11.06273,11.306559,10.783798,9.609672,9.091005,10.813944,10.498316,9.807322,9.374189,9.322521,8.695275,-0.787319,-0.156713,0.000294,Significantly Improving,yes,Yes,04-025-8104
INGA1,36.0778,-112.1288,,Indian Gardens,Arizona,,,,,,,11.148439,11.38242,11.475999,,10.366793,10.42595,9.822074,,,,,-0.892808,-0.250044,0.016619,Significantly Improving,no,No,04-005-8100
ISLE1,47.459623,-88.14909,,Isle Royale NP,Michigan,18.869339,22.02533,19.24733,18.9582,18.540138,22.336649,20.699984,20.56818,20.309673,20.118902,17.814468,17.555647,16.462048,16.215231,18.234304,15.632259,13.444889,-0.725043,-0.335333,0.000991,Significantly Improving,yes,Yes,26-083-9000
JARB1,41.89256125,-115.4260738,Jarbidge Wilderness,Jarbidge Wilderness,Nevada,,8.300795,8.749472,9.362599,8.526594,9.040638,9.077768,8.905014,8.49826,7.60983,7.587386,7.340739,8.36579,7.73987,7.572693,7.780749,7.431679,-0.742093,-0.103897,0.000996,Significantly Improving,yes,Yes,32-007-9000
JARI1,37.62661825,-79.51251575,Natural Bridge Ranger Station,James River Face Wilderness,Virginia,,28.356976,28.914347,27.608841,27.445032,30.32342,28.212376,27.49366,24.013451,22.074738,23.119503,23.024023,20.027336,18.593565,19.142567,18.455973,16.839996,-0.94031,-0.874384,0,Significantly Improving,yes,Yes,51-163-0003
JOSH1,34.069493,-116.3888515,Joshua Tree National Park - Black Rock,Joshua Tree NP,California,,17.022743,18.630869,17.532709,17.778929,18.159956,16.470139,16.275368,15.52792,15.066495,13.558781,12.972515,13.483177,12.960095,13.81439,12.223979,13.26472,-0.924177,-0.415835,0,Significantly Improving,yes,Yes,06-071-9002
KAIS1,37.22066,-119.154568,Kaiser Wilderness,Kaiser,California,,,,12.176245,13.171012,13.274361,,14.012503,12.11151,11.80004,11.141066,11.625873,11.831122,12.050262,11.451245,11.637105,10.258993,-0.717432,-0.166041,0.005767,Significantly Improving,yes,No,06-0199-000
KALM1,42.551996,-124.058872,IVA,Kalmiopsis,Oregon,,13.04122,13.033663,13.546093,13.776572,13.794512,14.176166,13.242045,12.726597,13.799011,12.916356,12.019206,12.404952,11.97509,11.933857,11.829873,12.237397,-0.741749,-0.120693,0.001004,Significantly Improving,yes,Yes,41-033-0010
KPBO1,60.012315,-151.711491,, Kenai Peninsula Borough,Alaska,,,,,,,,,,,,,,,,,11.81457,,,,,yes,No,02-122-0009
LABE1,41.711688,-121.5068465,Lava Beds National Monument,Lava Beds NM,California,,10.983236,11.875545,11.288934,10.998714,11.233074,10.683557,11.456488,10.942158,10.287318,9.490618,9.816828,10.586534,9.149881,10.282017,9.944077,9.350732,-0.806964,-0.136359,0.000158,Significantly Improving,yes,Yes,06-093-0005
LASU1,40.6883,-91.9883,,Lake Sugema,Iowa,,,,27.361616,26.105499,,,,,,,,,,,,,,,,,no,No,19-177-9000
LASU2,40.6932,-92.0059,LAKE SUGEMA STATE PARK II,Lake Sugema,Iowa,,,,,,29.214638,25.804647,25.548811,25.602322,24.123743,25.814697,24.554136,23.111197,22.20171,23.788929,,,-0.833246,-0.531476,0.002752,Significantly Improving,no,No,19-177-0006
LAVO1,40.53981733,-121.576811,Lassen Volcanic National Park,Lassen Volcanic NP,California,11.287928,11.564846,11.166998,11.292581,12.179159,11.247661,11.448647,11.333711,10.475906,10.17589,9.927737,10.637521,10.238331,9.427407,10.128189,10.645428,9.268109,-0.803931,-0.12732,0.000101,Significantly Improving,yes,Yes,06-089-3003
LIGO1,35.97231675,-81.93305425,Linville Falls,Linville Gorge,North Carolina,,28.876457,27.603085,27.470549,28.248161,31.609293,,28.641649,24.142185,21.642328,21.905462,21.428022,18.372086,18.599117,17.564669,16.85799,15.169626,-0.928997,-0.998051,0.000001,Significantly Improving,yes,Yes,37-011-0002
LIVO1,38.5346,-86.2604,,Livonia,Indiana,,,28.616945,30.286934,27.869791,32.142056,28.464571,29.108353,27.539038,24.819754,26.184311,,,,,,,-0.634504,-0.497121,0.066426,Possible Improvement,no,No,18-175-9000
LOND1,42.8624,-71.3801,MOOSEHILL SCHOOL,Londonderry,New Hampshire,,,,,,,,,,,,19.888371,18.387962,18.279308,17.932312,17.991049,16.390127,-0.908674,-0.543684,0.01213,Significantly Improving,no,No,33-015-0018
LOST1,48.6418965,-102.402155,LOSTWOOD NWR,Lostwood,North Dakota,17.342346,19.171175,18.0832,17.592617,19.172709,18.918495,17.618994,18.101036,18.271208,18.521194,20.581656,,,,16.49535,15.530406,15.637972,-0.518116,-0.139585,0.057706,Possible Improvement,yes,No,38-013-0004
LYBR1,43.14815133,-73.12679167,,Lye Brook Wilderness,Vermont,23.101414,25.480406,23.464844,23.369715,22.413401,25.918686,21.186983,24.963413,,17.854492,19.089752,18.267134,,,,,,-0.725792,-0.559847,0.011454,Significantly Improving,yes,No,50-003-8001
LYEB1,42.9561,-72.9098,,Lye Brook Wilderness,Vermont,,,,,,,,,,,,,17.780502,17.321281,16.731861,15.215436,13.48113,-0.963026,-1.070459,0.008487,Significantly Improving,yes,No,50-025-8001
MACA1,37.13176667,-86.147856,"Mammoth Cave National Park, Houchin Meadow",Mammoth Cave NP,Kentucky,29.011366,30.796911,29.322964,30.544788,29.468672,32.691048,30.889746,30.942238,27.992437,26.549137,24.234137,24.586439,22.266293,22.584755,22.790419,22.368776,20.038126,-0.879381,-0.68776,0.000003,Significantly Improving,yes,Yes,21-061-0501
MAKA1,48.37185,-124.595,Neah Bay (Makah Tribe),Makah Tribe,Washington,,,,,,,,17.836817,18.35696,,,,,,,,,,,,,no,No,53-009-0014
MAKA2,48.3,-124.62,Neah Bay (Makah Tribe),Makah Tribe Site,Washington,,,,,,,,,,,,12.239252,12.22203,12.212039,13.36552,10.671124,10.398869,-0.609021,-0.36289,0.199413,No Trend,no,No,53-009-0013
MAVI1,41.3309,-70.7846,"1 HERRING CREEK RD, AQUINNAH (WAMPANOAG TRIBAL SITE)",Martha's Vineyard,Massachusetts,,,,26.557619,24.136259,25.850454,24.896866,23.73877,22.550402,22.00206,21.047615,20.860792,18.71307,19.411016,17.738464,19.058498,16.408077,-0.968474,-0.726066,0,Significantly Improving,no,No,25-007-0001
MEAD1,36.0193,-114.0684,,Meadview,Arizona,,,,,10.74674,10.191381,10.714558,10.737623,10.419788,,9.440806,10.217357,10.209571,9.604226,9.497443,8.171136,8.924609,-0.824488,-0.162572,0.000969,Significantly Improving,no,No,04-015-9000
MELA1,48.48712475,-104.475658,,Medicine Lake,Montana,15.742299,17.612715,15.807483,15.988667,18.009367,16.90604,16.911514,17.075869,16.552458,16.07831,18.440996,15.192148,16.74674,16.487829,16.099001,14.272125,13.742682,-0.442135,-0.106046,0.075566,Possible Improvement,yes,Yes,30-091-9000
MEVE1,37.1983925,-108.4906678,"Mesa Verde National Park, Resource Management Area",Mesa Verde NP,Colorado,9.327442,9.096128,9.359027,9.211353,9.128034,8.666324,8.455499,9.479473,8.738034,7.682097,8.003797,8.058353,8.177405,7.683345,7.047089,6.384144,5.556229,-0.881184,-0.193609,0.000003,Significantly Improving,yes,Yes,08-083-0101
MING1,36.97167767,-90.14323733,,Mingo,Missouri,,26.645857,,,,,26.524767,26.642393,25.717581,23.447214,23.708473,23.779041,20.425554,22.142838,22.519299,19.736782,18.574167,-0.890631,-0.575705,0.000102,Significantly Improving,yes,No,29-207-0001
MKGO1,41.4269,-80.1453,,M.K. Goddard,Pennsylvania,,,28.739828,27.755196,27.845963,31.1057,27.436794,28.069876,25.699459,25.366688,25.74456,,,,,,,-0.671369,-0.441257,0.047694,Significantly Improving,no,No,42-085-9000
MOHO1,45.288754,-121.783687,,Mount Hood,Oregon,,11.750697,11.531097,12.170407,12.943605,11.20146,10.731406,11.941164,10.628942,10.732104,10.036129,9.539091,10.678503,9.598968,9.862488,9.801353,8.19755,-0.855574,-0.215451,0.000024,Significantly Improving,yes,Yes,41-005-0010
MOMO1,41.8214,-73.2973,Mohawk Mt-Cornwall,Mohawk Mt.,Connecticut,,,25.590612,25.530886,25.960535,27.240927,24.932795,26.690733,,20.555943,20.63586,20.36631,19.078587,18.006365,16.550962,17.448042,14.572418,-0.942452,-0.863449,0,Significantly Improving,no,Yes,09-005-0005
MONT1,47.122202,-113.1543817,,Monture,Montana,,11.20609,10.194341,10.861591,11.117285,10.966302,10.362806,10.705688,10.494047,10.234911,9.093286,9.813846,10.641215,9.376181,9.024809,9.774203,8.858974,-0.790246,-0.127441,0.00027,Significantly Improving,yes,Yes,30-077-9000
MOOS1,45.125887,-67.26610525,,Moosehorn NWR,Maine,19.479353,21.301044,22.123386,20.95643,19.438648,20.92053,20.719332,18.502874,17.520117,17.046608,16.45278,16.3836,14.798127,14.30774,14.153976,14.523418,12.391488,-0.938098,-0.557276,0,Significantly Improving,yes,Yes,23-029-1004
MORA1,46.75828,-122.124437,MT RAINIER NAT'L PARK - PARADISE,Mount Rainier NP,Washington,17.208086,16.824678,15.5304,,16.573523,14.527905,15.034083,14.441555,14.043186,15.213869,13.185852,13.982254,14.339704,14.250086,13.246904,12.622659,12.090977,-0.897267,-0.259929,0.000002,Significantly Improving,yes,Yes,53-053-0014
MOZI1,40.53832367,-106.6765547,,Mount Zirkel Wilderness,Colorado,,8.593261,7.318914,6.687214,6.559057,8.280961,6.836998,7.505182,7.158172,6.33783,5.658919,5.613732,6.556534,6.098904,5.843886,5.167588,4.030535,-0.818788,-0.197607,0.000105,Significantly Improving,yes,Yes,08-057-9000
NEBR1,41.8888,-100.3387,,Nebraska NF,Nebraska,,,,19.314363,18.861259,20.32299,16.954472,18.002531,,17.391657,19.149946,18.170984,17.193863,17.059839,16.594086,14.134019,13.24001,-0.793451,-0.363886,0.001207,Significantly Improving,no,No,31-171-9000
NEYO1,40.8161,-73.9019,IS 52,Is 52,New York,,,,,,29.704592,29.380743,29.258301,26.18631,25.975433,,,,,,,,-0.909043,-1.065275,0.032477,Significantly Improving,no,No,36-005-0110
NOAB1,44.7447965,-109.3815898,,North Absaroka,Wyoming,,,8.799801,9.156875,8.374207,8.204824,8.918078,,7.783782,,,,7.598371,7.43084,6.457644,8.007771,4.877856,-0.796072,-0.188208,0.003374,Significantly Improving,yes,No,56-029-9002
NOCA1,48.73159067,-121.064598,,North Cascades,Washington,,12.119325,13.023391,,,11.83728,12.295517,12.279239,10.978076,12.003274,10.809162,10.633657,11.056366,10.470901,10.723546,9.792651,9.713024,-0.893951,-0.191945,0.000016,Significantly Improving,yes,Yes,53-073-0022
NOCH1,45.6495,-106.5574,,Northern Cheyenne,Montana,,,,10.787777,10.452291,11.012746,10.390162,10.822924,10.720858,9.659906,11.816644,10.015841,10.191129,8.98593,8.877292,9.003672,8.529527,-0.7418,-0.170237,0.002388,Significantly Improving,no,No,30-087-0762
OKEF1,30.7405305,-82.1283385,,Okefenokee NWR,Georgia,25.47839,25.50234,25.007345,24.135319,26.584764,27.121763,26.486906,22.939932,23.143671,21.829699,22.069296,20.183945,19.802191,19.622278,18.83539,18.218231,16.9151,-0.911164,-0.580836,0,Significantly Improving,yes,Yes,13-049-9000
OLTO1,44.9334,-68.6457,TOP OF APARTMENT BUILDING - 36 METERS FROM ROUTE 2 (MAIN STREET),Old Town,Maine,,,,23.394402,23.006542,22.609758,,,,,,,,,,,,-0.999978,-0.392322,0.020125,Significantly Improving,no,No,23-019-4003
OLYM1,48.006497,-122.9726957,,Olympic,Washington,,,15.216081,14.93147,14.636712,14.246119,14.159931,13.719708,13.8654,14.664465,13.318138,13.166969,12.414222,12.551109,12.709702,11.86584,11.292928,-0.943229,-0.247003,0,Significantly Improving,yes,Yes,53-009-0020
OMAH1,42.1487,-96.4318,,Omaha,Nebraska,,,,,24.573475,25.333155,23.790396,24.707054,,,,,,,,,,-0.232617,-0.114202,0.767383,No Trend,no,No,31-173-9000
ORPI1,31.9506,-112.8016,ORGAN PIPE NM,Organ Pipe,Arizona,,,,12.462524,12.345638,12.331021,11.841206,12.60638,11.866119,11.609524,11.318047,12.830131,11.406216,11.457759,11.259524,10.97774,11.003486,-0.746547,-0.109324,0.002161,Significantly Improving,no,No,04-019-0005
OWVL1,37.3607,-118.3308,White Mountain Research Center - Owens Valley Lab,Owens Valley,California,,,,,,,,,,,,,,,11.482259,10.709745,11.130016,-0.455381,-0.176121,0.699006,No Trend,no,No,06-027-0002
PACK1,42.8619,-71.8786,MILLER STATE PARK,Pack Monadnock Summit,New Hampshire,,,,,,,,,19.037781,18.195784,18.791609,17.87141,17.24419,15.954988,16.247881,15.649808,12.636502,-0.919604,-0.670782,0.000448,Significantly Improving,no,No,33-011-5001
PASA1,48.38772633,-119.9275383,,Pasayten,Washington,,11.086949,10.583387,9.535756,10.419902,11.011599,10.672515,10.842688,10.162262,9.617084,9.996923,8.750323,9.299617,8.689641,8.596657,9.558718,9.186891,-0.768874,-0.135884,0.0005,Significantly Improving,yes,Yes,53-047-0012
PEFO1,35.077749,-109.769242,"Petrified Forest National Park, South Entrance",Petrified Forest NP,Arizona,9.623169,9.869605,10.070001,10.326588,9.196384,10.240724,9.599661,10.918381,9.548183,8.924835,9.152176,9.996645,9.556432,8.215675,8.148742,8.106477,8.271433,-0.699098,-0.116222,0.001791,Significantly Improving,yes,Yes,04-017-0119
PENO1,44.94798,-68.64786,Penobscot,Penobscot,Maine,,,,,,,21.877878,20.562111,19.229338,19.189037,17.758631,18.160423,16.455547,16.31731,16.250469,17.867279,15.112384,-0.90014,-0.550818,0.000159,Significantly Improving,no,No,23-019-9000
PETE1,56.61076,-132.81234,,Petersburg,Alaska,,,,,,10.209253,10.119934,9.198921,9.940318,,,,,,,,,-0.485673,-0.172782,0.514327,No Trend,no,No,02-280-9000
PHOE1,33.5038,-112.0958,JLG SUPERSITE,Phoenix,Arizona,,,21.316792,21.290424,20.669714,21.39068,,,21.186111,19.853468,,20.103737,20.296167,19.748039,20.369459,19.477413,20.175461,-0.802221,-0.109528,0.001692,Significantly Improving,no,No,04-013-9997
PINN1,36.483349,-121.156791,Pinnacles National Park,Pinnacles NM,California,17.506575,,17.205997,15.941034,17.423767,17.166656,16.285147,17.043404,16.392155,16.136282,13.545209,15.458893,14.467694,14.333006,14.021251,14.77661,14.164562,-0.846974,-0.235927,0.000035,Significantly Improving,yes,Yes,06-069-0003
PMRF1,44.5284,-72.8688,PROCTOR MAPLE RESEARCH CTR,Proctor Maple R. F.,Vermont,,,25.339991,23.253685,24.132648,25.358641,21.355444,23.555983,19.628086,18.613714,18.903294,19.574158,17.139174,16.161634,16.78417,16.797224,13.014651,-0.940717,-0.785299,0,Significantly Improving,no,Yes,50-007-0007
PORE1,38.122422,-122.908532,Point Reyes NS Ranger Station,Point Reyes National Seashore,California,17.824356,,21.074202,,19.248749,19.949331,18.15004,18.523729,17.490273,17.979658,17.878357,16.401024,15.154104,17.674221,15.857837,15.076584,,-0.778625,-0.293965,0.001035,Significantly Improving,yes,Yes,06-041-0002
PRIS1,46.6964,-68.0333,,Presque Isle,Maine,,,21.949181,19.487415,20.044888,19.33021,20.473694,17.533138,17.746771,17.580477,16.160988,16.654764,15.00272,15.021504,15.275873,15.339398,14.126485,-0.948621,-0.501723,0,Significantly Improving,no,Yes,23-003-1020
PUSO1,47.5696,-122.3119,SEATTLE - BEACON HILL,Puget Sound,Washington,,,22.455462,22.438162,22.431389,22.111275,,21.601915,20.994032,21.537416,19.872229,20.116047,18.811712,20.764515,20.507181,19.74518,18.285025,-0.878742,-0.260835,0.000035,Significantly Improving,no,Yes,53-033-0080
QUCI1,39.9428,-81.3378,"ST JOHNS ROAD QUAKER CITY, OH",Quaker City,Ohio,,,29.768063,29.55341,30.115191,31.5966,28.85811,29.47492,25.808643,24.789143,,25.108679,22.217501,22.663481,23.114969,22.127018,19.657686,-0.940167,-0.768894,0.000001,Significantly Improving,no,Yes,39-121-8001
QURE1,42.2985,-72.3346,QUABBIN RES,Quabbin Summit,Massachusetts,,,24.910271,24.703959,24.513815,26.398727,24.714062,25.06135,,20.438442,20.823746,19.507607,18.739996,17.748953,16.80526,17.870174,,-0.933707,-0.732557,0.000003,Significantly Improving,no,Yes,25-015-4002
QUVA1,33.2939,-111.2858,QUEEN VALLEY,Queen Valley,Arizona,,,15.009066,14.620363,13.109834,13.989855,13.564418,,13.708588,12.56375,12.027528,13.141154,12.441723,12.403462,12.572497,11.584489,,-0.864718,-0.201752,0.000136,Significantly Improving,no,Yes,04-021-8001
RAFA1,34.7339215,-120.0074175,San Rafael Wilderness,San Rafael,California,,,,16.683802,17.309784,17.639288,16.542934,16.543552,15.643087,15.682848,15.089946,15.218258,14.561201,14.694197,14.454857,13.651821,13.13346,-0.958473,-0.307192,0,Significantly Improving,yes,No,06-083-9000
REDW1,41.56079133,-124.083946,Redwood NP,Redwood NP,California,14.280397,13.410007,13.035291,13.688301,13.790618,15.129394,15.20178,14.380616,13.856122,14.939177,14.013174,12.474992,12.490826,12.874051,13.241163,12.76667,12.013552,-0.521315,-0.099155,0.031872,Significantly Improving,yes,Yes,06-015-0002
ROMA1,32.941048,-79.657168,CAPE ROMAIN,Cape Romain NWR,South Carolina,27.239971,24.343281,24.104935,24.016211,26.56032,28.634136,27.169252,25.968048,23.897127,22.344,21.750887,22.232895,19.604437,,19.328676,17.215559,17.115425,-0.839494,-0.589914,0.000048,Significantly Improving,yes,Yes,45-019-0046
ROMO1,40.27827833,-105.545723,,Rocky Mountain NP,Colorado,9.608186,12.031708,12.650908,10.981424,10.3225,11.165593,10.836053,10.419807,10.082683,9.520453,8.711027,9.351402,9.137819,9.339229,9.329397,7.501323,7.548353,-0.819192,-0.224662,0.000058,Significantly Improving,yes,Yes,08-069-9001
SACR1,33.45975767,-104.4042353,,Salt Creek,New Mexico,,16.464874,16.452745,16.705938,16.547144,18.033218,16.012703,,16.051695,14.686058,15.293808,15.418752,15.327742,15.807569,16.629137,15.037243,13.7527,-0.653193,-0.135696,0.00828,Significantly Improving,yes,Yes,35-005-9000
SAFO1,39.9791,-95.5682,,Sac and Fox,Kansas,,,,25.532904,23.618143,27.266424,24.492544,24.716536,23.450451,23.494068,25.044859,,,,,,,-0.345267,-0.181674,0.402233,No Trend,no,No,20-013-9000
SAGA1,34.29685,-118.02818,Lebec,San Gabriel,California,,,18.658398,17.121445,17.875353,17.659184,15.835494,15.580714,15.525371,,,,13.088063,14.54912,14.200247,13.663435,12.576907,-0.939901,-0.373673,0.000006,Significantly Improving,yes,No,06-037-9034
SAGO1,34.193887,-116.913154,,San Gorgonio Wilderness,California,,19.747654,21.378893,20.177448,20.431992,20.218302,18.974419,18.168556,18.750851,17.366852,16.132584,14.941828,15.182299,15.067286,15.203639,14.152387,14.233395,-0.956512,-0.503764,0,Significantly Improving,yes,Yes,06-071-9010
SAGU1,32.174607,-110.737145,SAGUARO PARK,Saguaro NM,Arizona,,,12.841211,13.340437,11.727062,12.455951,12.116576,12.025548,11.271554,11.204179,11.887423,,11.387613,11.398232,10.638009,10.460018,10.693992,-0.880415,-0.160534,0.000032,Significantly Improving,yes,Yes,04-019-0021
SAMA1,30.092559,-84.16135325,St. Marks Wildlife Refuge,St. Marks,Florida,,,24.53491,24.073902,,,26.813627,23.583914,22.590435,21.399841,21.854324,20.479227,18.812328,18.02191,19.766703,17.966648,16.134586,-0.901958,-0.629694,0.000025,Significantly Improving,yes,Yes,12-129-0001
SAPE1,36.0139175,-106.844682,,San Pedro Parks,New Mexico,,7.687626,8.00366,7.570512,7.372145,8.895653,7.61564,7.979101,7.956756,6.188308,6.481673,7.128517,7.47319,,6.564512,6.971765,5.208667,-0.678789,-0.127527,0.005396,Significantly Improving,yes,Yes,35-039-9000
SAWE1,32.2486,-111.2178,Saguaro National Park - West,Saguaro West,Arizona,,,14.557378,13.735676,12.959349,13.524304,12.771769,13.173357,12.977268,12.286595,12.521143,13.318758,12.62929,12.82935,11.913355,11.468104,11.717171,-0.836178,-0.150319,0.000103,Significantly Improving,no,Yes,04-019-9000
SAWT1,44.17053733,-114.927141,,Sawtooth NF,Idaho,,9.650283,9.511418,9.793564,9.517167,9.276944,9.546074,9.485727,,8.738552,9.13279,8.430997,9.004279,8.25572,7.896662,9.163013,8.580506,-0.787543,-0.090755,0.000491,Significantly Improving,yes,Yes,16-037-0002
SENE1,46.2889435,-85.950327,Seney,Seney,Michigan,22.765167,24.914968,24.007124,23.690516,22.733273,25.137995,23.626814,25.373362,21.712317,20.958031,21.304441,19.669903,18.87134,18.39539,18.894547,19.812975,16.00407,-0.854711,-0.460456,0.000012,Significantly Improving,yes,Yes,26-153-0001
SEQU1,36.48941067,-118.8291297,Sequoia NP-Ash Mountain,Sequoia NP,California,24.228909,23.176046,,,22.294313,21.876167,21.917324,23.479935,20.574308,20.457872,18.896301,20.216537,19.618362,20.57699,20.220482,18.233957,17.521383,-0.889807,-0.349741,0.000009,Significantly Improving,yes,Yes,06-107-1001
SHEN1,38.52293075,-78.434831,"Shenandoah National Park, Big Meadows",Shenandoah NP,Virginia,27.229265,27.617893,29.890471,27.874651,29.000202,30.510654,27.753847,28.171335,24.588057,21.198067,22.12166,22.101652,19.295126,18.88401,18.581341,18.644588,16.380678,-0.910024,-0.84484,0,Significantly Improving,yes,Yes,51-113-0003
SHMI1,37.3038,-107.4842,,Shamrock Mine,Colorado,,,,,,10.03073,9.363955,9.697219,9.246558,9.265977,8.486222,9.57153,8.949055,8.593753,8.974931,7.960237,8.11197,-0.832324,-0.146592,0.000782,Significantly Improving,no,No,08-067-9000
SHRO1,35.393671,-82.77439,Frying Pan Mountain,Shining Rock Wilderness,North Carolina,,,,29.388885,25.24437,29.345713,27.51692,27.023817,24.446054,20.55468,,,18.554701,18.058575,16.403996,16.096127,14.873857,-0.958779,-1.155221,0.000001,Significantly Improving,yes,No,37-087-0035
SIAN1,34.0908,-110.9421,Sierra Ancha,Sierra Ancha,Arizona,,10.540782,11.307553,11.022241,10.171959,10.987161,,,,9.933539,9.581663,,10.218937,9.831756,,,,-0.744547,-0.099039,0.021382,Significantly Improving,yes,No,04-007-8100
SIKE1,32.0574,-92.435,,Sikes,Louisiana,,,,25.382063,22.902714,27.643181,25.52949,24.666142,22.703951,21.639414,22.119366,,,,,,,-0.632448,-0.533767,0.092431,Possible Improvement,no,No,22-127-9000
SIME1,55.32552,-160.50626,,Simeonof,Alaska,,,14.10438,13.377297,13.52445,13.811954,14.657604,14.524438,13.936313,15.826878,13.967415,15.00513,12.945333,13.421397,13.820041,14.436134,13.797619,-0.000505,-0.000082,0.998574,No Trend,yes,Yes,02-013-0002
SIPS1,34.343334,-87.338791,SIPSEY (closed 11-01-2007),Sipsey Wilderness,Alabama,,27.792728,27.264736,28.479258,27.287144,30.90988,28.945738,27.55711,25.511383,22.522234,22.622562,23.052214,20.425901,19.725559,21.291641,19.547552,17.649227,-0.903365,-0.765062,0.000002,Significantly Improving,yes,Yes,01-079-0002
SNPA1,47.421981,-121.425916,,Snoqualmie Pass,Washington,,15.592938,15.367541,15.004723,15.511014,14.522081,15.194324,15.297159,13.131392,15.016583,13.507692,12.819036,13.651822,,12.986986,13.070949,12.198694,-0.871299,-0.214025,0.000023,Significantly Improving,yes,Yes,53-037-0004
SPOK1,47.9045,-117.8609,,Spokane Res.,Washington,,,20.442907,19.414217,20.364918,,,,,,,,,,,,,-0.068086,-0.038995,0.956622,No Trend,no,No,53-063-0051
STAR1,45.2249295,-118.512931,,Starkey,Oregon,,16.052839,14.985226,12.388537,14.699513,15.758173,12.382271,12.136686,12.550188,12.227457,11.775612,11.29626,10.87668,13.429873,11.378059,10.976858,10.653014,-0.784912,-0.289198,0.000316,Significantly Improving,yes,Yes,41-061-0010
STIL1,35.75078,-94.66956,NEWKIRK IMPROVE,Stilwell,Oklahoma,,,,,,,,,,,,23.033838,22.16184,21.904032,21.443563,19.230335,18.928173,-0.95679,-0.850952,0.00276,Significantly Improving,no,No,40-071-9010
SULA1,45.85981725,-114.000093,,Sula Peak,Montana,,9.78056,10.21566,9.934604,10.317262,8.774392,,9.559457,,9.508776,8.005964,7.922997,9.610034,8.700885,7.797185,,,-0.726422,-0.145292,0.007459,Significantly Improving,yes,No,30-081-9000
SWAN1,35.45099,-76.207542,,Swanquarter,North Carolina,,24.448309,24.358206,,,,25.22699,25.168428,,21.090107,22.077339,19.459616,17.9006,18.27195,18.073801,16.67556,16.292702,-0.909227,-0.636381,0.000042,Significantly Improving,yes,No,37-095-9000
SYCA1,35.14057967,-111.9692263,,Sycamore Canyon,Arizona,,11.964793,12.062749,12.41118,12.189047,12.294518,12.515738,12.130669,13.05124,11.396711,11.434616,11.948938,12.087287,10.493196,11.390558,,,-0.535026,-0.079257,0.048677,Significantly Improving,yes,Yes,04-005-8103
SYCA2,35.1639,-111.9823,,Sycamore Canyon,Arizona,,,,,,,,,,,,,,,,,11.793344,,,,,yes,No,04-005-9000
TALL1,38.4341,-96.5602,,Tallgrass,Kansas,,,,24.760458,22.586802,25.964666,22.367609,23.758026,22.02733,21.427835,22.187159,22.052576,20.728552,20.67872,20.312807,18.025608,17.238775,-0.88581,-0.494409,0.000025,Significantly Improving,no,No,20-017-0001
THBA1,44.6634,-105.2874,Thunder Basin,Thunder Basin,Wyoming,,,,,12.666722,13.418246,,,,,,,12.305957,11.183596,11.391608,10.864377,9.701243,-0.879684,-0.227067,0.00903,Significantly Improving,no,No,56-005-0123
THRO1,46.89481267,-103.3776753,PAINTED CANYON,Theodore Roosevelt,North Dakota,,17.130814,16.121992,16.004818,16.132244,16.550819,15.727614,,16.207766,16.296873,17.979832,15.277064,14.167864,14.820303,13.470136,13.262851,12.603136,-0.751655,-0.231085,0.001232,Significantly Improving,yes,Yes,38-007-0002
THSI1,44.2910435,-122.043361,,Three Sisters Wilderness,Oregon,13.338662,12.793756,12.666335,12.895178,12.282081,11.779157,13.054634,12.688849,12.321209,12.234445,11.756326,10.906991,11.677861,10.650359,12.030821,12.17068,10.574959,-0.754627,-0.121551,0.000464,Significantly Improving,yes,Yes,41-039-0070
TONT1,33.654778,-111.106845,TONTO NM,Tonto NM,Arizona,,11.027294,,11.648032,11.357728,12.505135,12.083196,11.868076,11.368069,10.770588,10.436392,11.704494,11.118791,11.188771,11.077485,9.993011,9.509946,-0.621268,-0.105856,0.013433,Significantly Improving,yes,Yes,04-007-0010
TRCR1,62.3153,-150.3156,,Trapper Creek,Alaska,,,9.523237,9.615364,8.330267,9.443346,10.760792,9.132679,10.163848,11.500975,8.867006,9.376392,7.803678,8.944112,10.212928,8.597924,8.426692,-0.261797,-0.057303,0.345908,No Trend,yes,Yes,02-170-0011
TRIN1,40.78644467,-122.8045703,Trinity,Trinity,California,,12.090174,,12.004761,11.805401,,12.612588,11.722619,10.742117,11.156814,11.080451,10.550544,11.297468,9.768115,10.284191,,,-0.816788,-0.16502,0.001185,Significantly Improving,yes,No,06-105-9000
TUXE1,59.98333,-152.65888,,Tuxedni,Alaska,,,10.269324,10.948041,10.188076,10.594512,11.828091,10.319952,10.944006,12.042928,9.08218,10.693027,8.950587,10.106218,10.843257,,,-0.221593,-0.050488,0.466869,No Trend,yes,Yes,02-122-0009
ULBE1,47.582269,-108.7196377,,UL Bend,Montana,,13.817507,12.844449,12.732876,11.656831,12.516299,12.800744,12.310542,12.072086,12.076819,13.579103,11.912738,11.177809,10.759818,11.532626,10.340185,9.723443,-0.788367,-0.184178,0.000285,Significantly Improving,yes,Yes,30-027-9000
UPBU1,35.8258255,-93.20295925,,Upper Buffalo Wilderness,Arkansas,24.101088,23.537786,24.973333,24.662121,23.97834,29.29298,23.543091,23.954218,22.80398,21.479279,,21.192457,20.124275,19.289009,18.692579,17.825626,18.161093,-0.828301,-0.487016,0.000074,Significantly Improving,yes,Yes,05-101-9000
VIIS1,18.336311,-64.796191,"CRUZ BAY, ST JOHN U.S. VIRGIN ISLANDS",Virgin Islands NP,Virgin Islands,,14.531363,14.413355,14.419908,13.800104,15.108935,15.791492,,15.320395,15.73621,16.60149,15.948844,16.20159,15.411201,15.871316,15.766455,14.567094,0.559884,0.090861,0.029971,Significantly Degrading,yes,Yes,78-020-0001
VILA1,40.969,-95.045,VIKING LAKE STATE PARK,Viking Lake,Iowa,,,,25.907763,25.097935,27.02162,25.721445,26.191086,23.402842,22.921041,24.832069,23.252981,23.681953,22.152561,21.733973,19.427063,18.648848,-0.890267,-0.528353,0.00002,Significantly Improving,no,No,19-137-0002
VOYA2,48.4126,-92.8286,"VOYAGEURS NATIONAL PARK, NEAR SULLIVAN BAY",Voyageurs NP,Minnesota,17.696609,17.702387,17.798252,18.768276,16.770374,19.578682,17.938042,17.943314,18.014688,19.614048,16.51029,,16.930836,,16.041605,13.639054,12.40028,-0.685986,-0.262953,0.004749,Significantly Improving,yes,Yes,27-137-0034
WARI1,38.9519,-118.8146,,Walker River Paiute Tribe,Nevada,,,,,15.126198,,,,,,,,,,,,,,,,,no,No,32-021-9000
WASH1,38.8762,-77.0344,HAINS POINT PM-2.5 AND IMPROVE SITE ON ROOF OF PARK POLICE BLDG.,Washington D.C.,District of Columbia,27.484421,28.362638,28.871874,28.267897,28.714437,31.19389,27.687986,27.986681,26.864428,24.16663,,22.855324,21.492844,,22.543232,,,-0.810621,-0.544005,0.000776,Significantly Improving,no,Yes,11-001-0042
WEMI1,37.6594035,-107.799875,,Weminuche Wilderness,Colorado,,7.969759,7.755104,8.144424,7.382471,8.661843,7.674066,7.652357,7.542492,6.810646,6.314633,6.92802,6.955704,7.140496,7.287008,6.218818,5.355429,-0.784791,-0.134139,0.000318,Significantly Improving,yes,Yes,08-111-9000
WHIT1,33.4687025,-105.534883,,White Mountain,New Mexico,,,12.153335,11.832556,9.930709,12.756465,10.585817,11.422434,10.777675,10.396795,9.680225,11.26379,10.586034,10.982915,10.905411,10.181601,9.201794,-0.577077,-0.122147,0.024298,Significantly Improving,yes,Yes,35-027-9000
WHPA1,46.624253,-121.3880833,,White Pass,Washington,,10.36616,10.232881,10.704722,10.609226,9.117073,10.769778,8.885616,9.587964,10.584103,8.894106,8.084187,8.330031,9.428317,8.355135,8.755399,7.371659,-0.774932,-0.174285,0.000422,Significantly Improving,yes,Yes,53-041-0007
WHPE1,36.58538267,-105.452001,,Wheeler Peak,New Mexico,,,7.211384,7.919909,6.933342,8.127723,7.962679,7.099534,,6.075037,,7.176891,7.533492,7.046915,6.464864,6.484375,5.535268,-0.640293,-0.101239,0.018402,Significantly Improving,yes,Yes,35-055-9000
WHRI1,39.1535855,-106.8209068,Ajax Mountain,White River NF,Colorado,,7.101627,6.423783,5.964322,5.70058,6.369003,6.445799,6.435174,6.337928,6.223156,4.998469,5.980804,5.947788,5.424047,5.396933,4.853929,3.905326,-0.776363,-0.127619,0.000406,Significantly Improving,yes,Yes,08-097-0002
WICA1,43.55763533,-103.483805,"Wind Cave National Park, Visitor Center",Wind Cave,South Dakota,12.006698,13.563971,13.041068,13.522083,13.327768,14.537471,13.839297,13.960186,12.423416,12.240284,12.755055,12.589694,,11.674761,10.341311,10.619925,9.62017,-0.736695,-0.199905,0.001134,Significantly Improving,yes,Yes,46-033-0132
WIMO1,34.732281,-98.712976,,Wichita Mountains,Oklahoma,,,22.255575,22.024286,22.155712,24.392487,20.825138,22.379524,21.056793,,21.063437,21.244833,19.443718,19.543871,20.423321,18.078918,16.299353,-0.824087,-0.356533,0.00029,Significantly Improving,yes,Yes,40-031-9000
WRIG1,34.38,-117.69,Wrightwood,Wrightwood,California,,,,,,,,,,,12.567871,12.645662,,,,,,,,,,no,No,06-037-9000
YELL2,44.5653735,-110.400256,,Yellowstone NP,Wyoming,8.358131,8.261865,8.111997,8.553745,8.194845,8.226778,8.773052,8.659535,8.463492,6.57526,6.501549,7.698427,8.357591,7.923755,7.489453,7.053699,7.028518,-0.577462,-0.082207,0.015207,Significantly Improving,yes,Yes,56-039-9000
YOSE1,37.7132605,-119.706087,"Yosemite National Park, Turtleback Dome",Yosemite NP,California,14.120495,12.956223,13.600497,13.54868,13.390223,13.02475,14.132769,14.613496,12.567256,12.098908,11.819685,12.551116,12.921273,12.167335,11.260865,12.0456,10.605299,-0.765126,-0.161465,0.000345,Significantly Improving,yes,Yes,06-043-0003
ZICA1,37.1983,-113.1508,"Zion National Park, Dalton's Wash",Zion Canyon,Utah,,,,,10.40346,9.730128,9.994505,10.762403,9.648085,9.112462,,,8.889003,8.899757,8.865615,8.524504,7.98459,-0.896883,-0.17649,0.000183,Significantly Improving,yes,No,49-053-0130
ZION1,37.4591,-113.2243,,Zion NP,Utah,,12.162744,10.549448,10.614738,,,,,,,,,,,,,,-0.847597,-0.774003,0.356097,No Trend,yes,No,49-053-9000
