"site_id","parameter_desc","latitude","longitude","city_name","location","land_use_type","setting","site_name","stat","used_in_nat_agg","trend","state_name","city_name","location_setting","local_site_name","natts","toxic_name_alias","2003","2004","2005","2006","2007","2008","2009","2010","2011","2012","2013","2014","2015","2016"
"12-057-1065","Cadmium Pm10 Lc","27.892523","-82.538429","Tampa","","COMMERCIAL","","UATMP: GAFL; NADP: FL18; PILOT CITY: Gandy","meanRos_ug_m3","No","No Trend","Florida","Tampa","Suburban","USMC Reserve Center (Gandy)","No","Cadmium","","0.000136253910063292","0.000180345026942603","0.000216876917464677","0.0001407055322905","0.000123557213176547","","","","","","","",""
"12-095-1004","Cadmium Pm10 Lc","28.551112","-81.345347","ORLANDO","","COMMERCIAL","","UATMP: PAFL","meanRos_ug_m3","No","Decreasing","Florida","Orlando","Suburban","Primrose Ave","No","Cadmium","","","","","","9.75264951480229e-05","8.1362314408736e-05","6.23287829374667e-05","5.65346421903947e-05","","","","2.55790625201848e-05","3.67618368694316e-05"
"12-095-2002","Cadmium Pm10 Lc","28.596389","-81.3625","Winter Park","","COMMERCIAL","","UATMP: ORFL","meanRos_ug_m3","No","No Trend","Florida","Winter Park","Urban And Center City","WINTER PARK","No","Cadmium","","","","","","","","","","0.000108201479624157","8.1590651489301e-05","8.55395887763684e-05","2.55707269240571e-05","3.67618368694316e-05"
"12-103-0018","Cadmium Pm10 Lc","27.785866","-82.739875","SAINT PETERSBURG","","RESIDENTIAL","","UATMP: AZFL; PILOT CITY: Azalea Park","meanRos_ug_m3","Yes","Decreasing","Florida","Saint Petersburg","Suburban","Azalea Park","No","Cadmium","","","0.000119203873397667","0.00020070222239989","0.000110005877404994","9.8447262076695e-05","9.8231281422086e-05","0.000101530677803407","8.36623954219209e-05","8.93022687448253e-05","5.73307305410796e-05","5.49339866660395e-05","4.48759574286603e-05","0.000118069643377924"
"16-001-0100","Cadmium Pm10 Lc","43.6013","-116.3473","Meridian","","COMMERCIAL","","","meanRos_ug_m3","No","Undetermined","Idaho","Not in a city","Suburban","","No","Cadmium","","","","","8.79964935989235e-05","","","","","","","","",""
"16-001-0200","Cadmium Pm10 Lc","43.5776","-116.1777","Boise","","RESIDENTIAL","","White Pine Elementary School","meanRos_ug_m3","No","Undetermined","Idaho","Boise City (corporate name for Boise)","Urban And Center City","White Pine Elementary School","No","Cadmium","","","","","8.12258914538126e-05","","","","","","","","",""
"17-031-0014","Cadmium Pm10 Lc","41.834276","-87.623851","CHICAGO","","COMMERCIAL","","CHICAGO","meanRos_ug_m3","No","Undetermined","Illinois","Chicago","Suburban","FARR HALL","No","Cadmium","","","","","","","","","","","","","",""
"17-031-0022","Cadmium Pm10 Lc","41.687165","-87.539315","Chicago","","INDUSTRIAL","","UATMP: WASH","meanRos_ug_m3","No","Undetermined","Illinois","Chicago","Suburban","WASHINGTON HS","No","Cadmium","","","","","","","","","","","","","",""
"17-031-0049","Cadmium Pm10 Lc","41.896977","-87.623664","CHICAGO","","COMMERCIAL","","CHICAGO","meanRos_ug_m3","No","Undetermined","Illinois","Chicago","Urban And Center City","CHICAGO","No","Cadmium","","","","","","","","","","","","","",""
"17-031-0052","Cadmium Pm10 Lc","41.965485","-87.749928","Chicago","","COMMERCIAL","","MAYFAIR PUMP STATION","meanRos_ug_m3","No","Undetermined","Illinois","Chicago","Suburban","MAYFAIR PUMP STATION","No","Cadmium","","","","","","","","","","","","","",""
"17-031-0060","Cadmium Pm10 Lc","41.656518","-87.589574","CHICAGO","","RESIDENTIAL","","UATMP: CARV","meanRos_ug_m3","No","Undetermined","Illinois","Chicago","Suburban","CARVER HS","No","Cadmium","","","","","","","","","","","","","",""
"17-031-6001","Cadmium Pm10 Lc","41.859754","-87.750334","CICERO","","RESIDENTIAL","","CICERO","meanRos_ug_m3","No","Undetermined","Illinois","Cicero","Suburban","CICERO","No","Cadmium","","","","","","","","","","","","","",""
"17-115-0002","Cadmium Pm10 Lc","39.859481","-88.924799","DECATUR","","INDUSTRIAL","","DECATUR","meanRos_ug_m3","No","Undetermined","Illinois","Decatur","Suburban","DECATUR","No","Cadmium","","","","","","","","","","","","","",""
"17-117-0002","Cadmium Pm10 Lc","39.396075","-89.809739","Nilwood","","AGRICULTURAL","","IEPA TRAILER","meanRos_ug_m3","No","Undetermined","Illinois","Nilwood","Rural","IEPA TRAILER","No","Cadmium","","","","","","","","","","","","","",""
"17-119-0010","Cadmium Pm10 Lc","38.694438","-90.153954","Granite City","","INDUSTRIAL","","AIR PRODUCTS","meanRos_ug_m3","No","Undetermined","Illinois","Granite City","Urban And Center City","AIR PRODUCTS","No","Cadmium","","","","","","","","","","","","","",""
"17-119-1007","Cadmium Pm10 Lc","38.704534","-90.139675","GRANITE CITY","","INDUSTRIAL","","GRANITE CITY","meanRos_ug_m3","No","Undetermined","Illinois","Granite City","Urban And Center City","FIRESTATION #1","No","Cadmium","","","","","","","","","","","","","",""
"17-143-0037","Cadmium Pm10 Lc","40.697007","-89.584737","Peoria","","COMMERCIAL","","CITY OFFICE BUILDING","meanRos_ug_m3","No","Undetermined","Illinois","Peoria","Urban And Center City","CITY OFFICE BUILDING","No","Cadmium","","","","","","","","","","","","","",""
"17-161-0001","Cadmium Pm10 Lc","41.514478","-90.440409","EAST MOLINE","","COMMERCIAL","","","meanRos_ug_m3","No","Undetermined","Illinois","East Moline","Urban And Center City","","No","Cadmium","","","","","","","","","","","","","",""
"17-163-0010","Cadmium Pm10 Lc","38.612034","-90.160477","East St Louis","","INDUSTRIAL","","IEPA-RAPS TRAILER","meanRos_ug_m3","No","Undetermined","Illinois","East Saint Louis","Suburban","IEPA-RAPS TRAILER","No","Cadmium","","","","","","","","","","","","","",""
"18-089-0022","Cadmium Pm10 Lc","41.60668","-87.304729","Gary","","INDUSTRIAL","","UATMP: INDEM","meanRos_ug_m3","No","Undetermined","Indiana","Gary","Urban And Center City","Gary-IITRI/ 1219.5 meters east of Tennessee St.- old ammuntion bunker","No","Cadmium","","","","","","0.000436731516557343","","","","","","","",""
"18-089-0023","Cadmium Pm10 Lc","41.65274","-87.439551","East Chicago","","INDUSTRIAL","","East Chicago Water Flitration Plant","meanRos_ug_m3","No","No Trend","Indiana","East Chicago","Urban And Center City","SITE MOVED FROM EAST CHICAGO FIELD SCHOOL","No","Cadmium","0.000744296632548966","0.000956726427397333","0.000772190522806819","0.000886062007036038","","0.000678768835261847","","","","","","","",""
"18-097-0057","Cadmium Pm10 Lc","39.749019","-86.186314","INDIANAPOLIS","","RESIDENTIAL","","UATMP: ININ","meanRos_ug_m3","No","Undetermined","Indiana","Indianapolis (Remainder)","Urban And Center City","Indpls- Harding St.","No","Cadmium","","","","","0.000281749797960153","0.000238977056256918","","","","","","","",""
"18-097-0085","Cadmium Pm10 Lc","39.740383","-86.22595","INDIANAPOLIS","","MILITARY RESERVATION","","UATMP: IDIN","meanRos_ug_m3","No","Undetermined","Indiana","Indianapolis (Remainder)","Urban And Center City","Stout Field 2","No","Cadmium","","","","","0.000235745060178319","0.000213955613183329","","","","","","","",""
"20-029-0001","Cadmium Pm10 Lc","39.571669","-97.657261","CONCORDIA","","COMMERCIAL","","CONCORDIA","meanRos_ug_m3","No","Undetermined","Kansas","Concordia","Suburban","CONCORDIA","No","Cadmium","","","","","","","","","","","","","",""
"20-029-0002","Cadmium Pm10 Lc","39.569002","-97.660123","CONCORDIA","","COMMERCIAL","","CONCORDIA","meanRos_ug_m3","No","Undetermined","Kansas","Concordia","Suburban","POINT=CENTER OF MASS OF MANMADE MATERIALS AT SITE","No","Cadmium","","","","","","","","","","","","","",""
"20-057-0001","Cadmium Pm10 Lc","37.771964","-100.01819","DODGE CITY","","COMMERCIAL","","DODGE CITY","meanRos_ug_m3","No","Undetermined","Kansas","Dodge City","Suburban","DODGE CITY","No","Cadmium","","","","","","","","","","","","","",""
"20-071-0001","Cadmium Pm10 Lc","38.466127","-101.775729","TRIBUNE","","AGRICULTURAL","","POINT=CENTER OF MASS OF MAN-MADE MATERIALS AT SITE","meanRos_ug_m3","No","Undetermined","Kansas","Not in a city","Rural","POINT=CENTER OF MASS OF MAN-MADE MATERIALS AT SITE","No","Cadmium","","","","","","","","","","","","","",""
"20-091-0007","Cadmium Pm10 Lc","38.974457","-94.687013","OVERLAND PARK","","COMMERCIAL","","OVERLAND PARK","meanRos_ug_m3","No","Undetermined","Kansas","Overland Park","Urban And Center City","JUSTICE CENTER","No","Cadmium","","","","","","","","","","","","","",""
"20-091-2002","Cadmium Pm10 Lc","38.95695","-94.695237","OVERLAND PARK","","RESIDENTIAL","","OVERLAND PARK","meanRos_ug_m3","No","Undetermined","Kansas","Overland Park","Urban And Center City","OVERLAND PARK","No","Cadmium","","","","","","","","","","","","","",""
"20-093-0001","Cadmium Pm10 Lc","37.980689","-101.133168","DEERFIELD","","COMMERCIAL","","POINT=CENTER OF MANMADE MATERIALS AT SITE","meanRos_ug_m3","No","Undetermined","Kansas","Not in a city","Rural","POINT=CENTER OF MANMADE MATERIALS AT SITE","No","Cadmium","","","","","","","","","","","","","",""
"20-133-0002","Cadmium Pm10 Lc","37.676308","-95.474659","CHANUTE","","RESIDENTIAL","","CHANUTE","meanRos_ug_m3","No","Undetermined","Kansas","Chanute","Suburban","CHANUTE","No","Cadmium","","","","","","","","","","","","","",""
"20-145-0001","Cadmium Pm10 Lc","38.176264","-99.108408","LARNED","","RESIDENTIAL","","LARNED","meanRos_ug_m3","No","Undetermined","Kansas","Larned","Suburban","POINT=CENTER OF MASS OF MANMADE MATERIALS AT SITE","No","Cadmium","","","","","","","","","","","","","",""
"20-173-0007","Cadmium Pm10 Lc","37.708902","-97.375601","WICHITA","","COMMERCIAL","","UATMP: W2KS","meanRos_ug_m3","No","Undetermined","Kansas","Wichita","Suburban","13TH & ST PAUL","No","Cadmium","","","","","","","","","","","","","",""
"20-173-0008","Cadmium Pm10 Lc","37.659334","-97.297714","WICHITA","","COMMERCIAL","","WICHITA","meanRos_ug_m3","No","Undetermined","Kansas","Wichita","Suburban","WASH & SKINNER","No","Cadmium","","","","","","","","","","","","","",""
"20-173-0009","Cadmium Pm10 Lc","37.651114","-97.362212","WICHITA","","RESIDENTIAL","","PAWNEE & GLENN","meanRos_ug_m3","No","Undetermined","Kansas","Wichita","Suburban","PAWNEE & GLENN","No","Cadmium","","","","","","","","","","","","","",""
"20-173-1012","Cadmium Pm10 Lc","37.747085","-97.316912","WICHITA","","INDUSTRIAL","","WICHITA","meanRos_ug_m3","No","Undetermined","Kansas","Wichita","Suburban","HYDRAULIC","No","Cadmium","","","","","","","","","","","","","",""
"20-177-0007","Cadmium Pm10 Lc","39.074722","-95.660537","TOPEKA","","RESIDENTIAL","","TOPEKA","meanRos_ug_m3","No","Undetermined","Kansas","Topeka","Urban And Center City","TOPEKA","No","Cadmium","","","","","","","","","","","","","",""
"20-177-0009","Cadmium Pm10 Lc","39.01889","-95.743594","TOPEKA","","RESIDENTIAL","","TOPEKA","meanRos_ug_m3","No","Undetermined","Kansas","Topeka","Suburban","POINT=CENTER OF MASS OF MANMADE MATERIALS AT SITE","No","Cadmium","","","","","","","","","","","","","",""
"20-181-0001","Cadmium Pm10 Lc","39.348452","-101.713405","GOODLAND","","COMMERCIAL","","GOODLAND","meanRos_ug_m3","No","Undetermined","Kansas","Goodland","Urban And Center City","GOODLAND","No","Cadmium","","","","","","","","","","","","","",""
"20-209-0015","Cadmium Pm10 Lc","39.087949","-94.621453","KANSAS CITY","","INDUSTRIAL","","KANSAS CITY","meanRos_ug_m3","No","Undetermined","Kansas","Kansas City","Urban And Center City","420 KANSAS","No","Cadmium","","","","","","","","","","","","","",""
"20-209-0020","Cadmium Pm10 Lc","39.151393","-94.617734","KANSAS CITY","","INDUSTRIAL","","UATMP: KCKS","meanRos_ug_m3","No","Undetermined","Kansas","Kansas City","Urban And Center City","KINDELBERGER","No","Cadmium","","","","","","","","","","","","","",""
"21-019-0002","Cadmium Pm10 Lc","38.47676","-82.63137","ASHLAND","","INDUSTRIAL","","UATMP: ASKY-M","meanRos_ug_m3","No","Decreasing","Kentucky","Ashland","Urban And Center City","21ST & GREENUP","No","Cadmium","","","","0.000622271494667827","0.000810897468763172","0.0004926727978366","0.000427001689979951","0.000580464087247465","0.000517775152867211","0.000570699823404716","0.00040867508898114","0.000238154003209388","0.000324818676379186","0.000403684353349567"
"21-067-0012","Cadmium Pm10 Lc","38.06503","-84.49761","LEXINGTON-FAYETTE","","RESIDENTIAL","","UATMP: LEKY","meanRos_ug_m3","No","Undetermined","Kentucky","Lexington-Fayette (corporate name for Lexington)","Suburban","LEXINGTON PRIMARY","No","Cadmium","","","","","","","","","","9.84740980014521e-05","9.6489039853428e-05","7.63245212003762e-05","9.11043673325153e-05",""
"21-067-0014","Cadmium Pm10 Lc","38.038966","-84.507439","LEXINGTON-FAYETTE","","RESIDENTIAL","","","meanRos_ug_m3","No","Undetermined","Kentucky","Lexington-Fayette (corporate name for Lexington)","Urban And Center City","","No","Cadmium","","","","","","","","","9.22411651315455e-05","","","","",""
"21-101-0014","Cadmium Pm10 Lc","37.8712","-87.46375","NOT IN A CITY","","COMMERCIAL","","UATMP: BAKY","meanRos_ug_m3","No","Decreasing","Kentucky","Not in a city","Rural","BASKETT","No","Cadmium","","","","","","","","","","0.00013055810906816","0.000129329464261477","0.0001053304845264","0.000103010511373654","9.56843773981167e-05"
"21-139-0004","Cadmium Pm10 Lc","37.07151","-88.33389","NOT IN A CITY","","AGRICULTURAL","","UATMP: BLKY","meanRos_ug_m3","No","Undetermined","Kentucky","Smithland","Rural","BLOODWORTH","No","Cadmium","","","","","","","","","","","","","7.80227564736936e-05","7.55487532353761e-05"
"21-157-0018","Cadmium Pm10 Lc","37.02702","-88.34387","CALVERT CITY","","RESIDENTIAL","","UATMP: CCKY; CALVERT CITY ELEMENTARY","meanRos_ug_m3","No","Decreasing","Kentucky","Calvert City (RR name Calvert)","Suburban","CALVERT CITY ELEMENTARY","No","Cadmium","","","","0.000462917835529142","","","","","0.000105727138626022","0.000104151823780286","9.39558608698176e-05","7.97352214649713e-05","",""
"21-183-0032","Cadmium Pm10 Lc","37.319769","-86.956091","NOT IN A CITY","","AGRICULTURAL","","ECHOLS","meanRos_ug_m3","No","Undetermined","Kentucky","Not in a city","Rural","ECHOLS","No","Cadmium","","","","","","","","","","","","","",""
"26-005-0002","Cadmium Pm10 Lc","42.464197","-86.17003","SOUTH HAVEN","","AGRICULTURAL","","SOUTH HAVEN","meanRos_ug_m3","No","Undetermined","Michigan","South Haven","Rural","SOUTH HAVEN","No","Cadmium","","","","","","","","","","","","","",""
"26-031-0001","Cadmium Pm10 Lc","45.5589","-84.674765","PELLSTON","","FOREST","","PELLSTON","meanRos_ug_m3","No","Undetermined","Michigan","Pennellwood","Rural","PELLSTON","No","Cadmium","","","","","","","","","","","","","",""
"26-077-0905","Cadmium Pm10 Lc","42.278097","-85.541949","KALAMAZOO","","COMMERCIAL","","KALAMAZOO","meanRos_ug_m3","No","Undetermined","Michigan","Kalamazoo","Urban And Center City","KALAMAZOO","No","Cadmium","","","","","","","","","","","","","",""
"26-139-0009","Cadmium Pm10 Lc","42.790023","-86.114485","Holland","","COMMERCIAL","","100 FEET SOUTH OF 8TH STREET","meanRos_ug_m3","No","Undetermined","Michigan","Holland","Urban And Center City","100 FEET SOUTH OF 8TH STREET","No","Cadmium","","","","","","","","","","","","","",""
"26-151-0002","Cadmium Pm10 Lc","43.571687","-82.646873","DECKERVILLE","","AGRICULTURAL","","DECKERVILLE","meanRos_ug_m3","No","Undetermined","Michigan","Deckerville","Rural","DECKERVILLE","No","Cadmium","","","","","","","","","","","","","",""
"26-157-0001","Cadmium Pm10 Lc","43.368605","-83.569065","Vassar","","RESIDENTIAL","","","meanRos_ug_m3","No","Undetermined","Michigan","Vassar","Suburban","","No","Cadmium","","","","","","","","","","","0.000427570048770948","0.000105439258118045","",""
"26-161-8001","Cadmium Pm10 Lc","42.416979","-83.901889","DEXTER","","AGRICULTURAL","","DEXTER","meanRos_ug_m3","No","Undetermined","Michigan","Dexter","Rural","DEXTER","No","Cadmium","","","","","","","","","","","","","",""
"26-163-0001","Cadmium Pm10 Lc","42.22862","-83.2082","Allen Park","","COMMERCIAL","","UATMP: APMI; IMPROVE: DETR1; PILOT CITY: Allen Park","meanRos_ug_m3","No","No Trend","Michigan","Allen Park","Suburban","Allen Park","No","Cadmium","","","","","","","","0.000326779591802441","0.000202064590300951","0.000286102341191119","0.000400671020266174","0.000295579659985469","0.00033830435277465","0.000327932024442793"
"30-007-0011","Cadmium Pm10 Lc","46.30993","-111.673588","NOT IN A CITY","","FOREST","","","meanRos_ug_m3","No","Undetermined","Montana","Not in a city","Rural","","No","Cadmium","","","","","","","","","","","","","",""
"30-007-0015","Cadmium Pm10 Lc","46.31743","-111.681088","Townsend","","INDUSTRIAL","","DIAMOND HILL MINE DOWNWIND,INDIAN CRK RD;ACCESS RD 150 MTRS E","meanRos_ug_m3","No","Undetermined","Montana","Not in a city","Rural","DIAMOND HILL MINE DOWNWIND,INDIAN CRK RD;ACCESS RD 150 MTRS E","No","Cadmium","","","","","","","","","","","","","",""
"30-023-0010","Cadmium Pm10 Lc","46.131593","-112.940042","ANACONDA","","RESIDENTIAL","","ANACONDA-DEER LODGE COUNTY","meanRos_ug_m3","No","Undetermined","Montana","Anaconda-Deer Lodge County","Suburban","ANACONDA-DEER LODGE COUNTY","No","Cadmium","","","","","","","","","","","","","",""
"30-023-0011","Cadmium Pm10 Lc","46.120482","-112.912541","ANACONDA","","INDUSTRIAL","","ANACONDA-DEER LODGE COUNTY","meanRos_ug_m3","No","Undetermined","Montana","Anaconda-Deer Lodge County","Rural","ANACONDA-DEER LODGE COUNTY","No","Cadmium","","","","","","","","","","","","","",""
"30-023-0706","Cadmium Pm10 Lc","46.104093","-112.879484","ANACONDA","","FOREST","","ANACONDA-DEER LODGE COUNTY","meanRos_ug_m3","No","Undetermined","Montana","Anaconda-Deer Lodge County","Rural","ANACONDA-DEER LODGE COUNTY","No","Cadmium","","","","","","","","","","","","","",""
"30-023-0714","Cadmium Pm10 Lc","46.129093","-112.926986","ANACONDA","","COMMERCIAL","","","meanRos_ug_m3","No","Undetermined","Montana","Anaconda-Deer Lodge County","Suburban","","No","Cadmium","","","","","","","","","","","","","",""
"30-027-0004","Cadmium Pm10 Lc","47.286922","-109.461573","HILGER","","INDUSTRIAL","","CR KENDALL-N TOWNSITE #3, HILGER","meanRos_ug_m3","No","Undetermined","Montana","Not in a city","Rural","CR KENDALL-N TOWNSITE #3, HILGER","No","Cadmium","","","","","","","","","","","","","",""
"30-027-0005","Cadmium Pm10 Lc","47.273589","-109.456573","HILGER","","INDUSTRIAL","","CR KENDALL-BSA SITE #4, HILGER","meanRos_ug_m3","No","Undetermined","Montana","Not in a city","Rural","CR KENDALL-BSA SITE #4, HILGER","No","Cadmium","","","","","","","","","","","","","",""
"30-043-0011","Cadmium Pm10 Lc","45.888816","-112.014713","NOT IN A CITY","","INDUSTRIAL","","","meanRos_ug_m3","No","Undetermined","Montana","Not in a city","Rural","","No","Cadmium","","","","","","","","","","","","","",""
"30-043-0012","Cadmium Pm10 Lc","45.916594","-111.99249","NOT IN A CITY","","INDUSTRIAL","","","meanRos_ug_m3","No","Undetermined","Montana","Not in a city","Rural","","No","Cadmium","","","","","","","","","","","","","",""
"30-043-0024","Cadmium Pm10 Lc","46.191039","-111.961657","NOT IN A CITY","","FOREST","","","meanRos_ug_m3","No","Undetermined","Montana","Not in a city","Rural","","No","Cadmium","","","","","","","","","","","","","",""
"30-043-0025","Cadmium Pm10 Lc","46.272984","-111.947491","NOT IN A CITY","","FOREST","","","meanRos_ug_m3","No","Undetermined","Montana","Not in a city","Rural","","No","Cadmium","","","","","","","","","","","","","",""
"30-043-0026","Cadmium Pm10 Lc","46.286873","-111.953602","NOT IN A CITY","","FOREST","","","meanRos_ug_m3","No","Undetermined","Montana","Not in a city","Rural","","No","Cadmium","","","","","","","","","","","","","",""
"30-071-0002","Cadmium Pm10 Lc","47.898327","-108.624597","NOT IN A CITY","","RESIDENTIAL","","","meanRos_ug_m3","No","Undetermined","Montana","Not in a city","Rural","","No","Cadmium","","","","","","","","","","","","","",""
"30-071-0003","Cadmium Pm10 Lc","47.917217","-108.588762","NOT IN A CITY","","INDUSTRIAL","","","meanRos_ug_m3","No","Undetermined","Montana","Not in a city","Rural","","No","Cadmium","","","","","","","","","","","","","",""
"30-071-0007","Cadmium Pm10 Lc","47.883327","-108.625152","NOT IN A CITY","","AGRICULTURAL","","","meanRos_ug_m3","No","Undetermined","Montana","Not in a city","Rural","","No","Cadmium","","","","","","","","","","","","","",""
"30-071-0008","Cadmium Pm10 Lc","47.883607","-108.498201","Zortman","","AGRICULTURAL","","","meanRos_ug_m3","No","Undetermined","Montana","Not in a city","Rural","","No","Cadmium","","","","","","","","","","","","","",""
"30-095-0002","Cadmium Pm10 Lc","45.388274","-109.867678","NOT IN A CITY","","INDUSTRIAL","","","meanRos_ug_m3","No","Undetermined","Montana","Not in a city","Rural","","No","Cadmium","","","","","","","","","","","","","",""
"33-011-0020","Cadmium Pm10 Lc","42.995778","-71.462528","Manchester","","COMMERCIAL","","PEARL ST MUNICIPAL PARKING LOT","meanRos_ug_m3","No","Undetermined","New Hampshire","Manchester","Urban And Center City","PEARL ST MUNICIPAL PARKING LOT","No","Cadmium","0.00115859131027021","0.000441594417982368","","","","","","","","","","","",""
"33-013-1003","Cadmium Pm10 Lc","43.177304","-71.462014","Pembroke","","RESIDENTIAL","","","meanRos_ug_m3","No","Undetermined","New Hampshire","Pembroke","Rural","","No","Cadmium","0.00113060826773449","","","","","","","","","","","","",""
"33-013-1006","Cadmium Pm10 Lc","43.13246","-71.458246","Pembroke","","RESIDENTIAL","","PEMBROKE HIGHWAY DEPARTMENT","meanRos_ug_m3","No","Undetermined","New Hampshire","Suncook","Suburban","PEMBROKE HIGHWAY DEPARTMENT","No","Cadmium","0.00131596737672466","","","","","","","","","","","","",""
"33-015-0014","Cadmium Pm10 Lc","43.075371","-70.748017","Portsmouth","","RESIDENTIAL","","PORTSMOUTH - PEIRCE ISLAND","meanRos_ug_m3","No","Undetermined","New Hampshire","Portsmouth","Urban And Center City","PORTSMOUTH - PEIRCE ISLAND","No","Cadmium","0.00144778460671046","0.000461199523639266","","","","","","","","","","","",""
"33-019-0003","Cadmium Pm10 Lc","43.364518","-72.337867","Claremont","","RESIDENTIAL","","","meanRos_ug_m3","No","Undetermined","New Hampshire","Claremont","Urban And Center City","","No","Cadmium","0.0011682126765916","","","","","","","","","","","","",""
"36-061-0062","Cadmium Pm10 Lc","40.720622","-74.003674","New York City","","COMMERCIAL","","CANAL STREET","meanRos_ug_m3","No","Undetermined","New York","New York","Urban And Center City","CANAL STREET","No","Cadmium","","","","","","","","","","","","","",""
"36-063-2008","Cadmium Pm10 Lc","43.08218","-79.00106","Niagara Falls","","INDUSTRIAL","","NIAGARA FALLS","meanRos_ug_m3","No","Undetermined","New York","Niagara Falls","Suburban","NIAGARA FALLS","No","Cadmium","","","","","","","","","","","","","",""
"36-085-0106","Cadmium Pm10 Lc","40.57811","-74.1843","New York City","","INDUSTRIAL","","UNLOADING ZONE FRESHKILLLS LANDFILL","meanRos_ug_m3","No","Undetermined","New York","New York","Urban And Center City","UNLOADING ZONE FRESHKILLLS LANDFILL","No","Cadmium","0.00105295187216954","","","","","","","","","","","","",""
"36-085-0111","Cadmium Pm10 Lc","40.58027","-74.19832","New York City","","COMMERCIAL","","FRESHKILLS WEST","meanRos_ug_m3","No","Undetermined","New York","New York","Suburban","FRESHKILLS WEST","No","Cadmium","0.000902783730178739","","","","","","","","","","","","",""
"36-085-0131","Cadmium Pm10 Lc","40.58806","-74.16882","New York City","","INDUSTRIAL","","FRESHKILLS EAST","meanRos_ug_m3","No","Undetermined","New York","New York","Urban And Center City","FRESHKILLS EAST","No","Cadmium","0.00100587996379469","","","","","","","","","","","","",""
"36-085-0132","Cadmium Pm10 Lc","40.58056","-74.15178","New York City","","COMMERCIAL","","LATOURETTE GOLF COURSE","meanRos_ug_m3","No","Undetermined","New York","New York","Suburban","LATOURETTE GOLF COURSE","No","Cadmium","0.000950518772941433","","","","","","","","","","","","",""
"39-029-0020","Cadmium Pm10 Lc","40.639595","-80.524019","EAST LIVERPOOL","","INDUSTRIAL","","East Elementary (Water Plant)","meanRos_ug_m3","No","No Trend","Ohio","East Liverpool","Suburban","WATER PLANT","No","Cadmium","","","","","","","0.00076545","0.0006374","0.000516510101010101","0.000958108333333333","0.000753254237288136","0.00076525","0.000588999510270586","0.0004500392950052"
"41-009-0004","Cadmium Pm10 Lc","45.768531","-122.7721","NOT IN A CITY","","AGRICULTURAL","","SAUVIE ISLAND-SIS","meanRos_ug_m3","No","Undetermined","Oregon","Not in a city","Rural","SAUVIE ISLAND-SIS","No","Cadmium","","","","","0.0002066615050529","","","","","","","","",""
"41-029-0133","Cadmium Pm10 Lc","42.31411","-122.87923","MEDFORD","","RESIDENTIAL","","Medford - Grant & Belmont Sts. (MGB)","meanRos_ug_m3","No","Undetermined","Oregon","Medford","Urban And Center City","Medford - Grant & Belmont Sts. (MGB)","No","Cadmium","","","","","","8.48857291517733e-05","9.94966987348484e-05","7.33170135162938e-05","","","","","",""
"41-029-2129","Cadmium Pm10 Lc","42.33155","-122.880266","Medford","","RESIDENTIAL","","","meanRos_ug_m3","No","Undetermined","Oregon","Medford","Urban And Center City","","No","Cadmium","","","","","","","","","","0.000116898305084746","","","",""
"41-035-0004","Cadmium Pm10 Lc","42.190296","-121.731369","Klamath Falls","","RESIDENTIAL","","PETERSON ELEM","meanRos_ug_m3","No","Undetermined","Oregon","Altamont","Suburban","Klamath Falls - Peterson School","No","Cadmium","","","","","","","","","3.91227137098678e-05","","","","",""
"41-039-0060","Cadmium Pm10 Lc","44.026312","-123.083737","Eugene","","RESIDENTIAL","","Eugene - AMAZON PARK (EAP)","meanRos_ug_m3","No","No Trend","Oregon","Eugene","Urban And Center City","Eugene - AMAZON PARK (EAP)","No","Cadmium","","0.00012477525943524","0.000108092771534553","8.82933281368738e-05","","8.88794382180665e-05","","5.09401648780941e-05","","","","","",""
"41-039-0062","Cadmium Pm10 Lc","44.0729","-123.1615","EUGENE","","RESIDENTIAL","","","meanRos_ug_m3","No","Undetermined","Oregon","Eugene","Urban And Center City","","No","Cadmium","","","","","","","","7.7487664809473e-05","","","","","",""
"41-047-0041","Cadmium Pm10 Lc","44.943114","-123.005934","SALEM","","RESIDENTIAL","","Salem - State Hospital","meanRos_ug_m3","No","Undetermined","Oregon","Salem","Urban And Center City","Salem - State Hospital","No","Cadmium","","","","","","","0.00014663467979875","","","","","","",""
"41-051-0030","Cadmium Pm10 Lc","45.49742","-122.67467","PORTLAND","","RESIDENTIAL","","","meanRos_ug_m3","No","Undetermined","Oregon","Portland","Suburban","","No","Cadmium","","","0.000869039878269798","","","","","","","","","","",""
"41-051-0080","Cadmium Pm10 Lc","45.496641","-122.602877","Portland","","RESIDENTIAL","","Portland - SE Lafayette","meanRos_ug_m3","No","Undetermined","Oregon","Portland","Suburban","Portland - SE Lafayette","No","Cadmium","","0.000329786888417973","0.00051133815050617","","","","","","","","","","",""
"41-051-0100","Cadmium Pm10 Lc","45.49711","-122.64231","Portland","","","","Portland Powell and twenty second","meanRos_ug_m3","No","Undetermined","Oregon","Portland","Urban And Center City","Portland Powell and twenty second","No","Cadmium","","","","","","","","","","","","","","0.000309656126932664"
"41-051-0101","Cadmium Pm10 Lc","45.49395","-122.64282","Portland","","","","Portland Day Care","meanRos_ug_m3","No","Undetermined","Oregon","Portland","Urban And Center City","Portland Day Care","No","Cadmium","","","","","","","","","","","","","","0.000924789887026735"
"41-051-0244","Cadmium Pm10 Lc","45.535","-122.698889","Portland","","COMMERCIAL","","UATMP: PNW","meanRos_ug_m3","No","Undetermined","Oregon","Portland","Urban And Center City","SE CORNER OF P.O. PARKING LOT AND SW CORNER OF NEIGHBORING BUILDING","No","Cadmium","","0.00051368788206514","0.000636873564724239","","","","","","","","","","",""
"41-051-2001","Cadmium Pm10 Lc","45.577175","-122.71775","Portland","","RESIDENTIAL","","PNS","meanRos_ug_m3","No","Undetermined","Oregon","Portland","Urban And Center City","PNS","No","Cadmium","","","","","","","","","","","","","0.00024755",""
"41-051-2007","Cadmium Pm10 Lc","45.599907","-122.758362","Portland","","RESIDENTIAL","","Sitton Elementary","meanRos_ug_m3","No","Undetermined","Oregon","Portland","Urban And Center City","Sitton Elementary","No","Cadmium","","","","","","","","","","","","","0.00014385",""
"41-067-0004","Cadmium Pm10 Lc","45.528501","-122.972398","Hillsboro","","RESIDENTIAL","","Hillsboro - Hare Field","meanRos_ug_m3","No","Undetermined","Oregon","Hillsboro","Suburban","Hillsboro - Hare Field","No","Cadmium","","","","","","","","","","","0.000120417857142857","7.0672131147541e-05","",""
"41-067-0111","Cadmium Pm10 Lc","45.470191","-122.816411","BEAVERTON","","RESIDENTIAL","","Beaverton - Highland Park","meanRos_ug_m3","No","Undetermined","Oregon","Beaverton","Urban And Center City","Beaverton - Highland Park","No","Cadmium","","","0.000368227763070707","","","","","","","","","","",""
"44-007-0029","Cadmium Pm10 Lc","41.816535","-71.437401","PROVIDENCE","","RESIDENTIAL","","Bridgham School site","meanRos_ug_m3","No","Undetermined","Rhode Island","Providence","Urban And Center City","Bridgham School site","No","Cadmium","","","","","","","","","","","","","",""
"45-043-0001","Cadmium Pm10 Lc","33.377165","-79.289464","GEORGETOWN","","INDUSTRIAL","","GEORGETOWN","meanRos_ug_m3","No","Undetermined","South Carolina","Georgetown","Urban And Center City","GEORGETOWN COUNTY HEALTH DEPT","No","Cadmium","","","","","","","","","","","","","",""
"45-079-1003","Cadmium Pm10 Lc","34.024497","-81.036248","COLUMBIA","","COMMERCIAL","","DHEC","meanRos_ug_m3","No","Undetermined","South Carolina","Columbia","Urban And Center City","DHEC","No","Cadmium","","","","","","","","","","","","","",""
"48-139-0017","Cadmium Pm10 Lc","32.473611","-97.0425","Midlothian","","RESIDENTIAL","","WEST OF WARD & WYATT RD. INTERSECTION","meanRos_ug_m3","No","Undetermined","Texas","Midlothian","Rural","WEST OF WARD & WYATT RD. INTERSECTION","No","Cadmium","0.00101600835137257","","","","","","","","","","","","",""
"48-141-0041","Cadmium Pm10 Lc","31.760538","-106.500449","El Paso","","RESIDENTIAL","","NE OF LAWTON & W. MISSOURI INTERSECTION","meanRos_ug_m3","No","Undetermined","Texas","El Paso","Suburban","NE OF LAWTON & W. MISSOURI INTERSECTION","No","Cadmium","","","","","","","","","","","","","",""
"48-201-1035","Cadmium Pm10 Lc","29.733726","-95.257593","Houston","","INDUSTRIAL","","Clinton","meanRos_ug_m3","No","Decreasing","Texas","Houston","Urban And Center City","Clinton","No","Cadmium","0.00101692527169451","0.000944038585539516","","","","","","0.000273949149898261","0.000213405639460482","0.000161984827421172","0.000213562671746656","0.000143140767451059","0.000115397021314874","0.000115763544345947"
"53-011-0030","Cadmium Pm10 Lc","45.641683","-122.681233","VANCOUVER","","RESIDENTIAL","","","meanRos_ug_m3","No","Undetermined","Washington","Vancouver","Suburban","","No","Cadmium","","","0.000465125604495942","","","","","","","","","","",""
"53-063-0016","Cadmium Pm10 Lc","47.660743","-117.358121","SPOKANE","","COMMERCIAL","","SPOKANE - FERRY ST; CROWN ZELLERBACH","meanRos_ug_m3","No","Undetermined","Washington","Spokane","Suburban","SPOKANE - FERRY ST","No","Cadmium","","","0.000198434308245563","","","","","","","","","","",""
"53-063-0050","Cadmium Pm10 Lc","47.695447","-117.370303","SPOKANE","","COMMERCIAL","","SCHOOL DISTRICT 81","meanRos_ug_m3","No","Undetermined","Washington","Spokane","Urban And Center City","DISTRICT 81","No","Cadmium","","","0.000167233990162018","","","","","","","","","","",""
"53-063-0052","Cadmium Pm10 Lc","47.665122","-117.429093","SPOKANE","","COMMERCIAL","","HEALTH DISTRICT","meanRos_ug_m3","No","Undetermined","Washington","Spokane","Urban And Center City","HEALTH DISTRICT","No","Cadmium","","","0.000115420335660831","","","","","","","","","","",""
"53-063-0053","Cadmium Pm10 Lc","47.6822","-117.3048","SPOKANE","","RESIDENTIAL","","FELTS FIELD AIRPORT","meanRos_ug_m3","No","Undetermined","Washington","Not in a city","Urban And Center City","FELTS FIELD AIRPORT","No","Cadmium","","","0.000209101504036131","","","","","","","","","","",""
"55-079-0010","Cadmium Pm10 Lc","43.016667","-87.933333","MILWAUKEE","","COMMERCIAL","","HEALTH CENTER","meanRos_ug_m3","No","Decreasing","Wisconsin","Milwaukee","Urban And Center City","MILWAUKEE - SIXTEENTH ST. HEALTH CENTER","No","Cadmium","","","","","","0.000696582504734608","0.000232977862456861","0.000253095365634897","0.000230777804427422","","0.000128918431274423","0.000118009133528829","0.000160381459054926","0.000121689207559024"
"04-013-9997","Cadmium Pm10 Lc","33.503833","-112.095767","Phoenix","Phoenix, AZ","RESIDENTIAL","Urban","UATMP: PXSS; NATTS: Phoenix, AZ; IMPROVE: PHOE1","meanRos_ug_m3","No","Decreasing","Arizona","Phoenix","Urban And Center City","JLG SUPERSITE","Yes","Cadmium","","","","0.000133917061768346","0.000151829727342097","0.000136795263260824","0.000127143574478147","0.000101049306229068","0.000133840306671157","0.000130486690476421","0.000118508196721311","0.000106666666666667","0.000104542372881356","0.000114983606557377"
"06-037-1103","Cadmium Pm10 Lc","34.06659","-118.22688","Los Angeles","Los Angeles, CA","RESIDENTIAL","Urban","UATMP: CELA; NATTS: Los Angeles, CA; MATES: Central Los Angeles","meanRos_ug_m3","No","Decreasing","California","Los Angeles","Urban And Center City","Los Angeles-North Main Street","Yes","Cadmium","","","","","0.000518594107277519","","0.000178267553527042","0.000121441338835839","0.000297363843318131","0.000145666666666667","0.000135897009617553","0.000126141115845521","0.000109137931034483","0.000110916666666667"
"06-065-8001","Cadmium Pm10 Lc","33.99958","-117.41601","Rubidoux","Rubidoux, CA","RESIDENTIAL","Urban","UATMP: RUCA; NATTS: Rubidoux, CA; MATES: Rubidoux","meanRos_ug_m3","No","No Trend","California","Rubidoux","Suburban","Rubidoux","Yes","Cadmium","","","","","0.000306722835589848","8.97188737006599e-05","0.000151248290097722","8.80670115011096e-05","0.000165812356698867","0.000109589602376541","0.000111587264989381","7.21226323293642e-05","8.23148148148148e-05","9.20175438596491e-05"
"06-085-0005","Cadmium Pm10 Lc","37.348497","-121.894898","San Jose","San Jose, CA","COMMERCIAL","Urban","UATMP: SJCA; NATTS: San Jose, CA","meanRos_ug_m3","No","No Trend","California","San Jose","Urban And Center City","San Jose - Jackson","Yes","Cadmium","","","","","","8.42965851648866e-05","7.4965888523744e-05","6.0295554672458e-05","7.00983606557377e-05","4.91085225766161e-05","8.525e-05","4.47377049180328e-05","5.38474576271186e-05","5.77368421052632e-05"
"08-077-0017","Cadmium Pm10 Lc","39.063798","-108.561173","Grand Junction","Grand Junction, CO-17","COMMERCIAL","Urban","UATMP: GPCO; NATTS: Grand Junction, CO","meanRos_ug_m3","No","Decreasing","Colorado","Grand Junction","Urban And Center City","GRAND JUNCTION - POWELL BLDG","Yes","Cadmium","","","0.000142076915524086","0.000181544967751378","","","","0.00014972155411055","9.24398001920987e-05","6.40563424508956e-05","0.000105762711864407","7.08305084745763e-05","5.72368421052632e-05","5.63583333333333e-05"
"11-001-0043","Cadmium Pm10 Lc","38.921847","-77.013178","Washington","Washington, DC","COMMERCIAL","Urban","UATMP: WADC; NATTS: Washington, D.C.","meanRos_ug_m3","Yes","Decreasing","District Of Columbia","Washington","Urban And Center City","MCMILLAN  NCore-PAMS","Yes","Cadmium","","0.000278777588603293","0.00021198370855982","0.000222071966253246","0.000175520964423476","0.000397614920190813","0.000113765542384205","0.000111435255807419","8.4141211855098e-05","0.00012627817316464","0.000194335657216036","0.000131430928426994","0.000112229034332623","9.04115294226116e-05"
"12-057-3002","Cadmium Pm10 Lc","27.96565","-82.2304","Plant City","Tampa, FL","RESIDENTIAL","Urban","UATMP: SYFL; NATTS: Tampa, FL","meanRos_ug_m3","Yes","No Trend","Florida","Valrico","Rural","SYDNEY","Yes","Cadmium","","0.000189024460749406","0.000200285786106281","0.000233248084651135","0.000152435222746789","0.000146133604368447","0.000165988357087804","0.000170737704918033","0.000109027435690913","0.000122745194775952","0.000102241379310345","0.000126885245901639","0.000114908333333333","0.000210450819672131"
"12-103-0026","Cadmium Pm10 Lc","27.850348","-82.714465","Pinellas Park","Pinellas County, FL","RESIDENTIAL","Urban","UATMP: SKFL; NATTS: Pinellas County, FL","meanRos_ug_m3","Yes","Decreasing","Florida","Pinellas Park","Suburban","Skyview","Yes","Cadmium","","","0.000143990376265004","0.000171395843773245","0.000129261501494658","0.000115916059605709","0.000114617261756166","0.000108787805966852","8.46561708368813e-05","9.05569714174586e-05","6.17205083109526e-05","6.7353164216551e-05","6.1127821509692e-05","0.000142119687293902"
"13-089-0002","Cadmium Pm10 Lc","33.68808","-84.29018","Decatur","Atlanta, GA","RESIDENTIAL","Urban","UATMP: SDGA; NATTS: South DeKalb, GA; PAMS: South DeKalb; IMPROVE: ATLA1","meanRos_ug_m3","Yes","No Trend","Georgia","Not in a city","Suburban","South DeKalb","Yes","Cadmium","","7.26846448814639e-05","0.00011241788507395","0.000164524439755873","9.13521196214557e-05","7.00601115405389e-05","6.85527366083629e-05","9.28610697508543e-05","8.38748944160587e-05","8.00077287571061e-05","","0.00011824663037999","5.03773105992421e-05","8.81812397659235e-05"
"17-031-4201","Cadmium Pm10 Lc","42.139996","-87.799227","Northbrook","Chicago, IL","RESIDENTIAL","Urban","UATMP: NBIL; NATTS: Chicago, IL","meanRos_ug_m3","Yes","Decreasing","Illinois","Northbrook","Suburban","NORTHBROOK WATER PLANT","Yes","Cadmium","","","0.000195676944393301","0.000209638219149233","0.000217166090964799","0.000188688007641105","0.000147576713588591","0.000135152771673701","0.0001447456558554","0.000122620478422717","9.47483859236008e-05","0.000105352890590624","0.000110664482909443","0.000104722588760123"
"21-193-0003","Cadmium Pm10 Lc","37.28329","-83.20932","Hazard/Grayson, KY","Hazard/Grayson, KY","RESIDENTIAL","Rural","UATMP: HAKY; NATTS: Hazard, KY","meanRos_ug_m3","No","Decreasing","Kentucky","Hazard/Grayson, KY","Suburban","Hazard/Grayson, KY","Yes","Cadmium","0.000353418705496579","0.000328897758217563","0.000791527058469272","","0.000281234352369079","","","","6.92812561732761e-05","0.000120996099383916","0.000128460729623866","7.99253269702864e-05","0.000101150724344291","7.15294453030328e-05"
"25-025-0042","Cadmium Pm10 Lc","42.3295","-71.0826","Boston","Roxbury, MA","COMMERCIAL","Urban","UATMP: BOMA; NATTS: Roxbury, MA","meanRos_ug_m3","Yes","Decreasing","Massachusetts","Boston","Urban And Center City","DUDLEY SQUARE ROXBURY","Yes","Cadmium","","","0.000507251736748285","0.000258397135242018","0.000153219742337607","0.000233373776000582","0.000266486912875596","0.000198846507349412","0.000136161120869066","0.000150299557786414","8.84426229508197e-05","8.11206896551724e-05","8.64e-05","0.000241991379310345"
"26-163-0033","Cadmium Pm10 Lc","42.306674","-83.148754","Dearborn","Detroit, MI","INDUSTRIAL","Urban","UATMP: DEMI; NATTS: Detroit, MI; PILOT CITY: Dearborn","meanRos_ug_m3","Yes","Decreasing","Michigan","Dearborn","Suburban","PROPERTY OWNED BY DEARBORN PUBLIC SCHOOLS","Yes","Cadmium","0.00101071897106535","0.000991536638792234","0.000762143083028532","0.000599419673838963","0.000554029717111755","0.000444890939328905","0.000330298046861335","0.000417662580020243","0.000391327864038227","0.0003295327763134","0.000284002978447708","0.00024009285994397","0.000296828152373838","0.000338615853778066"
"29-510-0085","Cadmium Pm10 Lc","38.656429","-90.198348","SAINT LOUIS","St. Louis, MO","RESIDENTIAL","Urban","UATMP: S4MO; NATTS: St. Louis, MO","meanRos_ug_m3","Yes","Decreasing","Missouri","St. Louis","Urban And Center City","Blair Street","Yes","Cadmium","","0.00117096461918757","0.000955356330503332","0.000663560845029245","0.000736629795322805","0.000770125666716238","0.0010254042470883","0.000636435956958132","0.000562393339739316","0.000573196721311475","0.000562868852459016","0.000333606557377049","0.000208191666666667","0.000146581967213115"
"36-005-0110","Cadmium Pm10 Lc","40.816","-73.902","Bronx, NY","Bronx, NY","RESIDENTIAL","Urban","UATMP: BXNY; NATTS: Bronx (#1), NY; PM Supersite: Bronx; IMPROVE: NEYO1","meanRos_ug_m3","No","Decreasing","New York","Bronx, NY","Urban And Center City","Bronx, NY","Yes","Cadmium","","","","","0.000127112711864407","0.000138128333333333","0.000120549016393443","","8.17616379310345e-05","","9.11860655737705e-05","8.10798387096774e-05","7.85875516666667e-05","8.126171875e-05"
"36-055-1007","Cadmium Pm10 Lc","43.14618","-77.54817","Rochester","Rochester, NY","RESIDENTIAL","Urban","UATMP: ROCH; NATTS: Rochester, NY; NADP: NY43","meanRos_ug_m3","No","Decreasing","New York","Rochester","Urban And Center City","ROCHESTER 2","Yes","Cadmium","","","","","0.000117961224489796","0.000110678431372549","8.11910526315789e-05","8.89729310344828e-05","7.04462962962963e-05","8.07310416666667e-05","7.83178571428571e-05","5.13550847457627e-05","7.463473625e-05","7.44888888888889e-05"
"41-051-0246","Cadmium Pm10 Lc","45.56137","-122.6679","Portland","Portland, OR","RESIDENTIAL","Urban","UATMP: PLOR; NATTS: Portland, OR","meanRos_ug_m3","Yes","Decreasing","Oregon","Portland","Urban And Center City","WEST END OF ATHLETIC FIELD WITH N EMERSON N, N ROSELAWN S, N WILLIAM","Yes","Cadmium","","0.00159149458986146","0.00258105906504433","0.00202004084613498","0.00146491865591133","0.00123948320685974","0.00147455987121113","0.000766414782017902","0.00122124837939549","0.00135787931034483","0.000972241935483871","0.000437595945010675","0.000442686440677966",""
"41-061-0119","Cadmium Pm10 Lc","45.339","-118.095206","La Grande","La Grande, OR","RESIDENTIAL","Rural","UATMP: LAOR; NATTS: La Grande, OR","meanRos_ug_m3","Yes","Decreasing","Oregon","La Grande","Urban And Center City","LA GRANDE ASH STREET","Yes","Cadmium","","0.000213433162225585","5.90756638413507e-05","5.5292772350338e-05","5.30538288390317e-05","4.99294805187468e-05","6.01587454715794e-05","3.20723394402725e-05","3.83783714417856e-05","4.24137931034483e-05","4.58115529286891e-05","3.37957479439046e-05","3.43166666666667e-05","2.72166666666667e-05"
"44-007-0022","Cadmium Pm10 Lc","41.807776","-71.415105","Providence","Providence, RI","RESIDENTIAL","Urban","UATMP: PRRI; NATTS: Providence, RI; PILOT CITY: Urban League","meanRos_ug_m3","No","No Trend","Rhode Island","Providence","Urban And Center City","Urban League BUILDING ROOFTOP","Yes","Cadmium","","","","","","9.49503114996115e-05","3.46601151959089e-05","2.45528847790171e-05","1.88292390618987e-05","8.41793635291436e-05","5.58058903303755e-05","6.30407425952712e-05","6.03220622652984e-05","6.27403018270249e-05"
"45-025-0001","Cadmium Pm10 Lc","34.615367","-80.198789","MCBEE","Chesterfield, SC","FOREST","Rural","UATMP: CHSC; NATTS: Chesterfield, SC","meanRos_ug_m3","Yes","No Trend","South Carolina","Not in a city","Rural","CHESTERFIELD","Yes","Cadmium","","9.14164619732953e-05","0.000262605175220334","0.000203433097208517","0.000122052349812078","0.000117953511474286","7.97360505151023e-05","0.000134666313467697","0.000147433333333333","0.000137698275862069","0.000161652542132947","0.0003134375","0.000238692615827695","0.00012005375721797"
"48-201-1039","Cadmium Pm10 Lc","29.670025","-95.128508","Deer Park","Houston, TX","RESIDENTIAL","Urban","UATMP: CAMS 35; NATTS: Houston, TX; IMPROVE: HOUS1","meanRos_ug_m3","No","Decreasing","Texas","Deer Park","Urban And Center City","Houston Deer Park #2","Yes","Cadmium","0.00103132077096511","0.000935566306209962","","","","","","7.3144057193708e-05","6.48193818279091e-05","5.71872108808403e-05","2.54688344729091e-05","3.01271719223019e-05","3.19759780846025e-05","1.92787162836059e-05"
"48-203-0002","Cadmium Pm10 Lc","32.668987","-94.167457","Not In A City","Karnack, TX","AGRICULTURAL","Rural","UATMP: CAMS 85; NATTS: Karnack, TX","meanRos_ug_m3","No","No Trend","Texas","Not in a city","Rural","Karnack","Yes","Cadmium","","","","","","","","7.90397355627707e-05","6.49916862185074e-05","4.22175166318476e-05","","2.02686270448373e-05","5.37208463288969e-05","3.36115584943838e-05"
"49-011-0004","Cadmium Pm10 Lc","40.902967","-111.884467","Bountiful","Bountiful, UT","RESIDENTIAL","Urban","UATMP: BTUT; NATTS: Bountiful, UT","meanRos_ug_m3","Yes","No Trend","Utah","Bountiful","Suburban","Bountiful Viewmont","Yes","Cadmium","","0.000126631155263347","0.000151031275468685","0.000712297732638559","0.000251892697071946","0.000181332570248526","0.000106218395185473","9.25745150456551e-05","0.000130162864602912","8.34435684553098e-05","0.000138332971288546","0.000118036350742714","0.000115162346566027","0.000166588040930459"
"50-007-0007","Cadmium Pm10 Lc","44.52839","-72.86884","Underhill","Underhill, VT","FOREST","Rural","UATMP: UNVT; NATTS: Underhill, VT; IMPROVE:PMRF1; NADP: VT99","meanRos_ug_m3","Yes","Decreasing","Vermont","Underhill (Town of)","Rural","PROCTOR MAPLE RESEARCH CTR","Yes","Cadmium","","0.000121948275862069","9.53050847457627e-05","7.60344827586207e-05","6.22592592592593e-05","6.53559322033898e-05","6.11e-05","5.61475409836066e-05","6.59649122807018e-05","5.64508196721312e-05","5.22881355932203e-05","4.28032786885246e-05","8.00833333333333e-05","4.72950819672131e-05"
"51-087-0014","Cadmium Pm10 Lc","37.55652","-77.40027","NOT IN A CITY","Richmond, VA","RESIDENTIAL","Urban","UATMP: RIVA; NATTS: Richmond, VA","meanRos_ug_m3","No","Decreasing","Virginia","East Highland Park","Suburban","MathScience Innovation Center","Yes","Cadmium","","","","","","","0.000199933333333333","0.000190688524590164","0.000134726101694915","0.0001517","0.000139883333333333","0.000106932161474806","9.42216928318015e-05","8.01661016949153e-05"
"53-033-0080","Cadmium Pm10 Lc","47.568236","-122.308628","Seattle","Seattle, WA","RESIDENTIAL","Urban","UATMP: SEWA; NATTS: Seattle, WA; IMPROVE: PUSO1; PILOT CITY: Beacon Hill","meanRos_ug_m3","Yes","No Trend","Washington","Seattle","Urban And Center City","SEATTLE - BEACON HILL","Yes","Cadmium","0.000111895266236905","0.000158322549916365","0.000188205280705893","","0.000128713371062115","0.000129905347847477","0.000107324695413745","9.09747797081836e-05","0.000103976011923113","9.26282196592501e-05","0.00217583333333333","0.001286","0.00013951724137931","7.6448275862069e-05"
"55-027-0001","Cadmium Pm10 Lc","43.466111","-88.621111","Mayville/Horicon, WI","Mayville/Horicon, WI","AGRICULTURAL","Rural","UATMP: HOWI; NATTS: Horicon, Wi; Horicon Wildlife Area; NADP: WI07","meanRos_ug_m3","Yes","Decreasing","Wisconsin","Mayville/Horicon, WI","Rural","Mayville/Horicon, WI","Yes","Cadmium","","","0.000192567479796903","0.000171660484130884","0.000143615083296704","0.000219869113148212","0.000225884503869714","0.000101958189834642","9.3182188739221e-05","8.22305359507695e-05","8.73190711988679e-05","7.7957177068377e-05","7.47851082679126e-05","8.42961609713952e-05"
