"site_id","parameter_desc","latitude","longitude","city_name","location","land_use_type","setting","site_name","stat","used_in_nat_agg","trend","state_name","city_name","location_setting","local_site_name","natts","toxic_name_alias","2003","2004","2005","2006","2007","2008","2009","2010","2011","2012","2013","2014","2015","2016"
"04-013-4003","Formaldehyde","33.40316","-112.07533","Phoenix","","RESIDENTIAL","","UATMP: SPAZ","meanRos_ug_m3","No","Undetermined","Arizona","Phoenix","Urban And Center City","SOUTH PHOENIX","No","Formaldehyde","4.06954885639705","3.58672503120816","3.88614442304763","","","","","","","","","","",""
"05-119-0007","Formaldehyde","34.756189","-92.281296","NORTH LITTLE ROCK","","COMMERCIAL","","UATMP: PARR","meanRos_ug_m3","No","Undetermined","Arkansas","North Little Rock","Urban And Center City","PARR","No","Formaldehyde","","","","","","","","","","","","","",""
"06-001-1001","Formaldehyde","37.535833","-121.961823","Fremont","","RESIDENTIAL","","Fremont - Chapel Way","meanRos_ug_m3","No","No Trend","California","Fremont","Suburban","Fremont - Chapel Way","No","Formaldehyde","2.71837348208216","1.88399192817739","1.56976488615611","1.90169206385376","1.73809403148448","1.71908571418912","1.64397125334153","","","","","","",""
"06-001-2004","Formaldehyde","37.877794","-122.30129","Berkeley","","COMMERCIAL","","Berkeley 6th and Camelia","meanRos_ug_m3","No","Undetermined","California","Berkeley","Urban And Center City","Berkeley","No","Formaldehyde","","","","","","1.6202031220497","1.51383331395429","1.42685497823187","","","","","",""
"06-007-0002","Formaldehyde","39.757371","-121.843286","Chico","","COMMERCIAL","","468 MANZANITA AVE, CHICO","meanRos_ug_m3","No","Decreasing","California","Not in a city","Suburban","Chico-Manzanita Ave.","No","Formaldehyde","4.75450774090525","4.16649724644666","4.07743497876855","3.23041085059536","3.61962487339122","3.76397489948776","3.09106424577967","3.19217687069321","3.73196190434792","","","","",""
"06-007-0008","Formaldehyde","39.761538","-121.84162","Chico","","COMMERCIAL","","Chico - East Avenue","meanRos_ug_m3","No","Undetermined","California","Chico","Suburban","Chico-East Avenue","No","Formaldehyde","","","","","","","","","","","3.78343504277552","3.50702152781186","3.80574464353479","3.58964483585305"
"06-013-0002","Formaldehyde","37.936013","-122.026154","CONCORD","","RESIDENTIAL","","Concord","meanRos_ug_m3","No","Undetermined","California","Concord","Suburban","Concord","No","Formaldehyde","","","","","","","","","","","","","",""
"06-013-0003","Formaldehyde","37.949924","-122.357193","RICHMOND","","COMMERCIAL","","Richmond-13th St.","meanRos_ug_m3","No","Undetermined","California","Richmond","Suburban","Richmond-13th St.","No","Formaldehyde","","","","","","","","","","","","","",""
"06-013-1003","Formaldehyde","37.9642","-122.3403","SAN PABLO","","COMMERCIAL","","San Pablo - El Portal Center","meanRos_ug_m3","No","Undetermined","California","San Pablo","Urban And Center City","San Pablo - El Portal Center","No","Formaldehyde","","","","","","","","","","","","","",""
"06-019-0008","Formaldehyde","36.781333","-119.77319","Fresno","","RESIDENTIAL","","PM Supersite: Fresno","meanRos_ug_m3","No","No Trend","California","Fresno","Suburban","3425 N FIRST ST, FRESNO","No","Formaldehyde","4.77564346397585","3.16515572349209","3.68759275867577","4.1824565308383","3.68577260582577","3.80622489146399","3.07944468064533","3.75935445838806","4.13239582015468","","","","",""
"06-019-0011","Formaldehyde","36.785322","-119.774174","Fresno","","COMMERCIAL","","Fresno - Garland","meanRos_ug_m3","No","No Trend","California","Fresno","Urban And Center City","Fresno - Garland","No","Formaldehyde","","","","","","","","","","4.20729999964805","4.74298057410303","4.38932455133849","4.47370751693445","4.23927942283482"
"06-019-3002","Formaldehyde","36.607171","-119.540683","PARLIER","","AGRICULTURAL","","PARLIER","meanRos_ug_m3","No","Undetermined","California","Parlier","Urban And Center City","PARLIER","No","Formaldehyde","","","","3.39656085657864","","","","","","","","","",""
"06-025-0005","Formaldehyde","32.676186","-115.484144","Calexico","","RESIDENTIAL","","CALEXICO HIGH SCHOOL  ARB (#1300698)","meanRos_ug_m3","Yes","No Trend","California","Calexico","Suburban","Calexico-Ethel Street","No","Formaldehyde","4.39697195189269","3.36576175890858","4.23547757726745","3.70953470420675","3.9759482761188","2.99230745833437","3.50821492314321","5.7808907944779","4.54147248281798","4.00616429611899","3.63849011084955","3.37990610716072","3.85509340133874","4.48570575225787"
"06-029-0004","Formaldehyde","35.374959","-119.022602","BAKERSFIELD","","RESIDENTIAL","","Bakersfield-Chester Ave.","meanRos_ug_m3","No","Undetermined","California","Bakersfield","Urban And Center City","Bakersfield-Chester Ave.","No","Formaldehyde","","","","","","","","","","","","","",""
"06-029-0009","Formaldehyde","35.36107","-119.060103","BAKERSFIELD","","COMMERCIAL","","BAKERSFIELD","meanRos_ug_m3","No","Undetermined","California","Bakersfield","Urban And Center City","BAKERSFIELD","No","Formaldehyde","","","","","","","","","","","","","",""
"06-029-0014","Formaldehyde","35.356601","-119.063542","Bakersfield","","MOBILE","","Bakersfield-California Avenue","meanRos_ug_m3","Yes","No Trend","California","Bakersfield","Urban And Center City","Bakersfield-California","No","Formaldehyde","3.99126804998349","2.8493004447814","3.33792821747859","3.38979760557861","3.16820653937582","3.15445499822553","3.272774350896","3.52039005945973","3.25483893308512","3.38085191223955","3.67949553930373","","4.05820872232469","4.99675808163097"
"06-037-0002","Formaldehyde","34.1365","-117.92391","Azusa","","RESIDENTIAL","","Azusa","meanRos_ug_m3","Yes","No Trend","California","Azusa","Suburban","Azusa","No","Formaldehyde","4.25196770590782","3.74000995127033","4.30330488279055","","3.64183240555816","3.66469202646104","3.85372641951521","3.13820163804422","3.91844286903611","4.08845176952158","3.86424836799039","4.29535126969127","4.46533155285219","5.07318041002394"
"06-037-1002","Formaldehyde","34.17605","-118.31712","BURBANK","","COMMERCIAL","","MATES: Burbank","meanRos_ug_m3","No","No Trend","California","Burbank","Urban And Center City","Burbank","No","Formaldehyde","6.84252493729525","5.08780998127763","4.7510418334175","6.97734132014648","15.202965371635","13.6944719157408","9.68269499892233","4.63405472651502","5.20736283352","","3.93669702877523","","",""
"06-037-1302","Formaldehyde","33.901389","-118.205","COMPTON","","RESIDENTIAL","","MATES: Compton","meanRos_ug_m3","No","Undetermined","California","Compton","Urban And Center City","Compton","No","Formaldehyde","","4.15919347801417","3.95076120889629","","","","","","","","","","",""
"06-037-1601","Formaldehyde","34.01407","-118.06056","Pico Rivera","","COMMERCIAL","","MATES: Pico Rivera","meanRos_ug_m3","No","Undetermined","California","Pico Rivera","Suburban","MATES: Pico Rivera","No","Formaldehyde","","4.73562404341105","","","","","","","","","","","",""
"06-037-1602","Formaldehyde","34.01194","-118.06995","PICO RIVERA","","COMMERCIAL","","Pico Rivera #2","meanRos_ug_m3","No","No Trend","California","Pico Rivera","Suburban","Pico Rivera #2","No","Formaldehyde","","","","6.39176748601602","6.09434549041142","5.91921434108683","10.1061450193156","10.1847399637583","4.43553781868999","","","3.95311421155015","",""
"06-037-4002","Formaldehyde","33.82376","-118.18921","Long Beach","","RESIDENTIAL","","UATMP: LBHCA; MATES: North Long Beach","meanRos_ug_m3","No","Decreasing","California","Long Beach","Suburban","Long Beach (North)","No","Formaldehyde","3.53807176862316","4.57745671937277","4.28211964405986","4.23171105034117","3.23286584959164","2.97702478625749","2.71983885375382","","","2.53891242278132","2.45166291585292","","",""
"06-037-6012","Formaldehyde","34.38344","-118.5284","Santa Clarita","","COMMERCIAL","","Santa Clarita","meanRos_ug_m3","Yes","Decreasing","California","Santa Clarita","Suburban","Santa Clarita","No","Formaldehyde","7.78980920639456","6.55965993938844","6.5613505427318","6.3451300971146","10.8676474347576","6.77369738880941","4.88138603019816","4.67107859730587","5.44694122414604","5.38844557690417","","4.16822747560536","",""
"06-037-LWLB","Formaldehyde","33.79242","-118.2159","Long Beach","","","","MATES: West Long Beach","meanRos_ug_m3","No","Undetermined","California","Long Beach","","MATES: West Long Beach","No","Formaldehyde","","4.09819900910523","4.20817406155813","","","","","","","","","","",""
"06-059-0001","Formaldehyde","33.821353","-117.91427","Anaheim","","RESIDENTIAL","","MATES: Anaheim","meanRos_ug_m3","No","Undetermined","California","Anaheim","Suburban","Anaheim (1010 Harbor Blvd)","No","Formaldehyde","","3.6101185466842","3.70902427461925","","","","","","","","","","",""
"06-061-0006","Formaldehyde","38.745726","-121.266312","Roseville","","MOBILE","","Roseville-N Sunrise Blvd","meanRos_ug_m3","Yes","No Trend","California","Roseville","Suburban","Roseville-N Sunrise Ave","No","Formaldehyde","4.04935105389875","2.77258346518357","2.50677480593783","2.98353413192026","3.22218798043053","2.73638924659152","2.83557340544339","2.95671119984886","2.24421020908333","3.22283359008463","3.52944702890151","3.16576609547279","3.66989710774039","3.56458715440893"
"06-065-0012","Formaldehyde","33.92086","-116.85841","Banning","","COMMERCIAL","","Banning Airport","meanRos_ug_m3","No","No Trend","California","Banning","Suburban","Banning Airport","No","Formaldehyde","7.62765111031322","4.59952378729823","5.10287491955415","5.55363415703926","6.32581514623865","6.51398552951887","","","","","","","",""
"06-071-1004","Formaldehyde","34.10374","-117.62914","Upland","","RESIDENTIAL","","Upland","meanRos_ug_m3","No","Undetermined","California","Upland","Urban And Center City","Upland","No","Formaldehyde","","","","","","","","","","","","","",""
"06-071-2002","Formaldehyde","34.10002","-117.49201","Fontana","","INDUSTRIAL","","MATES: Inland Valley San Bernardino","meanRos_ug_m3","No","Undetermined","California","Fontana","Suburban","Fontana","No","Formaldehyde","","4.56650244103955","4.54485756785413","","","","","","","","","","",""
"06-073-0001","Formaldehyde","32.631231","-117.059075","Chula Vista","","RESIDENTIAL","","Chula Vista","meanRos_ug_m3","Yes","No Trend","California","Chula Vista","Suburban","Chula Vista","No","Formaldehyde","2.88187771587485","2.43449971999779","2.613593416293","2.36192452952597","2.28204965652385","2.35201776681731","2.17885410077271","1.9194746727311","2.25462334842109","2.44196844649354","2.07224291235637","2.26836228617945","2.58125592182829","3.01174737428012"
"06-073-0003","Formaldehyde","32.791194","-116.942092","El Cajon","","COMMERCIAL","","El Cajon","meanRos_ug_m3","No","No Trend","California","El Cajon","Suburban","El Cajon","No","Formaldehyde","3.85201866483374","3.4340848484954","3.24249594995455","3.83099724592469","3.56903490149823","3.308954946197","3.17689449780999","3.14833537445942","3.33953410828179","3.50862450289854","3.21318040213973","","",""
"06-073-0006","Formaldehyde","32.836461","-117.128752","San Diego","","COMMERCIAL","","Kearny Mesa","meanRos_ug_m3","No","No Trend","California","San Diego","Suburban","Kearny Mesa","No","Formaldehyde","3.33332905093977","2.685093247347","2.78224208304302","3.69184522531635","3.48404549167339","3.05312272749014","2.87111733038316","3.11498948294565","2.47820012398462","","","","",""
"06-073-1010","Formaldehyde","32.701492","-117.149653","SAN DIEGO","","COMMERCIAL","","Downtown","meanRos_ug_m3","No","Undetermined","California","San Diego","Urban And Center City","San Diego - Beardsley Street","No","Formaldehyde","","","","","","","","","","","2.49584888438174","","3.08624374162181",""
"06-073-1018","Formaldehyde","32.817978","-116.968133","El Cajon","","COMMERCIAL","","El Cajon - Floyd Smith Drive","meanRos_ug_m3","No","Undetermined","California","El Cajon","Suburban","El Cajon - Floyd Smith Dr.","No","Formaldehyde","","","","","","","","","","","","","3.55974779191599",""
"06-075-0005","Formaldehyde","37.765946","-122.399044","San Francisco","","INDUSTRIAL","","San Francisco - Arkansas St.","meanRos_ug_m3","Yes","No Trend","California","San Francisco","Urban And Center City","San Francisco","No","Formaldehyde","2.08529487807693","1.90290365667777","1.35120051275187","1.74120607821259","1.57116622071444","1.27220749190281","1.38782762813123","1.60488331669617","1.60897740678978","1.24869747855186","1.70763177130361","1.58031877613449","1.80549373128319","1.87099917278099"
"06-077-1002","Formaldehyde","37.950741","-121.268523","Stockton","","RESIDENTIAL","","HAZELTON-HD, STOCKTON","meanRos_ug_m3","Yes","Increasing","California","Stockton","Urban And Center City","Stockton-Hazelton","No","Formaldehyde","2.55387716891351","2.29161516547946","2.26535263559232","2.58621410434291","2.78034363156863","2.47859763825521","2.4681019563557","2.48555887925397","2.66457827402273","2.5956603956039","3.01776368143543","2.89890271103361","3.16734750981281","3.06242145647307"
"06-083-0010","Formaldehyde","34.421386","-119.702079","SANTA BARBARA","","MOBILE","","Santa Barbara-W. Carrillo St.","meanRos_ug_m3","No","Undetermined","California","Santa Barbara","Urban And Center City","Santa Barbara-W. Carrillo St.","No","Formaldehyde","","","","","","","","","","","","","",""
"06-085-0004","Formaldehyde","37.339666","-121.888575","San Jose","","RESIDENTIAL","","San Jose - 4th St.","meanRos_ug_m3","No","Undetermined","California","San Jose","Urban And Center City","San Jose - 4th St.","No","Formaldehyde","","","","","","","","","","","","","",""
"06-085-2009","Formaldehyde","37.318435","-122.069705","CUPERTINO","","RESIDENTIAL","","Cupertino Monta Vista","meanRos_ug_m3","No","Undetermined","California","Cupertino","Suburban","Cupertino Monta Vista","No","Formaldehyde","","","","","","","","","1.75907138601848","1.67526520302199","2.02465853550807","","",""
"06-095-0006","Formaldehyde","38.0656","-122.1507","Benicia","","RESIDENTIAL","","Benicia - VIP","meanRos_ug_m3","No","Undetermined","California","Benicia","Suburban","Benicia - VIP","No","Formaldehyde","","","","","","1.31104550672288","","","","","","","",""
"06-099-0002","Formaldehyde","37.648819","-120.997712","MODESTO","","RESIDENTIAL","","Modesto-Courthouse","meanRos_ug_m3","No","Undetermined","California","Modesto","Urban And Center City","Modesto-Courthouse","No","Formaldehyde","","","","","","","","","","","","","",""
"06-099-0005","Formaldehyde","37.641583","-120.994622","MODESTO","","COMMERCIAL","","Modesto-14th Street","meanRos_ug_m3","No","Undetermined","California","Modesto","Urban And Center City","Modesto-14th Street","No","Formaldehyde","","","","","","","","","","","","","",""
"06-111-2002","Formaldehyde","34.276362","-118.683757","Simi Valley","","RESIDENTIAL","","SIMI VALLEY","meanRos_ug_m3","Yes","No Trend","California","Simi Valley","Suburban","Simi Valley-Cochran Street","No","Formaldehyde","3.15867580232401","2.81533481377499","2.85413759660536","2.47394438940439","2.73074873372515","2.76986364350256","2.61801967635201","2.87170253410406","2.49290536441891","2.9852869966517","2.95316366189976","2.80053188297935","3.15140903437626","3.72533733738383"
"08-013-7001","Formaldehyde","40.013783","-105.25405","Boulder","","COMMERCIAL","","Boulder Fire Station","meanRos_ug_m3","No","Undetermined","Colorado","Boulder","Rural","Boulder Fire Station","No","Formaldehyde","","","","","2.44671712737199","","","","","","","","",""
"08-013-7002","Formaldehyde","40.1489","-105.059233","NOT IN A CITY","","RESIDENTIAL","","Longmont","meanRos_ug_m3","No","Undetermined","Colorado","Not in a city","Suburban","Longmont","No","Formaldehyde","","","","","2.06897577334077","","","","","","","","",""
"08-013-7003","Formaldehyde","40.204183","-105.248233","NOT IN A CITY","","RESIDENTIAL","","Lyons","meanRos_ug_m3","No","Undetermined","Colorado","Not in a city","Suburban","Lyons","No","Formaldehyde","","","","","2.18357405123246","","","","","","","","",""
"08-013-7005","Formaldehyde","39.9572","-105.23847","NOT IN A CITY","","AGRICULTURAL","","ALONG SOUTH BOULDER CREEK NEXT TO LAFAYETTE WATER TREATMENT PLANT","meanRos_ug_m3","No","Undetermined","Colorado","Not in a city","Rural","ALONG SOUTH BOULDER CREEK NEXT TO LAFAYETTE WATER TREATMENT PLANT","No","Formaldehyde","","","","","1.85527043360282","","","","","","","","",""
"08-031-0002","Formaldehyde","39.751184","-104.987625","Denver","","COMMERCIAL","","UATMP: DECO","meanRos_ug_m3","No","Undetermined","Colorado","Denver","Urban And Center City","DENVER - CAMP","No","Formaldehyde","","","","","","","","","","","","","",""
"08-045-0005","Formaldehyde","39.453654","-108.053259","PARACHUTE","","RESIDENTIAL","","UATMP: PACO; PARACHUTE - HIGH SCHOOL","meanRos_ug_m3","No","No Trend","Colorado","Parachute","Urban And Center City","PARACHUTE - HIGH SCHOOL","No","Formaldehyde","","","","","","","1.49531694800622","","","1.02691969629898","1.10502228591918","0.980525656123317","","1.01422377091831"
"08-045-0007","Formaldehyde","39.531813","-107.782298","RIFLE","","COMMERCIAL","","UATMP: RICO; RIFLE - HENRY BLDG","meanRos_ug_m3","No","No Trend","Colorado","Rifle","Urban And Center City","RIFLE - HENRY BLDG","No","Formaldehyde","","","","","","","1.4513627199282","","","1.19067449790382","1.19632992595037","0.638782187076898","1.06815682025486","1.13925010475448"
"08-045-0009","Formaldehyde","39.487755","-107.659685","SILT","","AGRICULTURAL","","UATMP: BRCO","meanRos_ug_m3","No","Decreasing","Colorado","Silt","Rural","UATMP: BRCO","No","Formaldehyde","","","","","","0.869225364543059","1.19095393908106","","","0.868814203407804","0.74771782075146","","0.701942402371205","0.321166987115908"
"08-045-0018","Formaldehyde","39.412278","-107.230397","NOT IN A CITY","","RESIDENTIAL","","UATMP: RFCO; CMC Boat House","meanRos_ug_m3","No","Undetermined","Colorado","Carbondale","Rural","Carbondale Rocky Mountain School (Boathouse)","No","Formaldehyde","","","","","","","","","","","0.600275000474784","0.651693806027535","",""
"08-045-0019","Formaldehyde","39.43806","-108.02611","Battlement Mesa","","COMMERCIAL","","Battlement Mesa","meanRos_ug_m3","No","Undetermined","Colorado","Battlement Mesa","Suburban","Battlement Mesa","No","Formaldehyde","","","","","","","","","","0.902557907637273","0.815586611898647","0.649631063877022","","0.787202166683218"
"08-045-0020","Formaldehyde","39.5464","-107.3286","Glenwood Springs","","COMMERCIAL","","Vogelaar Park, Glenwood Springs","meanRos_ug_m3","No","Undetermined","Colorado","Glenwood Springs","Suburban","Vogelaar Park, Glenwood Springs","No","Formaldehyde","","","","","","","","","","","","","0.799764753286875",""
"10-001-0002","Formaldehyde","38.986672","-75.5568","NOT IN A CITY","","AGRICULTURAL","","PROPERTY OF KILLENS POND STATE PARK; BEHIND FARM BUILDINGS","meanRos_ug_m3","No","Undetermined","Delaware","Not in a city","Rural","PROPERTY OF KILLENS POND STATE PARK; BEHIND FARM BUILDINGS","No","Formaldehyde","1.26564101225781","1.53011830106109","","","","","","","","","","","",""
"10-003-1007","Formaldehyde","39.5513","-75.732","NOT IN A CITY","","AGRICULTURAL","","PAMS: Lums Pond; NADP: DE99","meanRos_ug_m3","No","Undetermined","Delaware","Not in a city","Rural","Lums Pond","No","Formaldehyde","1.45669350940937","1.41284469839234","1.54153681662521","","","","","","","","","","",""
"10-003-1008","Formaldehyde","39.57768","-75.6036","DELAWARE CITY","","AGRICULTURAL","","","meanRos_ug_m3","No","Undetermined","Delaware","Delaware City","Rural","Route 9 Delaware City","No","Formaldehyde","1.26805447562704","1.29082714549016","1.76370643888196","","","","","","","","","","",""
"10-003-2004","Formaldehyde","39.739444","-75.558056","Wilmington","","COMMERCIAL","","CORNER OF MLK BLVD AND JUSTISON ST, NO TRAFFIC DATA AVAILABLE","meanRos_ug_m3","No","No Trend","Delaware","Wilmington","Urban And Center City","MLK  CORNER OF MLK BLVD AND JUSTISON ST","No","Formaldehyde","2.41559469809655","2.25393844643418","2.46318792816263","2.2056151805445","2.66516873672779","2.49119942673981","1.91731763311405","3.42284065084792","","","","","",""
"10-005-1002","Formaldehyde","38.6539","-75.6106","Seaford","","RESIDENTIAL","","Seaford Shipley State Service Center","meanRos_ug_m3","No","Undetermined","Delaware","Seaford","Suburban","Seaford Shipley State Service Center","No","Formaldehyde","","1.78341795665062","1.52263059360595","","","","","","","","","","",""
"12-011-1002","Formaldehyde","26.083143","-80.237586","Davie","","COMMERCIAL","","UATMP: FLFL","meanRos_ug_m3","No","Undetermined","Florida","Davie","Suburban","U of F Ag Research Center","No","Formaldehyde","","","","3.04361276587885","","","","","","","","","",""
"12-011-2004","Formaldehyde","26.217582","-80.127545","Pompano Beach","","COMMERCIAL","","UATMP: FLFL(2)","meanRos_ug_m3","No","Undetermined","Florida","Pompano Beach","Suburban","UATMP: FLFL(2)","No","Formaldehyde","1.23040822449271","","","","","","","","","","","","",""
"12-057-0081","Formaldehyde","27.740033","-82.465146","Tampa","","FOREST","","UATMP: SMFL; PILOT CITY:  Simmons Park","meanRos_ug_m3","No","Undetermined","Florida","Ruskin","Rural","Simmons Park","No","Formaldehyde","","","14.9222354966464","2.58623889978998","","","","","","","","","",""
"12-057-1065","Formaldehyde","27.892523","-82.538429","Tampa","","COMMERCIAL","","UATMP: GAFL; NADP: FL18; PILOT CITY: Gandy","meanRos_ug_m3","No","No Trend","Florida","Tampa","Suburban","USMC Reserve Center (Gandy)","No","Formaldehyde","2.39150824640875","2.12527196380656","10.7574214596966","4.468081970242","2.46210756908609","1.66644300786991","","","","","","","",""
"12-057-1075","Formaldehyde","28.050296","-82.377871","Tampa","","RESIDENTIAL","","UATMP: LEFL; PILOT CITY: Lewis","meanRos_ug_m3","No","Undetermined","Florida","Tampa","Urban And Center City","WHITEWAY DRIVE TAMPA","No","Formaldehyde","2.36495431537143","","","","","","","","","","","","",""
"12-086-4002","Formaldehyde","25.798709","-80.210048","Miami","","COMMERCIAL","","UATMP: MDFL","meanRos_ug_m3","No","Undetermined","Florida","Miami","Urban And Center City","Lab Annex","No","Formaldehyde","0.633852653517938","","","","","","","","","","","","",""
"12-095-2002","Formaldehyde","28.596389","-81.3625","Winter Park","","COMMERCIAL","","UATMP: ORFL","meanRos_ug_m3","Yes","Decreasing","Florida","Winter Park","Urban And Center City","WINTER PARK","No","Formaldehyde","2.6322905737066","3.28510694382538","3.28121541130505","2.50025493518904","2.59177347487834","2.18745293292593","2.09524410131886","1.92996831118588","1.88525235469734","2.06008717404508","1.83681736194265","2.21021766475452","2.36740288008659",""
"12-099-0008","Formaldehyde","26.724786","-80.666447","Belle Glade","","INDUSTRIAL","","UATMP: BGFL","meanRos_ug_m3","No","Undetermined","Florida","Belle Glade","Rural","Belle Glade","No","Formaldehyde","0.359381157473693","","","","","","","","","","","","",""
"12-099-2005","Formaldehyde","26.456944","-80.092778","Delray Beach","","COMMERCIAL","","UATMP: DBFL","meanRos_ug_m3","No","Undetermined","Florida","Delray Beach","Urban And Center City","DELRAY BEACH","No","Formaldehyde","2.43272810708712","","","","","","","","","","","","",""
"12-103-0004","Formaldehyde","27.946688","-82.731767","Clearwater","","COMMERCIAL","","UATMP: CWFL","meanRos_ug_m3","No","Undetermined","Florida","Clearwater","Suburban","St. Petersburg College","No","Formaldehyde","3.0333654481025","","","","","","","","","","","","",""
"12-103-0018","Formaldehyde","27.785866","-82.739875","SAINT PETERSBURG","","RESIDENTIAL","","UATMP: AZFL; PILOT CITY: Azalea Park","meanRos_ug_m3","Yes","No Trend","Florida","Saint Petersburg","Suburban","Azalea Park","No","Formaldehyde","2.26091442051851","1.79533086055547","1.93171575786569","2.46612714870856","2.98490140697794","3.06215488265087","2.03918056642784","1.72213879253891","1.87571531077336","1.91840071616431","1.76760679111844","2.22697465099972","1.79078402750409","7.27982980402702"
"12-103-1008","Formaldehyde","28.000297","-82.776213","Dunedin","","RESIDENTIAL","","UATMP: DNFL; PILOT CITY: Dunedin","meanRos_ug_m3","No","Undetermined","Florida","Dunedin","Suburban","DUNEDIN HIGHLAND MIDDLE SCHOOL","No","Formaldehyde","","","","","","","","","","","","","",""
"12-103-5002","Formaldehyde","28.090299","-82.700707","Tarpon Springs","","RESIDENTIAL","","UATMP: ELFL; PILOT CITY: East Lake","meanRos_ug_m3","No","Undetermined","Florida","Tarpon Springs","Rural","John Chesnut Sr. Park - East Lake","No","Formaldehyde","","","","","","","","","","","","","",""
"13-051-0021","Formaldehyde","32.069183","-81.048747","Savannah","","COMMERCIAL","","Savannah-E. President Street","meanRos_ug_m3","Yes","No Trend","Georgia","Savannah","Suburban","Savannah-E. President","No","Formaldehyde","2.09662430415937","2.6913509750949","2.78605984781793","2.70126770984617","2.34560908407463","1.53361610132892","2.16517123702147","8.50287322947275","8.45483005339195","4.28513366535611","1.91517076730695","","1.97866828442475","3.37272523687673"
"13-085-0001","Formaldehyde","34.376307","-84.059556","DAWSONVILLE","","UNKNOWN","","Dawsonville, Georgia Forestry Commission","meanRos_ug_m3","Yes","No Trend","Georgia","Not in a city","Rural","Dawsonville","No","Formaldehyde","2.4580236763085","1.95046341074468","2.03500744008444","1.5475359548469","9.20318495882364","1.5960877845181","1.87283541229517","5.08121770914542","2.51539135125146","1.41945551915758","1.47025114318232","","3.44577335941775",""
"13-089-3001","Formaldehyde","33.845741","-84.213398","Tucker","","RESIDENTIAL","","PAMS: Tucker","meanRos_ug_m3","No","Undetermined","Georgia","Tucker","Rural","Tucker-Idlewood Road","No","Formaldehyde","","21.9052085295579","15.0887277503973","12.3605614135558","","","","","","","","","",""
"13-127-3001","Formaldehyde","31.185187","-81.485166","Brunswick","","RESIDENTIAL","","","meanRos_ug_m3","No","No Trend","Georgia","Brunswick","Suburban","","No","Formaldehyde","2.07780402717956","2.26297151603763","4.11000398019259","3.33548455698476","2.96982735008324","","","","","","","","",""
"13-141-0001","Formaldehyde","33.298144","-82.96787","NOT IN A CITY","","AGRICULTURAL","","","meanRos_ug_m3","No","Undetermined","Georgia","Not in a city","Rural","","No","Formaldehyde","","","","","","","","","","","","","",""
"13-223-0003","Formaldehyde","33.9285","-85.04534","Yorkville","","AGRICULTURAL","","PAMS: Yorkville (Near Rockmart)","meanRos_ug_m3","No","Undetermined","Georgia","Not in a city","Rural","Yorkville, King Farm","No","Formaldehyde","","","","","","","","","","","","","","3.86731827074643"
"15-003-2004","Formaldehyde","21.392833","-157.969126","PEARL CITY","","RESIDENTIAL","","PEARL CITY","meanRos_ug_m3","No","No Trend","Hawaii","Pearl City","Urban And Center City","Pearl City","No","Formaldehyde","1.85630772016208","","1.69084343545859","1.65057560439201","1.93455051714755","1.47453829687911","1.58511578195632","1.59386962799482","","","","","",""
"16-001-0200","Formaldehyde","43.5776","-116.1777","Boise","","RESIDENTIAL","","White Pine Elementary School","meanRos_ug_m3","No","Undetermined","Idaho","Boise City (corporate name for Boise)","Urban And Center City","White Pine Elementary School","No","Formaldehyde","","","","","2.46381790472706","","","","","","","","",""
"16-027-0004","Formaldehyde","43.562401","-116.563232","Nampa","","RESIDENTIAL","","NORTHWEST NAZARENE COLLEGE SAMPLER ON ARTS BUILDING IN SUB. SETTING","meanRos_ug_m3","No","Undetermined","Idaho","Nampa","Suburban","NORTHWEST NAZARENE COLLEGE SAMPLER ON ARTS BUILDING IN SUB. SETTING","No","Formaldehyde","4.06026316452976","2.91433625110464","","","2.25525311344727","","","","","","","","",""
"16-027-0400","Formaldehyde","43.7872","-116.9596","Parma","","AGRICULTURAL","","Parma","meanRos_ug_m3","No","Undetermined","Idaho","Not in a city","Rural","Parma","No","Formaldehyde","","","","","1.77651622691707","","","","","","","","",""
"17-031-0072","Formaldehyde","41.895812","-87.607683","Chicago","","COMMERCIAL","","JARDINE","meanRos_ug_m3","No","Undetermined","Illinois","Chicago","Urban And Center City","JARDINE WATER PLANT","No","Formaldehyde","","","","","","","","","","","","","",""
"17-031-3103","Formaldehyde","41.965193","-87.876265","Schiller Park","","MOBILE","","UATMP: SPIL","meanRos_ug_m3","Yes","No Trend","Illinois","Schiller Park","Suburban","IEPA TRAILER","No","Formaldehyde","2.37609824611514","1.7703536380759","23.7981077853861","13.7908290414231","2.47992212984874","2.3286878246989","1.89583381758559","2.59197695864038","3.35317432881446","3.08245237264437","3.44181933144229","3.25645708798811","3.91306123551007","3.64880043032973"
"17-119-9010","Formaldehyde","38.848382","-90.076413","Roxana","","INDUSTRIAL","","UATMP: ROIL; Phillips 66 Wood River Refinery","meanRos_ug_m3","No","Undetermined","Illinois","Roxana","Suburban","Phillips 66 Wood River Refinery","No","Formaldehyde","","","","","","","","","","","3.19909419304294","3.07486684867599","",""
"18-089-0022","Formaldehyde","41.60668","-87.304729","Gary","","INDUSTRIAL","","UATMP: INDEM","meanRos_ug_m3","Yes","No Trend","Indiana","Gary","Urban And Center City","Gary-IITRI/ 1219.5 meters east of Tennessee St.- old ammuntion bunker","No","Formaldehyde","","41.9270602842394","","62.7665007371564","36.2932072517287","74.3408366616043","2.60933143615613","2.44423104013307","2.34253861835891","2.50794980507688","2.17799174715445","2.65056093283997","3.00104224442634","3.6907096396321"
"18-097-0057","Formaldehyde","39.749019","-86.186314","INDIANAPOLIS","","RESIDENTIAL","","UATMP: ININ","meanRos_ug_m3","No","Undetermined","Indiana","Indianapolis (Remainder)","Urban And Center City","Indpls- Harding St.","No","Formaldehyde","","","","","4.15449859160175","6.23118753557499","","","","","","","",""
"18-097-0078","Formaldehyde","39.811097","-86.114469","Indianapolis","","RESIDENTIAL","","UATMP: WPIN","meanRos_ug_m3","Yes","No Trend","Indiana","Indianapolis (Remainder)","Suburban","Indpls- Washington Park/  in parking lot next to police station","No","Formaldehyde","8.49117274791924","","","2.59718239411241","4.04826732055983","3.45785985466968","3.13925875100575","3.62055045667588","4.25961200092902","4.31504693049336","3.44487788215312","2.71427798291381","3.38414430592053","3.60795546452362"
"18-097-0085","Formaldehyde","39.740383","-86.22595","INDIANAPOLIS","","MILITARY RESERVATION","","UATMP: IDIN","meanRos_ug_m3","No","Undetermined","Indiana","Indianapolis (Remainder)","Urban And Center City","Stout Field 2","No","Formaldehyde","","","","","3.65849968395268","3.08584875194689","","","","","","","",""
"19-045-0019","Formaldehyde","41.823283","-90.211982","Clinton","","INDUSTRIAL","","CLINTON, CHANCY PARK","meanRos_ug_m3","No","Undetermined","Iowa","Clinton","Urban And Center City","CLINTON, CHANCY PARK","No","Formaldehyde","","","","","","","","","","","","2.36158467987588","",""
"19-045-0021","Formaldehyde","41.874999","-90.177574","Clinton","","RESIDENTIAL","","UATMP: CLIA","meanRos_ug_m3","No","Undetermined","Iowa","Clinton","Suburban","CLINTON, RAINBOW PARK","No","Formaldehyde","","","","","","","","","","","","","",""
"19-113-0033","Formaldehyde","42.281013","-91.526879","COGGON","","RESIDENTIAL","","COGGON ELEMENTARY SCHOOL BLDG. NORTHERN LIMITS OF LINN COUNTY","meanRos_ug_m3","No","Undetermined","Iowa","Coggon","Urban And Center City","COGGON ELEMENTARY SCHOOL BLDG. NORTHERN LIMITS OF LINN COUNTY","No","Formaldehyde","","","","","","","","","","2.52620483855032","1.64854872639056","","",""
"19-113-0037","Formaldehyde","42.00508","-91.6793","Cedar Rapids","","RESIDENTIAL","","UATMP: C2IA; PILOT CITY: Army Reserve","meanRos_ug_m3","No","Undetermined","Iowa","Cedar Rapids","Urban And Center City","ARMY RESERVE CENTER ROOF- CORE MONITORING SITE","No","Formaldehyde","","","2.95576088798667","","","","","","","","","","",""
"19-113-0039","Formaldehyde","41.93417","-91.682679","Cedar Rapids","","INDUSTRIAL","","UATMP: CRIA; PILOT CITY: Hawkeye Downs","meanRos_ug_m3","No","Undetermined","Iowa","Cedar Rapids","Urban And Center City","HAWKEYE DOWNS SOUTHWEST CORNER","No","Formaldehyde","","","","","","","","","","","","","",""
"19-113-0040","Formaldehyde","41.97677","-91.68766","CEDAR RAPIDS","","RESIDENTIAL","","Public Health","meanRos_ug_m3","No","Undetermined","Iowa","Cedar Rapids","Urban And Center City","Public Health","No","Formaldehyde","","","","","","","","","","","2.34374453358478","","",""
"19-113-0050","Formaldehyde","41.979556","-91.680564","CEDAR RAPIDS","","INDUSTRIAL","","CR School","meanRos_ug_m3","No","Undetermined","Iowa","Cedar Rapids","Urban And Center City","CR School","No","Formaldehyde","","","","","","","","","","","2.77567101015335","","",""
"19-113-0070","Formaldehyde","41.98128","-91.678733","Cedar Rapids","","RESIDENTIAL","","H Avenue","meanRos_ug_m3","No","Undetermined","Iowa","Cedar Rapids","Urban And Center City","H Avenue","No","Formaldehyde","","","","","","","","","","2.85188360888259","2.25776406258672","","",""
"19-139-0020","Formaldehyde","41.4069","-91.0616","Muscatine","","INDUSTRIAL","","UATMP: MUIA","meanRos_ug_m3","No","Undetermined","Iowa","Muscatine","Suburban","MUSCATINE, MUSSER PARK","No","Formaldehyde","","","","","","","","","","","","","",""
"19-153-0030","Formaldehyde","41.603159","-93.643118","Des Moines","","COMMERCIAL","","UATMP: DMIA","meanRos_ug_m3","No","Undetermined","Iowa","Des Moines","Urban And Center City","CARPENTER","No","Formaldehyde","","","3.27560876308103","","","","","","","","2.46426904235943","2.6078315130646","",""
"19-163-0015","Formaldehyde","41.530011","-90.587611","Davenport","","RESIDENTIAL","","UATMP: DAIA","meanRos_ug_m3","No","No Trend","Iowa","Davenport","Urban And Center City","DAVENPORT, JEFFERSON SCH.","No","Formaldehyde","2.22867263388392","","3.40515669921543","","","","","","2.39428971613218","","2.63197305777525","","","2.11969607836819"
"21-019-0017","Formaldehyde","38.45934","-82.64041","ASHLAND","","RESIDENTIAL","","UATMP: ASKY","meanRos_ug_m3","Yes","No Trend","Kentucky","Ashland","Suburban","ASHLAND PRIMARY (FIVCO)","No","Formaldehyde","","2.62006022181112","2.71631597861147","3.3513146858046","3.93220578108623","3.23981294494425","2.00578388433543","2.69300417975405","2.52683230480607","2.84914356476458","2.31027046628073","2.31018343516934","",""
"21-059-0005","Formaldehyde","37.780776","-87.075307","OWENSBORO","","COMMERCIAL","","OWENSBORO PRIMARY","meanRos_ug_m3","No","Undetermined","Kentucky","Not in a city","Suburban","OWENSBORO PRIMARY","No","Formaldehyde","","","3.25586713914512","","","","","","","","","","",""
"21-067-0012","Formaldehyde","38.06503","-84.49761","LEXINGTON-FAYETTE","","RESIDENTIAL","","UATMP: LEKY","meanRos_ug_m3","Yes","No Trend","Kentucky","Lexington-Fayette (corporate name for Lexington)","Suburban","LEXINGTON PRIMARY","No","Formaldehyde","","","2.81339253348797","3.79315633430085","4.45290540257281","4.08144596080856","1.83866411389566","2.8654510752863","2.47979673541627","2.84823247708274","2.8787729340351","3.12578744323584","",""
"21-117-0007","Formaldehyde","39.0725","-84.525","COVINGTON","","RESIDENTIAL","","CHASE (COVINGTON)","meanRos_ug_m3","No","No Trend","Kentucky","Covington","Suburban","CHASE (COVINGTON)","No","Formaldehyde","","","3.30311746465815","4.06377762434284","2.70502718869269","2.32483777072619","2.15626763448228","","","","","","",""
"21-145-1024","Formaldehyde","37.05822","-88.57251","PADUCAH","","COMMERCIAL","","JACKSON PURCHASE (PADUCAH PRIMARY)","meanRos_ug_m3","No","Undetermined","Kentucky","Paducah","Suburban","JACKSON PURCHASE (PADUCAH PRIMARY)","No","Formaldehyde","","","3.19254734842574","","","","","","","","","","",""
"22-033-0009","Formaldehyde","30.461981","-91.179219","Baton Rouge","","COMMERCIAL","","UATMP: B2LA","meanRos_ug_m3","No","Undetermined","Louisiana","Baton Rouge","Urban And Center City","Capitol","No","Formaldehyde","","","","","","","","","","","","","",""
"22-089-0003","Formaldehyde","29.984371","-90.410638","HAHNVILLE","","INDUSTRIAL","","UATMP: HALA","meanRos_ug_m3","No","Undetermined","Louisiana","Hahnville","Rural","Hahnville","No","Formaldehyde","","","","","","","","","","","","","",""
"22-095-0002","Formaldehyde","30.057515","-90.619286","NOT IN A CITY","","INDUSTRIAL","","UATMP: GALA","meanRos_ug_m3","No","Undetermined","Louisiana","Garyville","Rural","Garyville","No","Formaldehyde","","","","","","","","","","","","","",""
"24-005-3001","Formaldehyde","39.310833","-76.474444","Essex","","RESIDENTIAL","","PAMS: Essex","meanRos_ug_m3","Yes","No Trend","Maryland","Essex","Suburban","Essex","No","Formaldehyde","1.86150614077983","1.33911291269207","0.72223315601677","0.432318195426417","1.93337270445772","1.23240677161564","1.17189277201427","1.4126653483197","1.23685714777051","1.18702447952115","0.908844602430171","0.807676890620957","",""
"24-510-0050","Formaldehyde","39.318611","-76.5825","BALTIMORE","","RESIDENTIAL","","LAT/LONG POINT IS OF SAMPLING INLET.................................","meanRos_ug_m3","No","Undetermined","Maryland","Baltimore","Urban And Center City","LAT/LONG POINT IS OF SAMPLING INLET.................................","No","Formaldehyde","","","","","","","","","","","","","",""
"24-510-0051","Formaldehyde","39.281496","-76.598578","BALTIMORE","","COMMERCIAL","","PAMS: Living Classroom","meanRos_ug_m3","No","Undetermined","Maryland","Baltimore","Urban And Center City","PAMS-OZONE-NOX ANALYZERS ARE LOCATED AT SOUTH CAROLINE STREET.","No","Formaldehyde","","","","","","","","","","","","","",""
"25-009-2006","Formaldehyde","42.474642","-70.970816","Lynn","","COMMERCIAL","","LYNN WATER TREATMENT PLANT","meanRos_ug_m3","Yes","No Trend","Massachusetts","Lynn","Urban And Center City","LYNN WATER TREATMENT PLANT","No","Formaldehyde","2.25272524887964","1.9039675331605","2.42569621173108","2.20332953065512","2.3196204475869","1.74757246859417","1.8043813148585","1.93819907684232","2.06435710616442","2.28571209398766","2.5301550843283","1.86931374952219","3.0512559661075","2.17495187148182"
"25-013-0008","Formaldehyde","42.19438","-72.555112","Chicopee","","COMMERCIAL","","WESTOVER AFB","meanRos_ug_m3","Yes","No Trend","Massachusetts","Chicopee","Suburban","WESTOVER AFB","No","Formaldehyde","2.74122568321702","3.44830165388794","2.83496152126878","2.42479956172314","2.23592192474994","1.65759835934649","1.72981532353984","1.79089175521621","1.72656302070806","2.32819463209375","2.83421862690987","2.60507364760148","2.972136874051","2.57704663887705"
"26-065-0921","Formaldehyde","42.741979","-84.573591","LANSING","","COMMERCIAL","","LANSING","meanRos_ug_m3","No","Undetermined","Michigan","Lansing","Urban And Center City","LANSING","No","Formaldehyde","","","","","","","","","","","","","",""
"26-065-0922","Formaldehyde","42.735591","-84.576924","LANSING","","INDUSTRIAL","","LANSING","meanRos_ug_m3","No","Undetermined","Michigan","Lansing","Urban And Center City","LANSING","No","Formaldehyde","","","","","","","","","","","","","",""
"26-065-0923","Formaldehyde","42.732813","-84.563035","LANSING","","INDUSTRIAL","","LANSING","meanRos_ug_m3","No","Undetermined","Michigan","Lansing","Urban And Center City","LANSING","No","Formaldehyde","","","","","","","","","","","","","",""
"26-065-0924","Formaldehyde","42.733924","-84.593592","LANSING","","INDUSTRIAL","","LANSING","meanRos_ug_m3","No","Undetermined","Michigan","Lansing","Urban And Center City","LANSING","No","Formaldehyde","","","","","","","","","","","","","",""
"26-077-0901","Formaldehyde","42.216432","-85.552502","Kalamazoo","","INDUSTRIAL","","","meanRos_ug_m3","No","Undetermined","Michigan","Kalamazoo","Suburban","","No","Formaldehyde","","","","","","","","","","","","","",""
"26-077-0902","Formaldehyde","42.214487","-85.543335","KALAMAZOO","","INDUSTRIAL","","KALAMAZOO","meanRos_ug_m3","No","Undetermined","Michigan","Kalamazoo","Suburban","KALAMAZOO","No","Formaldehyde","","","","","","","","","","","","","",""
"26-077-0903","Formaldehyde","42.18921","-85.558612","KALAMAZOO","","INDUSTRIAL","","KALAMAZOO","meanRos_ug_m3","No","Undetermined","Michigan","Kalamazoo","Suburban","KALAMAZOO","No","Formaldehyde","","","","","","","","","","","","","",""
"26-081-0020","Formaldehyde","42.984173","-85.671339","Grand Rapids","","INDUSTRIAL","","Grand Rapids","meanRos_ug_m3","No","Undetermined","Michigan","Grand Rapids","Urban And Center City","GR-Monroe","No","Formaldehyde","","","5.14648948094213","3.13785052753871","","","","","","","","","",""
"26-081-0021","Formaldehyde","42.938638","-85.671141","Grand Rapids","","INDUSTRIAL","","1270 RANDOLPH, GRAND RAPIDS","meanRos_ug_m3","No","Undetermined","Michigan","Grand Rapids","Urban And Center City","1270 RANDOLPH, GRAND RAPIDS","No","Formaldehyde","3.80638844330901","2.69591685020028","","","","","","","","","","","",""
"26-113-0001","Formaldehyde","44.310555","-84.891865","NOT IN A CITY","","FOREST","","UATMP: HOMI; PILOT CITY: Houghton Lake","meanRos_ug_m3","No","Undetermined","Michigan","Not in a city","Rural","LOCATED ABOUT 1/4 MILE WEST OF SITE","No","Formaldehyde","1.4304337302562","1.27601868886904","","1.39377034584388","","","","","","","","","",""
"26-125-0010","Formaldehyde","42.490313","-83.279931","Southfield","","MOBILE","","UATMP: LOMI; PILOT CITY: 696 Lodge","meanRos_ug_m3","No","Undetermined","Michigan","Southfield","Urban And Center City","338 FEET NORTH TO I-696 FREEWAY","No","Formaldehyde","","","","","","","","","","","","","",""
"26-161-0008","Formaldehyde","42.240565","-83.599602","Ypsilanti","","COMMERCIAL","","PILOT CITY: Ypsilanti","meanRos_ug_m3","No","Undetermined","Michigan","Ypsilanti","Urban And Center City","TOWNER ST, SOUTH; 2 LANE RESIDENIAL - HOSPITAL","No","Formaldehyde","3.60918226672063","2.24899541937501","3.09092081772681","","","","","","","","","","",""
"26-163-0001","Formaldehyde","42.22862","-83.2082","Allen Park","","COMMERCIAL","","UATMP: APMI; IMPROVE: DETR1; PILOT CITY: Allen Park","meanRos_ug_m3","No","Undetermined","Michigan","Allen Park","Suburban","Allen Park","No","Formaldehyde","","","2.83997730136064","","","","","","","","","","",""
"26-163-0005","Formaldehyde","42.267231","-83.132086","River Rouge","","INDUSTRIAL","","UATMP: RRMI; PILOT CITY: River Rouge","meanRos_ug_m3","Yes","Increasing","Michigan","River Rouge","Suburban","River Rouge","No","Formaldehyde","1.96260497060721","","3.14506432560379","3.62582975165235","","3.13024089491275","2.65070562109199","2.8959569049104","3.25850206535116","3.99162612855107","5.72651980573139","4.35782293746935","5.01385188771412","4.93245505905867"
"26-163-0015","Formaldehyde","42.302786","-83.10653","Detroit","","COMMERCIAL","","UATMP: SWMI; PILOT CITY: Southwest HS","meanRos_ug_m3","Yes","No Trend","Michigan","Detroit","Urban And Center City","Southwestern H.S.","No","Formaldehyde","8.86280541190546","3.98224131052056","2.47717924355487","2.55955904495549","2.33903351537988","1.87450329573731","1.82014205513208","2.51523895216855","2.87142275634869","3.15084980827425","2.96845358685427","2.81760687311496","3.31915334747446","3.10705621728231"
"26-163-0019","Formaldehyde","42.43084","-83.000138","Detroit","","RESIDENTIAL","","UATMP: E7MI; PILOT CITY: East 7 Mile","meanRos_ug_m3","No","Undetermined","Michigan","Detroit","Suburban","East 7 Mile","No","Formaldehyde","","","","","","","","","","","","","",""
"26-163-0027","Formaldehyde","42.292231","-83.106807","Detroit","","INDUSTRIAL","","UATMP: YFMI; PILOT CITY: Yellow Freight","meanRos_ug_m3","No","Undetermined","Michigan","Detroit","Urban And Center City","UATMP: YFMI; PILOT CITY: Yellow Freight","No","Formaldehyde","","","","","","","","","","","","","",""
"27-003-1002","Formaldehyde","45.13768","-93.207615","Blaine","","COMMERCIAL","","Anoka Airport6010","meanRos_ug_m3","No","No Trend","Minnesota","Blaine","Suburban","Anoka County Airport","No","Formaldehyde","","","","","","","","","","2.03365333965516","1.85995158494515","1.78308063835895","1.69576968620152","1.95159468583651"
"27-007-2302","Formaldehyde","47.473285","-94.884721","BEMIDJI","","COMMERCIAL","","BEMIDJI","meanRos_ug_m3","No","Undetermined","Minnesota","Bemidji","Urban And Center City","KITCHAGAMI REGIONAL LIBRARY, 1 STORY BUILDING","No","Formaldehyde","","","","","","","","","","","","","",""
"27-007-2303","Formaldehyde","47.877222","-95.01222","Red Lake","","RESIDENTIAL","","Red Lake","meanRos_ug_m3","No","Undetermined","Minnesota","Red Lake","Rural","Red Lake District","No","Formaldehyde","","","","","","","","","1.41458029193111","","","","",""
"27-017-7416","Formaldehyde","46.70527","-92.52377","CLOQUET","","FOREST","","Cloquet","meanRos_ug_m3","No","Undetermined","Minnesota","Cloquet","Rural","Fond du Lac Band 7416","No","Formaldehyde","","","","","","","","1.27322733244738","","","","","",""
"27-019-0052","Formaldehyde","44.850655","-93.591809","Chaska","","RESIDENTIAL","","CHASKA","meanRos_ug_m3","No","Undetermined","Minnesota","Chaska","Rural","Chaska","No","Formaldehyde","1.15758274927546","0.843245040217281","1.51130054293378","1.23935220578741","","","","","","","","","",""
"27-021-0001","Formaldehyde","47.159942","-94.150987","NOT IN A CITY","","RESIDENTIAL","","Leech Lake","meanRos_ug_m3","No","Undetermined","Minnesota","Not in a city","Rural","Leech Lake Nation: Chatfield","No","Formaldehyde","","","","","","","","","1.07758872918223","","","","",""
"27-027-2103","Formaldehyde","46.871907","-96.743969","MOORHEAD","","RESIDENTIAL","","MOORHEAD","meanRos_ug_m3","No","Undetermined","Minnesota","Moorhead","Suburban","MOORHEAD SENIOR HIGH SCHOOL,  1 1/2 STORY BUILDING","No","Formaldehyde","","","","","","","","","","","","","",""
"27-035-3202","Formaldehyde","46.164666","-94.359379","FORT RIPLEY","","AGRICULTURAL","","HIGHWAY 371.  FT. RIPLEY","meanRos_ug_m3","No","Undetermined","Minnesota","Not in a city","Rural","Fort Ripley","No","Formaldehyde","","","","","","","","","","","","","",""
"27-037-0020","Formaldehyde","44.76323","-93.03255","NOT IN A CITY","","INDUSTRIAL","","FHR 420","meanRos_ug_m3","Yes","No Trend","Minnesota","Rosemount","Rural","Flint Hills Refinery 420","No","Formaldehyde","1.58021530360071","2.13779550154033","2.45680021953616","1.63448759007769","1.36219230793372","1.39229181231918","1.87666844669028","2.225547571256","1.87656164986149","2.17894560707228","1.9800410138403","1.79294905883602","1.87208236603982","2.1703791513503"
"27-037-0423","Formaldehyde","44.77553","-93.06299","Rosemount","","INDUSTRIAL","","FHR 423","meanRos_ug_m3","Yes","No Trend","Minnesota","Inver Grove Heights (RR name Inver Grove)","Rural","Flint Hills Refinery 423","No","Formaldehyde","1.12635921346826","0.988538838932965","2.31846246344725","1.74978646091265","1.20198134161634","1.21595422581375","1.28505854989175","1.73883461317096","1.82110229254736","1.94900733556467","1.42611607690271","1.75148745397123","1.71454413364326","1.67810588526294"
"27-037-0426","Formaldehyde","44.773003","-93.033072","NOT IN A CITY","","INDUSTRIAL","","Cemetary","meanRos_ug_m3","No","Undetermined","Minnesota","Not in a city","Rural","Cemetary","No","Formaldehyde","","","","","","","","","","","","","",""
"27-037-0439","Formaldehyde","44.748006","-93.04348","ROSEMOUNT","","INDUSTRIAL","","ROSEMOUNT","meanRos_ug_m3","No","Undetermined","Minnesota","Rosemount","Rural","Flint Hills Refinery 439","No","Formaldehyde","","","","","","","","","","","","","",""
"27-037-0441","Formaldehyde","44.7468","-93.02611","Rosemount","","INDUSTRIAL","","FHR 441","meanRos_ug_m3","No","Undetermined","Minnesota","Rosemount","Rural","Flint Hills Refinery 441","No","Formaldehyde","1.66799563551059","1.37633126476389","2.62474485554496","1.76870873105216","","","","","","","","","",""
"27-037-0442","Formaldehyde","44.73857","-93.00496","Rosemount","","AGRICULTURAL","","FHR 442","meanRos_ug_m3","Yes","No Trend","Minnesota","Rosemount","Rural","Flint Hills Refinery 442","No","Formaldehyde","1.11476138737882","0.800259714772821","2.3250506028388","1.34693052281769","1.22167569181405","1.24339663298904","1.30894201427938","1.88157405103011","1.82750155319579","1.86631458892388","1.65578650352675","1.23325787675194","",""
"27-037-0443","Formaldehyde","44.745662","-93.05541","ROSEMOUNT","","INDUSTRIAL","","FHR 443","meanRos_ug_m3","No","No Trend","Minnesota","Rosemount","Rural","Flint Hills Refinery 443","No","Formaldehyde","","","","","","1.34875438411395","1.4539751558456","2.08367149557785","1.78689770122055","1.47666604811738","0.652742458219281","1.5138640444286","1.43865747088783","1.67358897152171"
"27-037-0470","Formaldehyde","44.73846","-93.23725","Apple Valley","","RESIDENTIAL","","Apple Valley","meanRos_ug_m3","Yes","No Trend","Minnesota","Apple Valley","Suburban","Apple Valley","No","Formaldehyde","1.31965704032181","1.03142402358124","2.13992501668107","1.71658888592152","1.33786530653517","1.29058365203607","1.65753553007007","2.2227174715063","1.81995989080996","2.01693727080113","1.94074711730558","1.77807697903104","1.73556586180137","1.79819593841063"
"27-041-2010","Formaldehyde","45.883295","-95.380316","ALEXANDRIA","","RESIDENTIAL","","ALEXANDRIA (was 2001)","meanRos_ug_m3","No","Undetermined","Minnesota","Alexandria","Urban And Center City","Alexandria toxics site","No","Formaldehyde","","","","","","","","","","","","","",""
"27-041-2110","Formaldehyde","45.968217","-95.605594","NOT IN A CITY","","AGRICULTURAL","","7208 COUNTY RD. 16 NW","meanRos_ug_m3","No","Undetermined","Minnesota","Not in a city","Rural","Brandon Township","No","Formaldehyde","","","","","","","","","","","","","",""
"27-047-5401","Formaldehyde","43.650235","-93.366599","ALBERT LEA","","COMMERCIAL","","ALBERT LEA","meanRos_ug_m3","No","Undetermined","Minnesota","Albert Lea","Urban And Center City","Albert Lea City Hall","No","Formaldehyde","","","","","","","","","","","","","",""
"27-049-5356","Formaldehyde","44.39762","-92.831439","LEON TOWNSHIP","","AGRICULTURAL","","LEON TOWNSHIP(Zumbrota)","meanRos_ug_m3","No","Undetermined","Minnesota","Not in a city","Rural","MPCA SITE 5356","No","Formaldehyde","","","","","","","","","","","","","",""
"27-053-0050","Formaldehyde","45.001229","-93.267117","Minneapolis","","COMMERCIAL","","NE Fire Station","meanRos_ug_m3","No","Undetermined","Minnesota","Minneapolis","Urban And Center City","Minneapolis Fire Station 2","No","Formaldehyde","1.70653433525079","1.53600867170015","3.09182226920307","2.47635516063676","","","","","","","","","",""
"27-053-0053","Formaldehyde","44.981076","-93.269669","Minneapolis","","COMMERCIAL","","Old Downtown Library","meanRos_ug_m3","No","Undetermined","Minnesota","Minneapolis","Urban And Center City","Minneapolis Central Library","No","Formaldehyde","","","","","","","","","","","","","",""
"27-053-0909","Formaldehyde","45.012102","-93.276699","Minneapolis","","INDUSTRIAL","","Lowry Ave","meanRos_ug_m3","No","Undetermined","Minnesota","Minneapolis","Urban And Center City","Lowry Avenue","No","Formaldehyde","","","","","","","","","","","","","2.81052337220321","3.26604101045445"
"27-053-0958","Formaldehyde","44.926076","-93.204666","MINNEAPOLIS","","RESIDENTIAL","","MINNEAPOLIS","meanRos_ug_m3","No","Undetermined","Minnesota","Minneapolis","Urban And Center City","MPCA SITE 0958 1997/1998 AIR TOXICS SITE","No","Formaldehyde","","","","","","","","","","","","","",""
"27-053-0959","Formaldehyde","45.003866","-93.236924","Minneapolis","","INDUSTRIAL","","MPCA SITE 0959 INTER PLASTICS","meanRos_ug_m3","No","Undetermined","Minnesota","Minneapolis","Urban And Center City","MPCA SITE 0959 INTER PLASTICS","No","Formaldehyde","","","","","","","","","","","","","",""
"27-053-0960","Formaldehyde","44.959409","-93.256892","MINNEAPOLIS","","RESIDENTIAL","","MINNEAPOLIS","meanRos_ug_m3","No","Undetermined","Minnesota","Minneapolis","Urban And Center City","Phillips Community Center","No","Formaldehyde","","","","","","","","","","","","","",""
"27-053-0961","Formaldehyde","44.87551","-93.25892","RICHFIELD","","RESIDENTIAL","","RICHFIELD INTERMEDIATE SCHOOL","meanRos_ug_m3","No","No Trend","Minnesota","Richfield","Suburban","Richfield Intermediate School","No","Formaldehyde","","","","2.41733980407928","1.46491826705357","1.56680488723804","1.88550573399947","2.92265003038372","2.44115808100764","2.75274020694228","2.27041526019948","1.86167941199989","1.81645985769293","2.68611419155137"
"27-053-0962","Formaldehyde","44.965242","-93.254759","Minneapolis","","RESIDENTIAL","","Minneapolis Near Roadway NOx","meanRos_ug_m3","No","Undetermined","Minnesota","Minneapolis","Urban And Center City","Near Road I-35/I-94","No","Formaldehyde","","","","","","","","","","","","2.59933811455966","2.85599068601205","2.84799055154638"
"27-053-0963","Formaldehyde","44.95366","-93.25821","Minneapolis","","RESIDENTIAL","","HC Anderson School","meanRos_ug_m3","Yes","No Trend","Minnesota","Minneapolis","Urban And Center City","Andersen School","No","Formaldehyde","1.54011977327586","2.19298597909621","3.00656148965395","2.08920322202443","1.48771071567969","1.55440230707687","2.31152376652759","2.52295320894496","2.10786083231308","2.48974281095688","2.74505951645858","2.43528154448234","2.1244146032477","2.46132631432469"
"27-053-0964","Formaldehyde","44.888551","-93.195377","NOT IN A CITY","","COMMERCIAL","","MSP AIRPORT","meanRos_ug_m3","No","Undetermined","Minnesota","Not in a city","Suburban","MSP Airport","No","Formaldehyde","2.05778201124241","","","","","","","","","","","","",""
"27-053-0965","Formaldehyde","45.004478","-93.240046","Minneapolis","","RESIDENTIAL","","Putnam School","meanRos_ug_m3","No","Undetermined","Minnesota","Minneapolis","Urban And Center City","Putnam Elementary School","No","Formaldehyde","1.7434440513535","1.84105755608317","2.77981263265576","2.18367078299086","","","","","","","","","",""
"27-053-0966","Formaldehyde","44.97944","-93.26613","Minneapolis","","COMMERCIAL","","UATMP: MIMN; City of Lakes Bldg","meanRos_ug_m3","Yes","Increasing","Minnesota","Minneapolis","Urban And Center City","City of Lakes Building","No","Formaldehyde","1.30653557298776","1.27669231603157","2.52630009418577","1.99580542168827","1.62310554369932","1.73709526795915","2.21884795473466","2.58639813354213","2.1732544970354","2.47063887419783","2.25807177138153","2.56082970655362","2.16212553233882","2.76895480744087"
"27-053-0968","Formaldehyde","44.893005","-93.233227","MINNEAPOLIS","","COMMERCIAL","","MSP Airport 968","meanRos_ug_m3","No","Undetermined","Minnesota","Minneapolis","Urban And Center City","Metropolitan Airports Commission","No","Formaldehyde","","","2.62158448344934","2.23031808775064","","","","","","","","","",""
"27-053-0969","Formaldehyde","44.90057","-93.23828","MINNEAPOLIS","","RESIDENTIAL","","WENONAH SCHOOL","meanRos_ug_m3","No","Undetermined","Minnesota","Minneapolis","Suburban","Wenonah Elementary School","No","Formaldehyde","","","","1.85024369253918","1.20080792113488","1.29367547504097","2.48167506289946","","","","","","",""
"27-053-1007","Formaldehyde","45.03972","-93.29874","Minneapolis","","RESIDENTIAL","","Humboldt Ave","meanRos_ug_m3","Yes","No Trend","Minnesota","Minneapolis","Suburban","Humboldt Avenue","No","Formaldehyde","1.33775162062098","1.17959765265192","2.61089581340781","2.08331854418116","1.38388016389006","1.46048585629249","1.4274484592668","2.75886208195552","2.49563644542464","2.34730718892192","2.19286288897384","2.33567294427381","2.08252309188343","2.37953948049322"
"27-053-2006","Formaldehyde","44.94805","-93.34315","ST LOUIS PARK","","RESIDENTIAL","","St. Louis Park","meanRos_ug_m3","No","No Trend","Minnesota","St. Louis Park","Suburban","St. Louis Park City Hall","No","Formaldehyde","","","","","","1.43766404113003","2.1897808544244","2.2833662981815","2.13042424160518","2.10515208128904","2.13779173256083","2.35556591291406","2.13965166542709","2.11228377867413"
"27-061-1105","Formaldehyde","47.236699","-93.526411","Grand Rapids","","COMMERCIAL","","123 NE 4TH ST.","meanRos_ug_m3","No","Undetermined","Minnesota","Grand Rapids","Urban And Center City","Itaska County Courthouse","No","Formaldehyde","","","","","","","","","","","","","",""
"27-067-4110","Formaldehyde","45.112271","-95.040357","Willmar","","COMMERCIAL","","201 SE WILLMAR AVE.","meanRos_ug_m3","No","Undetermined","Minnesota","Willmar","Urban And Center City","Willmar","No","Formaldehyde","","","","","","","","","","","","","",""
"27-071-1241","Formaldehyde","48.605216","-93.406538","INTERNATIONAL FALLS","","RESIDENTIAL","","MPCA SITE 1241, AIR TOXICS SITE","meanRos_ug_m3","No","Undetermined","Minnesota","International Falls","Urban And Center City","MPCA SITE 1241, AIR TOXICS SITE","No","Formaldehyde","","","","","","","","","","","","","",""
"27-075-0005","Formaldehyde","47.948622","-91.495574","NOT IN A CITY","","UNKNOWN","","Fernberg Road","meanRos_ug_m3","No","Undetermined","Minnesota","Not in a city","Rural","Boundary Waters","No","Formaldehyde","","","","","","","","1.18164261483698","","","","","",""
"27-075-7608","Formaldehyde","47.296309","-91.264331","SILVER BAY","","RESIDENTIAL","","SILVER BAY","meanRos_ug_m3","No","Undetermined","Minnesota","Silver Bay","Urban And Center City","MPCA SITE 7608","No","Formaldehyde","","","","","","","","","","","","","",""
"27-085-4301","Formaldehyde","44.890795","-94.367483","HUTCHINSON","","COMMERCIAL","","HUTCHINSON","meanRos_ug_m3","No","Undetermined","Minnesota","Hutchinson","Urban And Center City","1999/2000 STATE WIDE AIR TOXICS STUDY HUTCHINSON SITE 4301","No","Formaldehyde","","","","","","","","","","","","","",""
"27-097-3049","Formaldehyde","45.971127","-94.347481","LITTLE FALLS","","RESIDENTIAL","","AIR TOXICS MONITOR","meanRos_ug_m3","No","Undetermined","Minnesota","Little Falls","Urban And Center City","AIR TOXICS MONITOR","No","Formaldehyde","","","","","","","","","","","","","",""
"27-103-5109","Formaldehyde","44.183761","-94.039819","North Mankato","","RESIDENTIAL","","LOCATED ON SW CORNER OF NORTH MANKATO FIRE STATION NO. 2 - ROOF","meanRos_ug_m3","No","Undetermined","Minnesota","North Mankato","Urban And Center City","North Mankato","No","Formaldehyde","","","","","","","","","","","","","",""
"27-109-5008","Formaldehyde","43.996908","-92.450366","ROCHESTER","","RESIDENTIAL","","ROCHESTER","meanRos_ug_m3","No","Undetermined","Minnesota","Rochester","Suburban","Ben Franklin School","No","Formaldehyde","","","","","","","","","","","","","",""
"27-111-2005","Formaldehyde","46.281349","-96.074225","FERGUS FALLS","","RESIDENTIAL","","FERGUS FALLS","meanRos_ug_m3","No","Undetermined","Minnesota","Fergus Falls","Urban And Center City","1997/1998 MN AIR TOXICS SITE","No","Formaldehyde","","","","","","","","","","","","","",""
"27-111-2012","Formaldehyde","46.586904","-95.584209","PERHAM","","RESIDENTIAL","","PRAIRIE WINDS MIDDLE SCHOOL","meanRos_ug_m3","No","Undetermined","Minnesota","Not in a city","Suburban","PRAIRIE WINDS MIDDLE SCHOOL","No","Formaldehyde","","","","","","","","","","","","","",""
"27-115-1400","Formaldehyde","46.121338","-92.999927","SANDSTONE","","AGRICULTURAL","","MPCA SITE 1400","meanRos_ug_m3","No","Undetermined","Minnesota","Not in a city","Rural","MPCA SITE 1400","No","Formaldehyde","","","","","","","","","","","","","",""
"27-117-4002","Formaldehyde","43.997422","-96.320099","PIPESTONE","","RESIDENTIAL","","MPCA SITE 4002 AIR TOXICS STUDY","meanRos_ug_m3","No","Undetermined","Minnesota","Pipestone","Urban And Center City","MPCA SITE 4002 AIR TOXICS STUDY","No","Formaldehyde","","","","","","","","","","","","","",""
"27-123-0017","Formaldehyde","44.944134","-93.065125","SAINT PAUL","","INDUSTRIAL","","","meanRos_ug_m3","No","Undetermined","Minnesota","St. Paul","Suburban","Holman Field","No","Formaldehyde","1.61274980330377","1.45469119284779","2.62326174457657","2.31744768903572","","","","","","","","","",""
"27-123-0021","Formaldehyde","44.96555","-93.05684","SAINT PAUL","","COMMERCIAL","","Ross Avenue","meanRos_ug_m3","No","Undetermined","Minnesota","St. Paul","Urban And Center City","Ross Avenue","No","Formaldehyde","1.54004098423025","1.45803887967598","2.17087201546256","","","","","","","","","","",""
"27-123-0868","Formaldehyde","44.95072","-93.09827","SAINT PAUL","","COMMERCIAL","","Ramsey Health Center","meanRos_ug_m3","No","No Trend","Minnesota","St. Paul","Urban And Center City","Ramsey Health Center","No","Formaldehyde","","","","","1.68666851922685","1.68105574964613","2.53421441274942","2.87079051353109","2.25817814553129","2.58820345903202","2.5509424104336","2.61569116175228","2.51679123808968","3.06438027090955"
"27-123-0871","Formaldehyde","44.95939","-93.03587","SAINT PAUL","","RESIDENTIAL","","Harding High School","meanRos_ug_m3","No","No Trend","Minnesota","St. Paul","Suburban","Harding High School","No","Formaldehyde","","","","","","1.20302319416761","2.00596505420315","2.28047595657182","2.18271738634351","2.69532113001943","2.17003925839796","2.19247938159192","2.35837119279522","2.17099763919415"
"27-123-1908","Formaldehyde","44.973096","-93.199879","St. Paul","","RESIDENTIAL","","South St. Anthony Park","meanRos_ug_m3","No","Undetermined","Minnesota","St. Paul","Urban And Center City","South St. Anthony Park","No","Formaldehyde","","","","","","","","","","","","","","2.77367992552771"
"27-135-2401","Formaldehyde","48.911655","-95.328294","WARROAD","","COMMERCIAL","","MPCA 2401 1997/1998 AIR TOXICS SITE","meanRos_ug_m3","No","Undetermined","Minnesota","Not in a city","Suburban","MPCA 2401 1997/1998 AIR TOXICS SITE","No","Formaldehyde","","","","","","","","","","","","","",""
"27-137-7001","Formaldehyde","47.523355","-92.536305","Virginia","","COMMERCIAL","","Virginia","meanRos_ug_m3","No","Undetermined","Minnesota","Virginia","Urban And Center City","Virginia City Hall","No","Formaldehyde","","","","","","","","","","","","","",""
"27-137-7014","Formaldehyde","47.423821","-92.926856","HIBBING","","RESIDENTIAL","","HIBBING","meanRos_ug_m3","No","Undetermined","Minnesota","Hibbing","Suburban","1997/1998 MN AIR TOXICS SITE","No","Formaldehyde","","","","","","","","","","","","","",""
"27-137-7549","Formaldehyde","46.77107","-92.11732","Duluth","","INDUSTRIAL","","Michigan St.","meanRos_ug_m3","Yes","No Trend","Minnesota","Duluth","Urban And Center City","Michigan Street","No","Formaldehyde","1.05490100193723","0.919896837029611","1.83716885568409","1.47276045056352","1.19680216344063","1.13199526487254","1.35735462963634","2.17337170895952","2.19213997452001","2.31077129112223","1.68312860324998","1.79645401228642","1.62255209554369","1.56997429372862"
"27-137-7550","Formaldehyde","46.81826","-92.08936","DULUTH","","RESIDENTIAL","","DULUTH","meanRos_ug_m3","No","Undetermined","Minnesota","Duluth","Suburban","U of M - Duluth","No","Formaldehyde","","","","","","","","","","","","","",""
"27-137-7551","Formaldehyde","46.76643","-92.13354","Duluth","","RESIDENTIAL","","Lincoln Park School","meanRos_ug_m3","No","Undetermined","Minnesota","Duluth","Suburban","Lincoln Park School","No","Formaldehyde","","","","","","","","","","","","","",""
"27-141-3050","Formaldehyde","45.303298","-93.599684","ELK RIVER","","RESIDENTIAL","","ELK RIVER","meanRos_ug_m3","No","Undetermined","Minnesota","Elk River","Suburban","ELK RIVER CITY HALL","No","Formaldehyde","","","","","","","","","","","","","",""
"27-145-3052","Formaldehyde","45.549839","-94.13345","SAINT CLOUD","","RESIDENTIAL","","ST CLOUD","meanRos_ug_m3","No","Undetermined","Minnesota","St. Cloud","Suburban","Talahi School","No","Formaldehyde","","","","","","","","","","","","","",""
"27-151-4500","Formaldehyde","45.247739","-95.917822","HOLLOWAY","","AGRICULTURAL","","SCHLEUTER FARM_(HOLLOWAY)","meanRos_ug_m3","No","Undetermined","Minnesota","Not in a city","Rural","SCHLEUTER FARM_(HOLLOWAY)","No","Formaldehyde","","","","","","","","","","","","","",""
"27-163-0301","Formaldehyde","44.991634","-92.822429","STILLWATER","","RESIDENTIAL","","STILLWATER","meanRos_ug_m3","No","Undetermined","Minnesota","Stillwater","Rural","SITE NAME WEST LAKELAND  1999/2000 STATEWIDE AIR TOXIC SITE  0301","No","Formaldehyde","","","","","","","","","","","","","",""
"27-163-0436","Formaldehyde","44.84737","-92.9954","SAINT PAUL","","INDUSTRIAL","","MPC 436","meanRos_ug_m3","Yes","No Trend","Minnesota","St. Paul Park","Suburban","Saint Paul Park Refinery 436","No","Formaldehyde","1.53439892128051","1.21642027171607","2.11605336556715","2.02134807694037","1.80420731143576","1.74215734845635","2.68800774989965","2.19601966512462","2.28516690119574","3.13543921506781","2.66360729020611","1.94490330950284","1.78253758513014","2.01849324583309"
"27-163-0438","Formaldehyde","44.85711","-93.00352","Newport","","INDUSTRIAL","","MPC 438","meanRos_ug_m3","Yes","Increasing","Minnesota","Newport","Suburban","Saint Paul Park Refinery 438","No","Formaldehyde","1.45355412084972","1.1019659329917","2.62357756251212","1.89243960681289","1.48336881122043","1.46488770376609","1.81310873885731","2.12968785735614","2.07493451683313","2.80042848328269","2.11146130584527","2.24232469251933","2.40647864596907","2.27751781687803"
"27-163-0445","Formaldehyde","45.01876","-92.78027","BAYPORT","","RESIDENTIAL","","Anderson School","meanRos_ug_m3","No","Undetermined","Minnesota","Bayport","Suburban","Anderson School","No","Formaldehyde","","","","","1.31029849166635","","","","","","","","",""
"27-163-0446","Formaldehyde","45.02798","-92.77415","Bayport","","INDUSTRIAL","","Point Rd.","meanRos_ug_m3","No","No Trend","Minnesota","Bayport","Suburban","Point Road","No","Formaldehyde","","","","","","1.18396709926467","2.01766976070276","1.76896907810389","1.39132189121263","1.71089616723783","1.72975306455135","1.59764284946084","1.50388359843488","1.65181771900047"
"27-169-5210","Formaldehyde","44.050871","-91.642432","WINONA","","RESIDENTIAL","","WINONA","meanRos_ug_m3","No","Undetermined","Minnesota","Winona","Urban And Center City","WINONA MIDDLE SCHOOL,  2 STORY BUILDING","No","Formaldehyde","","","","","","","","","","","","","",""
"27-171-3201","Formaldehyde","45.20916","-93.66921","SAINT MICHAEL","","RESIDENTIAL","","St. Michael","meanRos_ug_m3","No","Undetermined","Minnesota","St. Michael","Suburban","St. Michael Elementary School","No","Formaldehyde","","","","","","","","","","","","","",""
"27-173-4003","Formaldehyde","44.809957","-95.535853","GRANITE FALLS","","RESIDENTIAL","","GRANITE FALLS","meanRos_ug_m3","No","Undetermined","Minnesota","Granite Falls","Suburban","MPCA SITE 4003 1997/1998 AIR TOXICS SITE","No","Formaldehyde","","","","","","","","","","","","","",""
"28-043-0001","Formaldehyde","33.834444","-89.792778","Grenada","","AGRICULTURAL","","UATMP: GRMS","meanRos_ug_m3","No","Undetermined","Mississippi","Grenada","Rural","Grenada","No","Formaldehyde","","2.87015835438931","","","","","","","","","","","",""
"28-047-0008","Formaldehyde","30.390369","-89.049778","Gulfport","","COMMERCIAL","","UATMP: GPMS; Katrina: GPMS; BP Oil site GPMS","meanRos_ug_m3","No","Undetermined","Mississippi","Gulfport","Rural","Gulfport Youth Court","No","Formaldehyde","1.7909566286597","1.13537094458397","","2.93719126217044","2.55895180551392","","","","","","","","",""
"28-049-0010","Formaldehyde","32.385731","-90.1412","Jackson","","COMMERCIAL","","UATMP: JAMS","meanRos_ug_m3","No","Undetermined","Mississippi","Jackson","Suburban","Jackson FS19","No","Formaldehyde","2.65804219061983","0.801566895724371","","","","","","","","","","","",""
"28-059-0006","Formaldehyde","30.378287","-88.53393","Pascagoula","","COMMERCIAL","","UATMP: PGMS; Katrina: PGMS","meanRos_ug_m3","No","Undetermined","Mississippi","Pascagoula","Urban And Center City","Pascagoula","No","Formaldehyde","3.03055025770307","","","","","","","","","","","","",""
"28-081-0005","Formaldehyde","34.264917","-88.766222","Tupelo","","COMMERCIAL","","UATMP: TUMS; Katrina: TUMS","meanRos_ug_m3","No","No Trend","Mississippi","Tupelo","Suburban","TUPELO AIRPORT NEAR OLD NWS OFFICE","No","Formaldehyde","2.41884139590487","1.5349522507064","1.14785530064469","1.5798702666771","3.19381467520154","","","","","","","","",""
"29-186-0005","Formaldehyde","37.90084","-90.42388","Bonne Terre","","AGRICULTURAL","","UATMP: BTMO","meanRos_ug_m3","No","Undetermined","Missouri","Not in a city","Rural","Bonne Terre","No","Formaldehyde","4.32113288963056","","","","","","","","","","","","",""
"29-510-0087","Formaldehyde","38.642857","-90.185059","SAINT LOUIS","","INDUSTRIAL","","SLCI PM25 SITE LOCATED AT 2ND & MOUND STREET.","meanRos_ug_m3","No","No Trend","Missouri","St. Louis","Urban And Center City","SLCI PM25 SITE LOCATED AT 2ND & MOUND STREET.","No","Formaldehyde","","","5.80357944575233","2.68196611659249","4.98782699775061","4.20916513963032","6.81632579835532","","","","","","",""
"29-510-0089","Formaldehyde","38.60183","-90.232891","SAINT LOUIS","","RESIDENTIAL","","UATMP: SLMO","meanRos_ug_m3","No","Undetermined","Missouri","St. Louis","Urban And Center City","UATMP: SLMO","No","Formaldehyde","5.15566144456771","","","","","","","","","","","","",""
"33-011-0020","Formaldehyde","42.995778","-71.462528","Manchester","","COMMERCIAL","","PEARL ST MUNICIPAL PARKING LOT","meanRos_ug_m3","No","Undetermined","New Hampshire","Manchester","Urban And Center City","PEARL ST MUNICIPAL PARKING LOT","No","Formaldehyde","3.77267674052245","2.50669179212789","4.13920686404942","","","","","","","","","","",""
"33-013-1003","Formaldehyde","43.177304","-71.462014","Pembroke","","RESIDENTIAL","","","meanRos_ug_m3","No","Undetermined","New Hampshire","Pembroke","Rural","","No","Formaldehyde","4.91779536359067","","","","","","","","","","","","",""
"33-013-1006","Formaldehyde","43.13246","-71.458246","Pembroke","","RESIDENTIAL","","PEMBROKE HIGHWAY DEPARTMENT","meanRos_ug_m3","No","Undetermined","New Hampshire","Suncook","Suburban","PEMBROKE HIGHWAY DEPARTMENT","No","Formaldehyde","5.68302759621579","","","","","","","","","","","","",""
"33-015-0014","Formaldehyde","43.075371","-70.748017","Portsmouth","","RESIDENTIAL","","PORTSMOUTH - PEIRCE ISLAND","meanRos_ug_m3","No","Undetermined","New Hampshire","Portsmouth","Urban And Center City","PORTSMOUTH - PEIRCE ISLAND","No","Formaldehyde","6.91927734958905","4.45234063651782","3.35608456872809","","","","","","","","","","",""
"33-019-0003","Formaldehyde","43.364518","-72.337867","Claremont","","RESIDENTIAL","","","meanRos_ug_m3","No","Undetermined","New Hampshire","Claremont","Urban And Center City","","No","Formaldehyde","3.06751081900778","2.42743147873937","3.79718241668387","","","","","","","","","","",""
"34-007-0002","Formaldehyde","39.934446","-75.125291","Camden","","INDUSTRIAL","","UATMP: CSNJ; Camden Spruce Street","meanRos_ug_m3","No","Undetermined","New Jersey","Camden","Urban And Center City","Camden Spruce Street","No","Formaldehyde","","","","","","","","","","","5.09774308880405","4.5982472025892","3.65032048583172","4.20281282043137"
"34-007-0003","Formaldehyde","39.923042","-75.097617","Camden","","RESIDENTIAL","","UATMP: CANJ","meanRos_ug_m3","No","No Trend","New Jersey","Camden","Suburban","CAMDEN LAB","No","Formaldehyde","0.563592944432089","8.35821233083988","4.39050027025094","3.60265268277782","3.87478796583686","","","","","","","","",""
"34-023-0006","Formaldehyde","40.472825","-74.422403","NOT IN A CITY","","AGRICULTURAL","","UATMP: NBNJ","meanRos_ug_m3","Yes","No Trend","New Jersey","North Brunswick Township","Rural","New Brunswick","No","Formaldehyde","3.27939097418127","6.09569391426111","5.51097037535066","2.69089135253493","2.22520153282907","1.53874572067302","2.62982984361041","1.70407656612336","2.76876364138789","1.88235935389338","2.30248268371711","","3.39149101175113",""
"34-023-0011","Formaldehyde","40.462182","-74.429439","NOT IN A CITY","","AGRICULTURAL","","Rutgers University","meanRos_ug_m3","No","Undetermined","New Jersey","East Brunswick","Rural","Rutgers University","No","Formaldehyde","","","","","","","","","","","","","","2.51616170910331"
"34-027-3001","Formaldehyde","40.787628","-74.676301","NOT IN A CITY","","AGRICULTURAL","","UATMP: CHNJ","meanRos_ug_m3","Yes","No Trend","New Jersey","Chester","Rural","Chester","No","Formaldehyde","3.20143784071608","3.44130116770076","2.46095226081981","1.92263733660546","2.36936980368845","2.28760376036814","2.45003474273153","1.6363738431165","2.37632370439675","2.48062249129323","2.15585848698932","2.09248753497676","","2.21999288292004"
"34-039-0004","Formaldehyde","40.64144","-74.208365","Elizabeth","","INDUSTRIAL","","UATMP: ELNJ; NADP: NJ54","meanRos_ug_m3","Yes","No Trend","New Jersey","Elizabeth","Suburban","Elizabeth Lab","No","Formaldehyde","4.09815427383615","4.76077656214961","4.89296644616686","4.59040142199043","4.83864912645497","3.31714850655195","3.9118482218221","4.58738855692413","3.55642060338818","4.00169167730525","5.05186132271188","4.6001492720567","4.49605474928892","4.5847572407833"
"36-001-0013","Formaldehyde","42.640931","-73.756511","Albany","","RESIDENTIAL","","","meanRos_ug_m3","No","Undetermined","New York","Not in a city","Urban And Center City","","No","Formaldehyde","","","","","","","","","","","","","2.64370651549886","2.1615111145193"
"36-005-0083","Formaldehyde","40.86585","-73.88083","New York City","","COMMERCIAL","","UATMP: BXNY","meanRos_ug_m3","No","Undetermined","New York","New York","Urban And Center City","BOTANICAL GARDEN","No","Formaldehyde","","","1.46442764490852","2.38312717615321","","","","","","","","","",""
"36-005-0133","Formaldehyde","40.8679","-73.87809","NEW YORK CITY","","COMMERCIAL","","PFIZER LAB SITE; NADP: NY06","meanRos_ug_m3","No","No Trend","New York","New York","Urban And Center City","PFIZER LAB SITE","No","Formaldehyde","","","","","2.09529153847141","2.27468779336358","2.00816152922496","2.61320052571902","1.95414252682721","2.66908207369329","2.34772081954112","2.71444093851426","2.86174431279705","2.16800515266011"
"36-029-0023","Formaldehyde","42.921107","-78.765825","Cheektowaga","","MOBILE","","","meanRos_ug_m3","No","Undetermined","New York","Cheektowaga","Urban And Center City","","No","Formaldehyde","","","","","","","","","","","","","2.6186675375271","2.40477605327515"
"36-029-1013","Formaldehyde","42.98844","-78.91859","Tonawanda","","INDUSTRIAL","","UATMP: TONY; GRAND ISLE BOULDVARD","meanRos_ug_m3","No","Increasing","New York","Tonawanda","Urban And Center City","GRAND ISLE BOULDVARD","No","Formaldehyde","","","","","","1.66234911765492","1.35559244305723","1.38801694103181","1.27825050936004","2.04800125885635","1.99421545456849","3.02726796485276","2.12900042842235","4.5601389051774"
"36-029-1014","Formaldehyde","42.99813","-78.89926","Tonawanda","","RESIDENTIAL","","BROOKSIDE TERRACE","meanRos_ug_m3","No","No Trend","New York","Tonawanda","Suburban","BROOKSIDE TERRACE","No","Formaldehyde","","","","","","1.65725255806341","1.31475083977512","1.44375072944009","1.33114368061197","2.48523623855848","","","5.61244346550383","2.26670589687951"
"36-031-0003","Formaldehyde","44.39308","-73.8589","SUNY","","FOREST","","WHITEFACE BASE","meanRos_ug_m3","Yes","No Trend","New York","Not in a city","Rural","WHITEFACE BASE","No","Formaldehyde","","","0.400852694762935","4.29296790610334","1.11632336154783","0.946883894982356","","0.988148654054771","0.966045105750934","1.11582405771583","1.13045715642199","0.859992205855456","1.15844738619022","1.82960032043926"
"36-055-0015","Formaldehyde","43.145013","-77.55728","Rochester","","MOBILE","","","meanRos_ug_m3","No","Undetermined","New York","Rochester","Urban And Center City","","No","Formaldehyde","","","","","","","","","","","","","3.34954298915919","2.72324462988512"
"36-061-0077","Formaldehyde","40.75623","-73.97657","NEW YORK CITY","","COMMERCIAL","","MIDTOWN","meanRos_ug_m3","No","Undetermined","New York","New York","Urban And Center City","MADISON AVE","No","Formaldehyde","","","3.18353667692193","2.78144001912217","3.12845684034045","","","","","","","","",""
"36-081-0097","Formaldehyde","40.75527","-73.75861","New York City","","RESIDENTIAL","","QUEENSBORO COMMUNITY COLLEGE","meanRos_ug_m3","No","Undetermined","New York","New York","Urban And Center City","QUEENSBORO COMMUNITY COLLEGE","No","Formaldehyde","","","","","","","","","","","","","",""
"36-081-0124","Formaldehyde","40.73614","-73.82153","New York City","","COMMERCIAL","","PM Supersite: Queensborough","meanRos_ug_m3","Yes","No Trend","New York","New York","Urban And Center City","QUEENS COLLEGE 2","No","Formaldehyde","","","2.81808408727022","2.50965073755391","2.20984991553203","2.41892370666787","","2.60420369015356","1.99292031801507","2.41237498684118","3.3052805576095","2.18867247688154","4.47941537863844","3.08561918741509"
"36-085-0106","Formaldehyde","40.57811","-74.1843","New York City","","INDUSTRIAL","","UNLOADING ZONE FRESHKILLLS LANDFILL","meanRos_ug_m3","No","Undetermined","New York","New York","Urban And Center City","UNLOADING ZONE FRESHKILLLS LANDFILL","No","Formaldehyde","2.48777303327524","","","","","","","","","","","","",""
"36-085-0111","Formaldehyde","40.58027","-74.19832","New York City","","COMMERCIAL","","FRESHKILLS WEST","meanRos_ug_m3","Yes","No Trend","New York","New York","Suburban","FRESHKILLS WEST","No","Formaldehyde","2.90061007907525","","6.35055705547334","2.28214627014153","2.75451625756139","2.5551418810736","17.7496081129959","9.12990160009325","2.52711226595129","2.38365101747354","2.36405849086837","2.01211056057421","2.56065231771657","2.84646546279209"
"36-085-0131","Formaldehyde","40.58806","-74.16882","New York City","","INDUSTRIAL","","FRESHKILLS EAST","meanRos_ug_m3","No","Undetermined","New York","New York","Urban And Center City","FRESHKILLS EAST","No","Formaldehyde","3.88655170980909","","","","","","","","","","","","",""
"36-085-0132","Formaldehyde","40.58056","-74.15178","New York City","","COMMERCIAL","","LATOURETTE GOLF COURSE","meanRos_ug_m3","No","No Trend","New York","New York","Suburban","LATOURETTE GOLF COURSE","No","Formaldehyde","","","10.8105844491097","4.98268332694442","1.53046396849219","2.56737948845064","","3.74628049240746","3.22640943630271","1.9638680147903","","","",""
"37-021-0035","Formaldehyde","35.57222","-82.55889","ASHEVILLE","","COMMERCIAL","","AB Tech","meanRos_ug_m3","No","Undetermined","North Carolina","Asheville","Suburban","AB Tech","No","Formaldehyde","","","","","3.4289685526561","2.86236370590818","2.07235748811165","","","","","","",""
"37-063-0014","Formaldehyde","35.892868","-78.876445","DURHAM","","COMMERCIAL","","UATMP: RTPNC; NADP: NC99","meanRos_ug_m3","No","Undetermined","North Carolina","Not in a city","Suburban","UATMP: RTPNC; NADP: NC99","No","Formaldehyde","","","1.56115492572913","3.07564066433713","3.01898455207408","5.52495762502262","","","","","","","",""
"37-067-0022","Formaldehyde","36.110693","-80.226438","WINSTON-SALEM","","RESIDENTIAL","","Hattie Avenue","meanRos_ug_m3","No","Undetermined","North Carolina","Winston-Salem","Urban And Center City","Hattie Avenue","No","Formaldehyde","","","","","3.89480076500698","3.04410806801176","2.78394596527652","","","","","","",""
"37-105-0002","Formaldehyde","35.4325","-79.2887","Sanford","","AGRICULTURAL","","Blackstone","meanRos_ug_m3","No","Undetermined","North Carolina","Sanford","Rural","Blackstone","No","Formaldehyde","","","","","","","","","","","","1.86183390231076","2.47297931487161","2.58346370579785"
"37-119-0041","Formaldehyde","35.2401","-80.785683","Charlotte","","RESIDENTIAL","","Garinger High School","meanRos_ug_m3","No","Undetermined","North Carolina","Charlotte","Urban And Center City","Garinger High School","No","Formaldehyde","","","","","","4.25918717025869","3.66880034070278","","","","","","",""
"37-123-0001","Formaldehyde","35.2632","-79.836613","Candor","","FOREST","","UATMP: CANC","meanRos_ug_m3","No","No Trend","North Carolina","Candor","Rural","Candor: EPA CASTNet Site","No","Formaldehyde","","1.93027372966701","1.18845647772398","2.12607284786533","2.31049971175071","2.31273723198647","","","","","","1.91450823029197","2.34293379118551","2.41275310881396"
"37-129-0010","Formaldehyde","34.23583","-77.9547","WILMINGTON","","AGRICULTURAL","","BATTLESHIP","meanRos_ug_m3","No","Undetermined","North Carolina","Wilmington","Rural","Battleship Museum","No","Formaldehyde","","","","","2.34307285207161","1.83484383211983","1.65800027155299","","","","","","",""
"37-183-0014","Formaldehyde","35.856111","-78.574167","RALEIGH","","RESIDENTIAL","","Millbrook Middle School","meanRos_ug_m3","No","No Trend","North Carolina","Raleigh","Suburban","Millbrook School","No","Formaldehyde","","","","","3.57958935924465","","2.53081809182713","","","","","2.50608083623792","3.02338804008641","3.06871034252039"
"38-057-0004","Formaldehyde","47.298611","-101.766944","Beulah","","AGRICULTURAL","","UATMP: BUND","meanRos_ug_m3","No","Undetermined","North Dakota","Not in a city","Rural","BEULAH NORTH","No","Formaldehyde","","","","","","","","","","","","","",""
"39-049-0034","Formaldehyde","40.002734","-82.994404","Columbus","","COMMERCIAL","","UATMP: COOH","meanRos_ug_m3","No","Undetermined","Ohio","Columbus","Urban And Center City","FAIRGNDS","No","Formaldehyde","","","","","","2.9054116008112","","","","","","","",""
"40-017-0101","Formaldehyde","35.479215","-97.751503","Yukon","","COMMERCIAL","","UATMP: YUOK; OKC WEST-(YUKON)","meanRos_ug_m3","No","Undetermined","Oklahoma","Yukon","Suburban","OKC WEST-(YUKON)","No","Formaldehyde","","","","","","","","","","","","2.8569009859851","2.63297996790319","2.55822419677828"
"40-051-0065","Formaldehyde","34.877064","-97.707801","","","RESIDENTIAL","","","meanRos_ug_m3","No","Undetermined","Oklahoma","Bradley","Rural","","No","Formaldehyde","","","","","","","","","","","","","4.80232304277724","2.02012629881593"
"40-097-0187","Formaldehyde","36.292941","-95.303409","PRYOR","","INDUSTRIAL","","UATMP: PROK","meanRos_ug_m3","No","Undetermined","Oklahoma","Pryor Creek (corporate name for Pryor)","Suburban","UATMP: PROK","No","Formaldehyde","","","","","","","7.91384931875633","2.61558590185816","3.79177525861325","3.51456538268702","","","",""
"40-109-0041","Formaldehyde","35.437641","-97.387254","MIDWEST CITY","","COMMERCIAL","","UATMP:MWOK","meanRos_ug_m3","No","Undetermined","Oklahoma","Midwest City","Urban And Center City","UATMP:MWOK","No","Formaldehyde","","","","","","","","2.48485411532289","3.8996708128165","","","","",""
"40-109-0042","Formaldehyde","35.380316","-97.40572","Oklahoma City","","COMMERCIAL","","UATMP: ADOK","meanRos_ug_m3","No","Undetermined","Oklahoma","Oklahoma City","Urban And Center City","ADOK","No","Formaldehyde","","","","","","","","","","2.98637815757444","","","",""
"40-109-1037","Formaldehyde","35.614131","-97.475083","OKLAHOMA CITY","","RESIDENTIAL","","UATMP: OCOK","meanRos_ug_m3","No","No Trend","Oklahoma","Oklahoma City","Suburban","OKC NORTH","No","Formaldehyde","","","","","","","","2.42436347553071","3.89278441789649","3.37495015016663","2.57374509193644","2.55152548874586","3.05584330577308","2.63678233722021"
"40-143-0172","Formaldehyde","36.164528","-95.985479","TULSA","","RESIDENTIAL","","UATMP: TSOK","meanRos_ug_m3","No","Undetermined","Oklahoma","Tulsa","Suburban","EMMERSON SCHOOL","No","Formaldehyde","","","","","2.99993572124741","2.7923092810989","","","","","","","",""
"40-143-0179","Formaldehyde","36.15483","-96.015845","Tulsa","","INDUSTRIAL","","UATMP: TROK","meanRos_ug_m3","No","Undetermined","Oklahoma","Tulsa","Urban And Center City","UATMP: TROK","No","Formaldehyde","","","","","","","","","","","2.75944341497219","2.7750946303507","2.64590546266022","2.88910133788424"
"40-143-0191","Formaldehyde","36.141697","-95.983793","TULSA","","RESIDENTIAL","","UATMP: TUOK","meanRos_ug_m3","No","Undetermined","Oklahoma","Tulsa","Urban And Center City","CINCINNATI","No","Formaldehyde","","","","","3.23809219601143","2.74463905913708","","","","","","","",""
"40-143-0235","Formaldehyde","36.126945","-95.998941","TULSA","","INDUSTRIAL","","UATMP: TOOK","meanRos_ug_m3","No","No Trend","Oklahoma","Tulsa","Urban And Center City","CENTER OF PARKING LOT OF PUBLIC WORKS BUILDING 1/4 MI N OF SINCLAIR","No","Formaldehyde","","","","3.65643514420719","2.98961847755296","2.95109252707816","2.71862357046292","3.11135071286058","3.67663855799737","3.3834551421614","2.85954686828255","2.9369437456766","2.81197161659651","3.30057674583239"
"40-143-1127","Formaldehyde","36.204902","-95.976537","Tulsa","","RESIDENTIAL","","UATMP: TMOK","meanRos_ug_m3","No","No Trend","Oklahoma","Tulsa","Urban And Center City","NORTH TULSA - FIRE STATION#24","No","Formaldehyde","","","","","","","3.43778050515456","3.33746589580548","3.85629608214515","3.58241947412304","3.19785284435604","3.41895535301955","2.69840965945692","3.12991906380669"
"41-029-0133","Formaldehyde","42.31411","-122.87923","MEDFORD","","RESIDENTIAL","","Medford - Grant & Belmont Sts. (MGB)","meanRos_ug_m3","No","Undetermined","Oregon","Medford","Urban And Center City","Medford - Grant & Belmont Sts. (MGB)","No","Formaldehyde","","","","","","2.36807379636051","2.13746816523139","1.66129430022823","","","","","",""
"41-029-1001","Formaldehyde","42.535958","-122.876155","CENTRAL POINT","","AGRICULTURAL","","","meanRos_ug_m3","No","Undetermined","Oregon","Central Point","Rural","","No","Formaldehyde","","","","","","1.8315544075985","","","","","","","",""
"41-029-2129","Formaldehyde","42.33155","-122.880266","Medford","","RESIDENTIAL","","","meanRos_ug_m3","No","Undetermined","Oregon","Medford","Urban And Center City","","No","Formaldehyde","","","","","","","","","","3.19517513979854","","","",""
"41-035-0004","Formaldehyde","42.190296","-121.731369","Klamath Falls","","RESIDENTIAL","","PETERSON ELEM","meanRos_ug_m3","No","Undetermined","Oregon","Altamont","Suburban","Klamath Falls - Peterson School","No","Formaldehyde","","","","","","","","","2.4877334892589","","","","",""
"41-039-0060","Formaldehyde","44.026312","-123.083737","Eugene","","RESIDENTIAL","","Eugene - AMAZON PARK (EAP)","meanRos_ug_m3","No","Decreasing","Oregon","Eugene","Urban And Center City","Eugene - AMAZON PARK (EAP)","No","Formaldehyde","4.7068650462011","2.89652005993402","1.87226795515591","1.75640112533836","1.49586897721244","1.47677016716491","","1.56765546640349","","","","","",""
"41-039-0062","Formaldehyde","44.0729","-123.1615","EUGENE","","RESIDENTIAL","","","meanRos_ug_m3","No","Undetermined","Oregon","Eugene","Urban And Center City","","No","Formaldehyde","","","","","","","","1.9460844494377","","","","","",""
"41-047-0041","Formaldehyde","44.943114","-123.005934","SALEM","","RESIDENTIAL","","Salem - State Hospital","meanRos_ug_m3","No","Undetermined","Oregon","Salem","Urban And Center City","Salem - State Hospital","No","Formaldehyde","","","","","","","1.53204832057667","","","","","","",""
"41-051-0030","Formaldehyde","45.49742","-122.67467","PORTLAND","","RESIDENTIAL","","","meanRos_ug_m3","No","Undetermined","Oregon","Portland","Suburban","","No","Formaldehyde","","","2.17782440988119","","","","","","","","","","",""
"41-051-0080","Formaldehyde","45.496641","-122.602877","Portland","","RESIDENTIAL","","Portland - SE Lafayette","meanRos_ug_m3","No","Undetermined","Oregon","Portland","Suburban","Portland - SE Lafayette","No","Formaldehyde","","","2.15050382188899","","","","","","","","","","",""
"41-051-0244","Formaldehyde","45.535","-122.698889","Portland","","COMMERCIAL","","UATMP: PNW","meanRos_ug_m3","No","Undetermined","Oregon","Portland","Urban And Center City","SE CORNER OF P.O. PARKING LOT AND SW CORNER OF NEIGHBORING BUILDING","No","Formaldehyde","","2.74356643789526","2.39818729533706","","","","","","","","","","",""
"41-051-2001","Formaldehyde","45.577175","-122.71775","Portland","","RESIDENTIAL","","PNS","meanRos_ug_m3","No","Undetermined","Oregon","Portland","Urban And Center City","PNS","No","Formaldehyde","","","","","","","","","","","","","2.10653954238374",""
"41-067-0004","Formaldehyde","45.528501","-122.972398","Hillsboro","","RESIDENTIAL","","Hillsboro - Hare Field","meanRos_ug_m3","No","Undetermined","Oregon","Hillsboro","Suburban","Hillsboro - Hare Field","No","Formaldehyde","","","","","","","","","","","1.68713261279412","1.82384792128333","",""
"41-067-0111","Formaldehyde","45.470191","-122.816411","BEAVERTON","","RESIDENTIAL","","Beaverton - Highland Park","meanRos_ug_m3","No","Undetermined","Oregon","Beaverton","Urban And Center City","Beaverton - Highland Park","No","Formaldehyde","","","1.65898542692213","","","","","","","","","","",""
"42-003-0002","Formaldehyde","40.499767","-80.071337","Avalon","","RESIDENTIAL","","Avalon","meanRos_ug_m3","No","Undetermined","Pennsylvania","Avalon","Suburban","Avalon","No","Formaldehyde","","","","2.57719018751392","2.57599316057729","","","","","","","","",""
"42-003-0031","Formaldehyde","40.443367","-79.990293","PITTSBURGH","","COMMERCIAL","","PITTSBURGH","meanRos_ug_m3","Yes","No Trend","Pennsylvania","Pittsburgh","Urban And Center City","Flag Plaza","No","Formaldehyde","2.13609817276401","1.81618569695025","1.99892939631452","2.06259729928886","1.75669030442502","2.00238419040401","1.81155467044599","2.25065216012929","2.23409337883413","2.26067339531128","1.82079084191591","1.89844908146366","2.42136404923579","2.38144402799397"
"42-003-0067","Formaldehyde","40.375644","-80.169943","South Fayette","","RESIDENTIAL","","South Fayette","meanRos_ug_m3","No","Undetermined","Pennsylvania","McDonald","Suburban","South Fayette","No","Formaldehyde","","","","","2.07968613749637","","","","","","","","",""
"42-071-0007","Formaldehyde","40.046667","-76.283333","Lancaster City","","INDUSTRIAL","","A420710007LAT/LON POINT AT CORNER OF TRAILER","meanRos_ug_m3","No","No Trend","Pennsylvania","Lancaster","Suburban","A420710007LAT/LON POINT AT CORNER OF TRAILER","No","Formaldehyde","1.55722809184364","1.80831997097747","1.85921715202058","","1.75253407271028","2.00986968685951","1.75910102465212","1.96563387162643","1.42224193279897","1.86567053603295","","","",""
"42-101-0004","Formaldehyde","40.008889","-75.09778","Philadelphia","","RESIDENTIAL","","Air Management Services Laboratory (AMS LAB)","meanRos_ug_m3","Yes","No Trend","Pennsylvania","Philadelphia","Urban And Center City","Air Management Services Laboratory (AMS LAB)","No","Formaldehyde","2.83275316581256","","3.03379424149177","2.67794703604132","3.17998796171692","3.09619920299267","2.46152678600001","2.82396495572137","1.95390752801477","1.69691828902289","2.86418430812451","2.05511556795223","3.44745983333265","3.74368597388787"
"42-101-0014","Formaldehyde","40.049616","-75.240822","PHILADELPHIA","","RESIDENTIAL","","Roxborough (ROX)","meanRos_ug_m3","Yes","No Trend","Pennsylvania","Philadelphia","Suburban","Roxborough (ROX)","No","Formaldehyde","","1.16151257400502","1.74364601422717","6.40423578595012","6.63283404487876","8.39641671096882","","1.96704236649754","1.39053165581824","1.09238745528776","1.59870351920866","1.72887002444306","2.7031597460097","4.88593088233952"
"42-101-0047","Formaldehyde","39.944651","-75.165206","Philadelphia","","RESIDENTIAL","","COMMUNITY HEALTH SERVICES (CHS)","meanRos_ug_m3","Yes","No Trend","Pennsylvania","Philadelphia","Urban And Center City","COMMUNITY HEALTH SERVICES (CHS)","No","Formaldehyde","","3.55020005506018","2.8457556046225","2.66667933404107","2.80117830684825","2.40385336021249","2.224698427088","2.95925062217231","1.86874703156085","1.57287615916165","24.2337749350539","1.63281704465663","2.54790191886707",""
"42-101-0055","Formaldehyde","39.922867","-75.186921","PHILADELPHIA","","RESIDENTIAL","","Ritner (RIT); Philadelphia Air Toxics Study: Passive  Sampler Location 3","meanRos_ug_m3","No","No Trend","Pennsylvania","Philadelphia","Urban And Center City","Ritner (RIT)","No","Formaldehyde","","","","2.27253690811796","2.57635482882431","2.44730380218992","2.38915244210908","2.72556344779296","1.62343852100178","1.30565004376038","2.65527433745545","2.8578157083107","3.82805146846168","3.97581636383615"
"42-101-0063","Formaldehyde","39.88294","-75.21965","NOT IN A CITY","","INDUSTRIAL","","SW WASTE TREATMENT PLANT","meanRos_ug_m3","No","No Trend","Pennsylvania","Philadelphia","Urban And Center City","SW WASTE TREATMENT PLANT","No","Formaldehyde","","","","","","","","2.74435197155322","2.56617786415432","1.42955205040621","2.00975539409117","2.24322332123211","3.19688466655998","3.29768283205923"
"42-101-0136","Formaldehyde","39.927613","-75.222403","Philadelphia","","RESIDENTIAL","","ON AMTRAK RIGHT OF WAY - NEAR AIRPORT HI SPEED LINE (ELECTRIFIED)","meanRos_ug_m3","No","No Trend","Pennsylvania","Philadelphia","Urban And Center City","ON AMTRAK RIGHT OF WAY - NEAR AIRPORT HI SPEED LINE (ELECTRIFIED)","No","Formaldehyde","4.72701064246437","2.76142043001167","6.89557612795183","8.00958763940559","2.37147601436378","2.6215336960487","","","","","","","",""
"44-003-0015","Formaldehyde","41.715811","-71.43755","WARWICK","","RESIDENTIAL","","Field View","meanRos_ug_m3","No","Undetermined","Rhode Island","Warwick (RR name Apponaug)","Suburban","Field View","No","Formaldehyde","","","4.02177943781286","","","","","","","","","","",""
"44-007-0029","Formaldehyde","41.816535","-71.437401","PROVIDENCE","","RESIDENTIAL","","Bridgham School site","meanRos_ug_m3","No","Undetermined","Rhode Island","Providence","Urban And Center City","Bridgham School site","No","Formaldehyde","","2.98504640748638","","","","","","","","","","","",""
"44-007-1010","Formaldehyde","41.841039","-71.36097","East Providence","","RESIDENTIAL","","PILOT CITY: East Providence","meanRos_ug_m3","Yes","No Trend","Rhode Island","East Providence","Suburban"," FRANCIS SCHOOL East Providence","No","Formaldehyde","1.77427624475975","1.81512198581875","2.00745458602415","2.21121296580852","2.6794929559385","3.40040042494973","2.84379305696975","2.5241598402879","2.6158131977214","2.86736140328101","1.86325217265613","1.91036077678818","2.30410481376406","2.45180583070159"
"45-001-0001","Formaldehyde","34.325318","-82.386376","DUE WEST","","AGRICULTURAL","","DUE WEST","meanRos_ug_m3","No","Undetermined","South Carolina","Due West","Rural","DUE WEST","No","Formaldehyde","","","","","","","","","","","","","",""
"45-037-0001","Formaldehyde","33.739963","-81.853635","NOT IN A CITY","","AGRICULTURAL","","TRENTON","meanRos_ug_m3","No","Undetermined","South Carolina","Not in a city","Rural","TRENTON","No","Formaldehyde","","","","","","","","","","","","","",""
"45-047-0003","Formaldehyde","34.212869","-82.173149","GREENWOOD","","COMMERCIAL","","MERRYWOOD","meanRos_ug_m3","No","Undetermined","South Carolina","Greenwood","Suburban","MERRYWOOD","No","Formaldehyde","","","","","","","","","","","","","",""
"45-049-0001","Formaldehyde","32.875572","-81.115305","NOT IN A CITY","","COMMERCIAL","","HAMPTON I","meanRos_ug_m3","No","Undetermined","South Carolina","Not in a city","Urban And Center City","HAMPTON I","No","Formaldehyde","","","","","","","","","","","","","",""
"45-049-0002","Formaldehyde","32.881347","-81.108251","NOT IN A CITY","","COMMERCIAL","","HAMPTON II","meanRos_ug_m3","No","Undetermined","South Carolina","Not in a city","Urban And Center City","HAMPTON II","No","Formaldehyde","","","","","","","","","","","","","",""
"45-063-0008","Formaldehyde","34.051017","-81.15495","Irmo","","COMMERCIAL","","IRMO","meanRos_ug_m3","Yes","No Trend","South Carolina","Seven Oaks","Suburban","IRMO","No","Formaldehyde","3.33117349670946","3.17740069593242","3.35132425443602","4.28187391398174","3.94260194083642","3.27248598515755","","4.25429806867252","4.29998787317374","5.11564200267164","8.30140295060917","8.94066198618839","3.36362698028945","3.56465893380708"
"45-079-0007","Formaldehyde","34.093959","-80.962304","NOT IN A CITY","","COMMERCIAL","","PARKLANE","meanRos_ug_m3","No","Undetermined","South Carolina","Dentsville (Dents)","Suburban","PARKLANE","No","Formaldehyde","","","","","","","","","","","","","",""
"45-079-0013","Formaldehyde","34.014443","-81.0417","Wardlaw","","COMMERCIAL","","WARDLAW","meanRos_ug_m3","No","Undetermined","South Carolina","Columbia","Urban And Center City","WARDLAW School","No","Formaldehyde","","","","","","","","","","","","","",""
"45-079-0020","Formaldehyde","34.015494","-81.034179","Columbia","","COMMERCIAL","","STATE HOSPITAL","meanRos_ug_m3","Yes","No Trend","South Carolina","Columbia","Urban And Center City","STATE HOSPITAL","No","Formaldehyde","9.73257151434125","9.68703222531567","6.69228664743717","5.34356811363468","5.50534347376424","5.2313735447133","4.65402966039516","5.07828282470555","4.68187787966275","4.3687350229714","7.05982966812384","8.78974007913871","5.1434198159861","6.80699729798557"
"45-079-1002","Formaldehyde","34.132628","-80.876002","NOT IN A CITY","","AGRICULTURAL","","SANDHILL","meanRos_ug_m3","No","Undetermined","South Carolina","Not in a city","Rural","SANDHILL","No","Formaldehyde","","","","","","","","","","","","","",""
"46-033-0003","Formaldehyde","43.768683","-103.584732","NOT IN A CITY","","RESIDENTIAL","","UATMP: CUSD","meanRos_ug_m3","No","No Trend","South Dakota","Not in a city","Suburban","UATMP: CUSD","No","Formaldehyde","2.43605624321465","2.27489309273432","1.49937127912488","0.962971495906775","1.74772253796643","1.73183762870494","","","","","","","",""
"46-099-0007","Formaldehyde","43.537626","-96.682001","Sioux Falls","","RESIDENTIAL","","UATMP: SFSD","meanRos_ug_m3","No","No Trend","South Dakota","Sioux Falls","Urban And Center City","NEAR HILLTOP WATERTOWER","No","Formaldehyde","3.2257391945387","2.85627877117872","4.0389720782993","3.51975477457861","3.76594228897838","","","","","","","","",""
"46-099-0008","Formaldehyde","43.54792","-96.700769","SIOUX FALLS","","COMMERCIAL","","UATMP: SSSD; SD School for the Deaf","meanRos_ug_m3","No","Decreasing","South Dakota","Sioux Falls","Urban And Center City","SD School for the Deaf","No","Formaldehyde","","","","","","2.98643532103077","2.25137298580311","2.18256852992527","1.97258187266146","1.81970733532529","","","",""
"46-127-0001","Formaldehyde","42.751518","-96.707208","NOT IN A CITY","","AGRICULTURAL","","UATMP: UCSD; Union County #1 Jensen","meanRos_ug_m3","No","Undetermined","South Dakota","Not in a city","Rural","Union County #1 Jensen","No","Formaldehyde","","","","","","","6.03514789921873","2.38003360651338","1.50656433549318","","","","",""
"47-037-0011","Formaldehyde","36.205055","-86.74472","Nashville","","RESIDENTIAL","","UATMP: EATN","meanRos_ug_m3","No","Undetermined","Tennessee","Nashville","Urban And Center City","East Health","No","Formaldehyde","3.61569466129459","","","","","","","","","","","","",""
"47-043-0010","Formaldehyde","36.059907","-87.352381","DICKSON","","COMMERCIAL","","UATMP: DITN","meanRos_ug_m3","No","Undetermined","Tennessee","Dickson","Urban And Center City","UATMP: DITN","No","Formaldehyde","","","2.59811044645312","","","","","","","","","","",""
"47-105-0108","Formaldehyde","35.744539","-84.317057","Loudon","","RESIDENTIAL","","UATMP: LDTN; NADP: TN00","meanRos_ug_m3","No","No Trend","Tennessee","Loudon","Suburban","Loudon Pope site","No","Formaldehyde","","8.09492749374669","2.35896890819216","2.53427749006852","3.66072668192586","2.37247598978311","2.41265137077083","","","","","","",""
"47-105-0109","Formaldehyde","35.721095","-84.343035","LOUDON","","RESIDENTIAL","","UATMP: MSTN","meanRos_ug_m3","No","Undetermined","Tennessee","Loudon","Suburban","Loudon Middle School ozone monitor","No","Formaldehyde","","","","2.7559304579573","2.87876838671241","2.02270499347965","1.80101716094833","","","","","","",""
"47-157-0010","Formaldehyde","35.09583","-90.07006","MEMPHIS","","RESIDENTIAL","","UATMP: METN","meanRos_ug_m3","No","Undetermined","Tennessee","Memphis","Urban And Center City","UATMP: METN","No","Formaldehyde","","","","","","","2.71685807237469","","","","","","",""
