"site_id","parameter_desc","latitude","longitude","city_name","location","land_use_type","setting","site_name","stat","used_in_nat_agg","trend","state_name","city_name","location_setting","local_site_name","natts","toxic_name_alias","2008","2009","2010","2011","2012","2013","2014","2015","2016"
"01-073-5503","Naphthalene (total tsp & vapor)","33.5684","-86.8029","BIRMINGHAM","","COMMERCIAL","","Riggins School","meanRos_ug_m3","No","Undetermined","Alabama","Birmingham","Urban And Center City","Riggins School","No","Naphthalene","","","","","0.910803737377578","","","",""
"02-020-0018","Naphthalene (total tsp & vapor)","61.205861","-149.824602","ANCHORAGE","","RESIDENTIAL","","UATMP: ANAK","meanRos_ug_m3","No","Undetermined","Alaska","Anchorage","Suburban","GARDEN/TRINITY CHRISTIAN CHURCH","No","Naphthalene","","0.0912524753179122","","","","0.0639238529712063","","",""
"13-009-0001","Naphthalene (total tsp & vapor)","33.153413","-83.23569","Milledgeville","","RESIDENTIAL","","","meanRos_ug_m3","No","Undetermined","Georgia","Milledgeville","Rural","","No","Naphthalene","","","","","","","","",""
"13-021-0012","Naphthalene (total tsp & vapor)","32.805361","-83.543515","Macon","","INDUSTRIAL","","Macon SE","meanRos_ug_m3","No","Undetermined","Georgia","Macon","Rural","Macon-Forestry","No","Naphthalene","","","","","0.0286137814303389","0.015524615220068","0.0278117959518725","",""
"13-051-0021","Naphthalene (total tsp & vapor)","32.069183","-81.048747","Savannah","","COMMERCIAL","","Savannah-E. President Street","meanRos_ug_m3","No","Undetermined","Georgia","Savannah","Suburban","Savannah-E. President","No","Naphthalene","","","","","0.0216158985310811","0.0189949569688655","","0.019083650603434",""
"13-069-0002","Naphthalene (total tsp & vapor)","31.513127","-82.750011","Douglas","","AGRICULTURAL","","General Coffee","meanRos_ug_m3","No","No Trend","Georgia","Not in a city","Rural","General Coffee","No","Naphthalene","","","0.0077390907043885","","0.00926172855203098","0.0073302051077471","0.031343827665578","0.0147921548586654",""
"13-085-0001","Naphthalene (total tsp & vapor)","34.376307","-84.059556","DAWSONVILLE","","UNKNOWN","","Dawsonville, Georgia Forestry Commission","meanRos_ug_m3","No","Undetermined","Georgia","Not in a city","Rural","Dawsonville","No","Naphthalene","","","","0.00977569801154473","0.0117883554880347","0.0110153097282071","0.0104314793215546","",""
"13-115-0004","Naphthalene (total tsp & vapor)","34.263312","-85.178723","Rome","","COMMERCIAL","","","meanRos_ug_m3","No","Undetermined","Georgia","Rome","Urban And Center City","","No","Naphthalene","","","","","","","","",""
"13-121-0020","Naphthalene (total tsp & vapor)","33.741253","-84.5527","Utoy Creek","","INDUSTRIAL","","Utoy Creek","meanRos_ug_m3","No","Undetermined","Georgia","Not in a city","Suburban","Utoy Creek","No","Naphthalene","","","","","","","","",""
"13-127-3001","Naphthalene (total tsp & vapor)","31.185187","-81.485166","Brunswick","","RESIDENTIAL","","","meanRos_ug_m3","No","Undetermined","Georgia","Brunswick","Suburban","","No","Naphthalene","","","","","","","","",""
"13-139-0003","Naphthalene (total tsp & vapor)","34.29933","-83.81341","GAINESVILLE","","RESIDENTIAL","","MONITOR LOCATED ON TOP OF SCHOOL","meanRos_ug_m3","No","Undetermined","Georgia","Gainesville","Suburban","Gainesville","No","Naphthalene","","","","","","","","",""
"13-153-0001","Naphthalene (total tsp & vapor)","32.605556","-83.598056","WARNER ROBINS","","COMMERCIAL","","LOCATED NEAR ROBBINS AIR FORCE BASE","meanRos_ug_m3","No","Undetermined","Georgia","Warner Robins","Suburban","Warner Robins","No","Naphthalene","","","","","","","","",""
"13-185-0003","Naphthalene (total tsp & vapor)","30.848056","-83.294444","VALDOSTA","","COMMERCIAL","","S.L. MASON ELEMENTARY SCHOOL","meanRos_ug_m3","No","Undetermined","Georgia","Valdosta","Suburban","Valdosta","No","Naphthalene","","","","","","","","",""
"13-215-5000","Naphthalene (total tsp & vapor)","32.503272","-84.942035","Columbus","","COMMERCIAL","","","meanRos_ug_m3","No","Undetermined","Georgia","Columbus (Remainder)","Suburban","","No","Naphthalene","","","","","","","","",""
"13-223-0003","Naphthalene (total tsp & vapor)","33.9285","-85.04534","Yorkville","","AGRICULTURAL","","PAMS: Yorkville (Near Rockmart)","meanRos_ug_m3","No","No Trend","Georgia","Not in a city","Rural","Yorkville, King Farm","No","Naphthalene","","","","0.0117922014006126","0.0123162787466508","0.0149716441581397","0.0110656579695515","0.0086820789251622","0.017864328163684"
"13-245-0092","Naphthalene (total tsp & vapor)","33.432353","-81.991372","Augusta","","INDUSTRIAL","","","meanRos_ug_m3","No","Undetermined","Georgia","Augusta-Richmond County (Remainder)","Suburban","","No","Naphthalene","","","","","","","","",""
"26-033-0901","Naphthalene (total tsp & vapor)","46.493633","-84.364207","SAULT STE MARIE","","RESIDENTIAL","","UATMP: ITCMI","meanRos_ug_m3","No","Undetermined","Michigan","Sault Ste. Marie","Rural","NORTH OF EASTERDAY AVENUE","No","Naphthalene","","","","","","","","",""
"34-003-0007","Naphthalene (total tsp & vapor)","40.817218","-74.043758","CARLSTADT","","INDUSTRIAL","","","meanRos_ug_m3","No","Undetermined","New Jersey","Carlstadt","Suburban","","No","Naphthalene","0.000205054379313586","","","","","","","",""
"34-003-0008","Naphthalene (total tsp & vapor)","40.816809","-74.043673","CARLSTADT","","INDUSTRIAL","","","meanRos_ug_m3","No","Undetermined","New Jersey","Carlstadt","Urban And Center City","","No","Naphthalene","0.000147685956279197","","","","","","","",""
"34-003-0009","Naphthalene (total tsp & vapor)","40.833111","-74.043459","CARLSTADT","","INDUSTRIAL","","","meanRos_ug_m3","No","Undetermined","New Jersey","Carlstadt","Urban And Center City","","No","Naphthalene","0.000617769792158232","","","","","","","",""
"36-029-1013","Naphthalene (total tsp & vapor)","42.98844","-78.91859","Tonawanda","","INDUSTRIAL","","UATMP: TONY; GRAND ISLE BOULDVARD","meanRos_ug_m3","No","Undetermined","New York","Tonawanda","Urban And Center City","GRAND ISLE BOULDVARD","No","Naphthalene","","0.642078894073226","","","","","","",""
"39-145-0020","Naphthalene (total tsp & vapor)","38.609338","-82.822512","FRANKLIN FURNACE","","FOREST","","BACK ROAD","meanRos_ug_m3","No","No Trend","Ohio","Franklin Furnace","Rural","BACK ROAD","No","Naphthalene","0.0254784335768478","0.0186726363595921","0.0279453340967176","0.0222908862261121","0.0192803524093711","","","",""
"39-145-0021","Naphthalene (total tsp & vapor)","38.600611","-82.829782","FRANKLIN FURNACE","","INDUSTRIAL","","","meanRos_ug_m3","No","Decreasing","Ohio","Franklin Furnace","Rural","","No","Naphthalene","0.0866237907079519","0.0477720631543472","0.0396999952631573","0.0385239836345458","0.0359636196097698","","","",""
"39-145-0022","Naphthalene (total tsp & vapor)","38.588034","-82.834973","FRANKLIN FURNACE","","INDUSTRIAL","","","meanRos_ug_m3","No","No Trend","Ohio","Franklin Furnace","Rural","","No","Naphthalene","0.0243901557469198","0.0248393018159976","0.0217624837914161","0.0259711592246506","0.0217081389463125","","","",""
"41-029-2129","Naphthalene (total tsp & vapor)","42.33155","-122.880266","Medford","","RESIDENTIAL","","","meanRos_ug_m3","No","Undetermined","Oregon","Medford","Urban And Center City","","No","Naphthalene","","","","","0.0686527982103004","","","",""
"41-039-0059","Naphthalene (total tsp & vapor)","44.067224","-123.141352","Eugene","","RESIDENTIAL","","Eugene - Hwy 99 (E99)","meanRos_ug_m3","No","Undetermined","Oregon","Eugene","Urban And Center City","Eugene - Hwy 99 (E99)","No","Naphthalene","","","","","","","","0.343321304706173",""
"41-039-0060","Naphthalene (total tsp & vapor)","44.026312","-123.083737","Eugene","","RESIDENTIAL","","Eugene - AMAZON PARK (EAP)","meanRos_ug_m3","No","Undetermined","Oregon","Eugene","Urban And Center City","Eugene - AMAZON PARK (EAP)","No","Naphthalene","","","","","","","","0.046583384616385",""
"41-051-2001","Naphthalene (total tsp & vapor)","45.577175","-122.71775","Portland","","RESIDENTIAL","","PNS","meanRos_ug_m3","No","Undetermined","Oregon","Portland","Urban And Center City","PNS","No","Naphthalene","","","","","","","","0.0295180432452505",""
"41-067-0004","Naphthalene (total tsp & vapor)","45.528501","-122.972398","Hillsboro","","RESIDENTIAL","","Hillsboro - Hare Field","meanRos_ug_m3","No","Undetermined","Oregon","Hillsboro","Suburban","Hillsboro - Hare Field","No","Naphthalene","","","","","","0.0541170337772097","0.0490210612281997","",""
"48-061-0006","Naphthalene (total tsp & vapor)","25.892518","-97.49383","Brownsville","","COMMERCIAL","","UATMP: BRTX","meanRos_ug_m3","Yes","No Trend","Texas","Brownsville","Urban And Center City","Brownsville","No","Naphthalene","0.0386935634391106","0.0371942876595512","0.041907961783527","0.0464340576838337","0.0359642327037326","0.0372217645027418","0.0402337666235429","0.0514144027694872","0.0471404234689834"
"48-141-0053","Naphthalene (total tsp & vapor)","31.758532","-106.501045","El Paso","","COMMERCIAL","","El Paso Sun Metro","meanRos_ug_m3","No","No Trend","Texas","El Paso","Urban And Center City","El Paso Sun Metro","No","Naphthalene","0.179892742608037","0.197766305197617","0.285786479616563","0.215961725408363","0.142213338194294","","","",""
"48-141-0057","Naphthalene (total tsp & vapor)","31.6675","-106.288","Socorro","","RESIDENTIAL","","SOCORRO","meanRos_ug_m3","No","Undetermined","Texas","El Paso","Suburban","Socorro Hueco","No","Naphthalene","","","","","","0.0373388611612279","0.0299896936746941","0.0375208753492982","0.0393428589736067"
"48-215-0042","Naphthalene (total tsp & vapor)","26.309858","-98.183101","Edinburg","","RESIDENTIAL","","Edinburg","meanRos_ug_m3","No","Undetermined","Texas","Edinburg","Urban And Center City","Edinburg","No","Naphthalene","0.03747443056335","","","","","","","",""
"48-215-0043","Naphthalene (total tsp & vapor)","26.22621","-98.291069","Mission","","RESIDENTIAL","","Mission","meanRos_ug_m3","Yes","Decreasing","Texas","Mission","Suburban","Mission","No","Naphthalene","0.0412954580152876","0.0834170390973027","0.0381277133193517","0.0387340383631673","0.0328554562573913","0.0301948432781384","0.0274002465155489","0.0341957443287339","0.0282298859793192"
"48-215-1048","Naphthalene (total tsp & vapor)","26.131081","-97.937265","MERCEDES","","COMMERCIAL","","Mercedes","meanRos_ug_m3","No","Undetermined","Texas","Mercedes","Urban And Center City","Mercedes","No","Naphthalene","","0.0386226563895503","0.0401741577460228","0.0322918085182499","0.0337534005281797","","","",""
"48-479-0016","Naphthalene (total tsp & vapor)","27.517449","-99.515219","Laredo","","COMMERCIAL","","Laredo Border","meanRos_ug_m3","No","Undetermined","Texas","Laredo","Suburban","Laredo Vidaurri","No","Naphthalene","0.076555055212092","0.0545160728190164","0.0789169380304356","","","","","",""
"53-033-0057","Naphthalene (total tsp & vapor)","47.55975","-122.338265","SEATTLE","","INDUSTRIAL","","UATMP: CEWA","meanRos_ug_m3","No","Undetermined","Washington","Seattle","Suburban","SEATTLE - DUWAMISH","No","Naphthalene","","0.127727767257714","","","","","","",""
"53-053-0029","Naphthalene (total tsp & vapor)","47.1864","-122.4517","TACOMA","","COMMERCIAL","","UATMP: ESWA; TACOMA - L STREET","meanRos_ug_m3","No","Undetermined","Washington","Tacoma","Suburban","TACOMA - L STREET","No","Naphthalene","","0.12862562958939","","","","","","",""
"53-053-0031","Naphthalene (total tsp & vapor)","47.2656","-122.3858","TACOMA","","INDUSTRIAL","","UATMP: EQWA; TACOMA - ALEXANDER AVE","meanRos_ug_m3","No","Undetermined","Washington","Tacoma","Suburban","TACOMA - ALEXANDER AVE","No","Naphthalene","","0.123297827095206","","","","","","",""
"04-013-9997","Naphthalene (total tsp & vapor)","33.503833","-112.095767","Phoenix","Phoenix, AZ","RESIDENTIAL","Urban","UATMP: PXSS; NATTS: Phoenix, AZ; IMPROVE: PHOE1","meanRos_ug_m3","Yes","No Trend","Arizona","Phoenix","Urban And Center City","JLG SUPERSITE","Yes","Naphthalene","0.0821536728135029","0.117149329652979","0.0865656662213529","0.0875194948469005","0.0963508008244173","0.0921298863031817","0.0765694256117497","0.072941653887999",""
"06-037-1103","Naphthalene (total tsp & vapor)","34.06659","-118.22688","Los Angeles","Los Angeles, CA","RESIDENTIAL","Urban","UATMP: CELA; NATTS: Los Angeles, CA; MATES: Central Los Angeles","meanRos_ug_m3","Yes","Decreasing","California","Los Angeles","Urban And Center City","Los Angeles-North Main Street","Yes","Naphthalene","0.122344301887213","0.169643745959643","0.145796743499609","0.134208700687519","0.181829848348559","0.113383790329831","0.0889697907227793","0.0772730471585652","0.0792192928752056"
"06-065-8001","Naphthalene (total tsp & vapor)","33.99958","-117.41601","Rubidoux","Rubidoux, CA","RESIDENTIAL","Urban","UATMP: RUCA; NATTS: Rubidoux, CA; MATES: Rubidoux","meanRos_ug_m3","Yes","No Trend","California","Rubidoux","Suburban","Rubidoux","Yes","Naphthalene","0.0655372713047177","0.0856739018977962","0.084246062216668","0.0907421391589798","0.0970506990876704","0.0811308837527705","0.0745200484440375","0.0485226790958646","0.0632680046815102"
"06-085-0005","Naphthalene (total tsp & vapor)","37.348497","-121.894898","San Jose","San Jose, CA","COMMERCIAL","Urban","UATMP: SJCA; NATTS: San Jose, CA","meanRos_ug_m3","Yes","No Trend","California","San Jose","Urban And Center City","San Jose - Jackson","Yes","Naphthalene","","0.0841092667506382","0.0654332055810015","0.0832808489343949","0.072373030175435","0.0983567482964798","0.0617380311561432","0.0670747606092597","0.0565072440642927"
"08-077-0018","Naphthalene (total tsp & vapor)","39.064289","-108.56155","Grand Junction","Grand Junction, CO-18","COMMERCIAL","Urban","UATMP: GPCO; NATTS: Grand Junction, CO","meanRos_ug_m3","Yes","No Trend","Colorado","Grand Junction","Urban And Center City","GRAND JUNCTION - PITKIN","Yes","Naphthalene","0.098162551712566","0.177060946486925","0.129742704457314","0.138370769314541","0.178493519453756","0.123428964135262","0.0885781841909722","0.0797149487859404","0.0656769466236726"
"11-001-0043","Naphthalene (total tsp & vapor)","38.921847","-77.013178","Washington","Washington, DC","COMMERCIAL","Urban","UATMP: WADC; NATTS: Washington, D.C.","meanRos_ug_m3","Yes","Decreasing","District Of Columbia","Washington","Urban And Center City","MCMILLAN  NCore-PAMS","Yes","Naphthalene","","0.132531811798239","0.114040099714326","0.10540409360672","0.107506397144125","0.0857273106217888","0.0694877319325911","0.0626144220618704","0.0678794860007554"
"12-057-3002","Naphthalene (total tsp & vapor)","27.96565","-82.2304","Plant City","Tampa, FL","RESIDENTIAL","Urban","UATMP: SYFL; NATTS: Tampa, FL","meanRos_ug_m3","Yes","Decreasing","Florida","Valrico","Rural","SYDNEY","Yes","Naphthalene","0.0364955640324845","0.04155717538531","0.0439871801519328","0.0424187970186662","0.0370529673012991","0.0183765407345486","0.0122332000033101","0.0113213446569834","0.0166575158204461"
"12-103-0026","Naphthalene (total tsp & vapor)","27.850348","-82.714465","Pinellas Park","Pinellas County, FL","RESIDENTIAL","Urban","UATMP: SKFL; NATTS: Pinellas County, FL","meanRos_ug_m3","Yes","Decreasing","Florida","Pinellas Park","Suburban","Skyview","Yes","Naphthalene","0.0834311635531695","0.0934221613090331","0.0915210667297024","0.0827507530958746","0.0978376961980139","0.0695848038041676","0.0552005476604627","0.0362079846010811","0.0498340744217528"
"13-089-0002","Naphthalene (total tsp & vapor)","33.68808","-84.29018","Decatur","Atlanta, GA","RESIDENTIAL","Urban","UATMP: SDGA; NATTS: South DeKalb, GA; PAMS: South DeKalb; IMPROVE: ATLA1","meanRos_ug_m3","Yes","Decreasing","Georgia","Not in a city","Suburban","South DeKalb","Yes","Naphthalene","0.0825234570282797","0.104635341978726","0.128008441824525","0.0908294256030736","0.0746016573328507","0.0500017535532271","0.0458741619045245","0.0522928635795212","0.038452502568885"
"17-031-4201","Naphthalene (total tsp & vapor)","42.139996","-87.799227","Northbrook","Chicago, IL","RESIDENTIAL","Urban","UATMP: NBIL; NATTS: Chicago, IL","meanRos_ug_m3","Yes","No Trend","Illinois","Northbrook","Suburban","NORTHBROOK WATER PLANT","Yes","Naphthalene","","0.067639565070292","0.107159993005397","0.0997315799681185","0.07887432438447","0.15773633816537","0.110408998207834","0.0899202693511894","0.080584346981853"
"21-193-0003","Naphthalene (total tsp & vapor)","37.28329","-83.20932","Hazard/Grayson, KY","Hazard/Grayson, KY","RESIDENTIAL","Rural","UATMP: HAKY; NATTS: Hazard, KY","meanRos_ug_m3","Yes","No Trend","Kentucky","Hazard/Grayson, KY","Suburban","Hazard/Grayson, KY","Yes","Naphthalene","","0.0222825119042962","0.0235121471703762","0.0170569638390778","0.0170250538591975","0.0195123306570425","0.0141609735640431","0.0172498411398291","0.0161779929851242"
"25-025-0042","Naphthalene (total tsp & vapor)","42.3295","-71.0826","Boston","Roxbury, MA","COMMERCIAL","Urban","UATMP: BOMA; NATTS: Roxbury, MA","meanRos_ug_m3","Yes","Decreasing","Massachusetts","Boston","Urban And Center City","DUDLEY SQUARE ROXBURY","Yes","Naphthalene","","0.0729080031990197","0.0707100245568775","0.0627026858058551","0.0667390178176326","0.0567114996863892","0.0463792936838487","0.0428069988032555","0.0345562999903382"
"26-163-0033","Naphthalene (total tsp & vapor)","42.306674","-83.148754","Dearborn","Detroit, MI","INDUSTRIAL","Urban","UATMP: DEMI; NATTS: Detroit, MI; PILOT CITY: Dearborn","meanRos_ug_m3","Yes","No Trend","Michigan","Dearborn","Suburban","PROPERTY OWNED BY DEARBORN PUBLIC SCHOOLS","Yes","Naphthalene","0.139119114020385","0.124055813725289","0.140892676123538","0.145407098100887","0.144456821184241","0.107212701219698","0.120144637351362","0.119537397181","0.108745774946763"
"29-510-0085","Naphthalene (total tsp & vapor)","38.656429","-90.198348","SAINT LOUIS","St. Louis, MO","RESIDENTIAL","Urban","UATMP: S4MO; NATTS: St. Louis, MO","meanRos_ug_m3","Yes","Decreasing","Missouri","St. Louis","Urban And Center City","Blair Street","Yes","Naphthalene","0.132380598123062","0.0953125740524674","0.137764729681188","0.0857337795489856","0.112202639050624","0.0741980576705847","0.0836898030118347","0.0796991711929318","0.0746401937675816"
"36-005-0110","Naphthalene (total tsp & vapor)","40.816","-73.902","Bronx, NY","Bronx, NY","RESIDENTIAL","Urban","UATMP: BXNY; NATTS: Bronx (#1), NY; PM Supersite: Bronx; IMPROVE: NEYO1","meanRos_ug_m3","Yes","Decreasing","New York","Bronx, NY","Urban And Center City","Bronx, NY","Yes","Naphthalene","","0.138379261913386","","0.138665244807985","","0.131861464545165","0.105516913819823","0.117030662183644","0.0966853157548956"
"36-055-1007","Naphthalene (total tsp & vapor)","43.14618","-77.54817","Rochester","Rochester, NY","RESIDENTIAL","Urban","UATMP: ROCH; NATTS: Rochester, NY; NADP: NY43","meanRos_ug_m3","No","No Trend","New York","Rochester","Urban And Center City","ROCHESTER 2","Yes","Naphthalene","","","","0.0625028967257503","0.0621694508558018","0.0637558551691509","0.0588072588491419","0.05998226999499","0.0518150351202359"
"41-051-0246","Naphthalene (total tsp & vapor)","45.56137","-122.6679","Portland","Portland, OR","RESIDENTIAL","Urban","UATMP: PLOR; NATTS: Portland, OR","meanRos_ug_m3","Yes","No Trend","Oregon","Portland","Urban And Center City","WEST END OF ATHLETIC FIELD WITH N EMERSON N, N ROSELAWN S, N WILLIAM","Yes","Naphthalene","0.0733018340380706","0.0468886349838206","0.0524549786557959","0.0597173593574296","0.0485465519066983","0.0539961252781308","0.0418480213688603","0.0443846313662843",""
"41-061-0119","Naphthalene (total tsp & vapor)","45.339","-118.095206","La Grande","La Grande, OR","RESIDENTIAL","Rural","UATMP: LAOR; NATTS: La Grande, OR","meanRos_ug_m3","Yes","No Trend","Oregon","La Grande","Urban And Center City","LA GRANDE ASH STREET","Yes","Naphthalene","","0.0340115540242173","0.0346672830926838","0.0352856177073263","0.0259702620396675","0.051851679044727","0.0463010705430361","0.0403850281745501","0.0227107497152146"
"44-007-0022","Naphthalene (total tsp & vapor)","41.807776","-71.415105","Providence","Providence, RI","RESIDENTIAL","Urban","UATMP: PRRI; NATTS: Providence, RI; PILOT CITY: Urban League","meanRos_ug_m3","Yes","Decreasing","Rhode Island","Providence","Urban And Center City","Urban League BUILDING ROOFTOP","Yes","Naphthalene","","0.081157464609088","0.0740740387545315","0.0808897249104494","0.0802570346024715","0.0649906293372239","0.0547968265009344","0.0557187092595108","0.0579498540842864"
"45-025-0001","Naphthalene (total tsp & vapor)","34.615367","-80.198789","MCBEE","Chesterfield, SC","FOREST","Rural","UATMP: CHSC; NATTS: Chesterfield, SC","meanRos_ug_m3","Yes","Decreasing","South Carolina","Not in a city","Rural","CHESTERFIELD","Yes","Naphthalene","0.0161033216155263","0.0219319995234089","0.0195790827867944","0.0167839937518996","0.0177356217939984","0.0129976731009169","0.0078023964186464","0.00762383234132019","0.00807395837462898"
"48-201-1039","Naphthalene (total tsp & vapor)","29.670025","-95.128508","Deer Park","Houston, TX","RESIDENTIAL","Urban","UATMP: CAMS 35; NATTS: Houston, TX; IMPROVE: HOUS1","meanRos_ug_m3","Yes","Decreasing","Texas","Deer Park","Urban And Center City","Houston Deer Park #2","Yes","Naphthalene","0.0724541228484691","0.0803660164903313","0.0685979058258622","0.068436614945063","0.0512033174579669","0.0544892231305061","0.0418692323037496","0.0482970770174984","0.0515879604478982"
"48-203-0002","Naphthalene (total tsp & vapor)","32.668987","-94.167457","Not In A City","Karnack, TX","AGRICULTURAL","Rural","UATMP: CAMS 85; NATTS: Karnack, TX","meanRos_ug_m3","Yes","No Trend","Texas","Not in a city","Rural","Karnack","Yes","Naphthalene","0.0421554361174409","0.0737729972381079","0.0432039622280561","0.0850020712620536","0.0745983933344828","0.0401641360384656","0.0316309048899952","0.0356753554514514","0.0718081134618828"
"49-011-0004","Naphthalene (total tsp & vapor)","40.902967","-111.884467","Bountiful","Bountiful, UT","RESIDENTIAL","Urban","UATMP: BTUT; NATTS: Bountiful, UT","meanRos_ug_m3","Yes","No Trend","Utah","Bountiful","Suburban","Bountiful Viewmont","Yes","Naphthalene","","0.07699745226326","0.0526243471273348","0.0432219879127817","0.0446542729780776","0.0510832339183249","0.0386318811847569","0.0471426435771356","0.0373784092996361"
"50-007-0007","Naphthalene (total tsp & vapor)","44.52839","-72.86884","Underhill","Underhill, VT","FOREST","Rural","UATMP: UNVT; NATTS: Underhill, VT; IMPROVE:PMRF1; NADP: VT99","meanRos_ug_m3","Yes","Decreasing","Vermont","Underhill (Town of)","Rural","PROCTOR MAPLE RESEARCH CTR","Yes","Naphthalene","","0.0169053366063957","0.0136092181117779","0.0139463502990745","0.0128167761269402","0.0111222948992796","0.0100078707460731","0.0103439850802196","0.00881806949374514"
"51-087-0014","Naphthalene (total tsp & vapor)","37.55652","-77.40027","NOT IN A CITY","Richmond, VA","RESIDENTIAL","Urban","UATMP: RIVA; NATTS: Richmond, VA","meanRos_ug_m3","Yes","Decreasing","Virginia","East Highland Park","Suburban","MathScience Innovation Center","Yes","Naphthalene","","0.116283358734419","0.109379507923806","0.0806306603193198","0.097349432268457","0.0900940384740612","0.0652118805855959","0.073564754535565","0.0696604199474875"
"53-033-0080","Naphthalene (total tsp & vapor)","47.568236","-122.308628","Seattle","Seattle, WA","RESIDENTIAL","Urban","UATMP: SEWA; NATTS: Seattle, WA; IMPROVE: PUSO1; PILOT CITY: Beacon Hill","meanRos_ug_m3","Yes","No Trend","Washington","Seattle","Urban And Center City","SEATTLE - BEACON HILL","Yes","Naphthalene","0.063426656265409","0.0821674170276374","0.063788283756076","0.0765073088944388","0.0733688165552081","0.0732414910256021","0.0509521530049613","0.0447093252810762","0.0442548492092688"
"55-027-0001","Naphthalene (total tsp & vapor)","43.466111","-88.621111","Mayville/Horicon, WI","Mayville/Horicon, WI","AGRICULTURAL","Rural","UATMP: HOWI; NATTS: Horicon, Wi; Horicon Wildlife Area; NADP: WI07","meanRos_ug_m3","Yes","Decreasing","Wisconsin","Mayville/Horicon, WI","Rural","Mayville/Horicon, WI","Yes","Naphthalene","0.0260866075208101","0.0329533624157628","0.019694869914261","0.0137819467615859","0.0100628996837068","0.0130258096295028","0.0118380877032896","0.0103798634376625","0.00901401131893185"
