"site_id","parameter_desc","latitude","longitude","city_name","location","land_use_type","setting","site_name","stat","used_in_nat_agg","trend","state_name","city_name","location_setting","local_site_name","natts","toxic_name_alias","2003","2004","2005","2006","2007","2008","2009","2010","2011","2012","2013","2014","2015","2016"
"02-020-0018","Trichloroethylene","61.205861","-149.824602","ANCHORAGE","","RESIDENTIAL","","UATMP: ANAK","meanRos_ug_m3","No","Undetermined","Alaska","Anchorage","Suburban","GARDEN/TRINITY CHRISTIAN CHURCH","No","Trichloroethylene","","","","","","","","","","","","","",""
"04-013-4003","Trichloroethylene","33.40316","-112.07533","Phoenix","","RESIDENTIAL","","UATMP: SPAZ","meanRos_ug_m3","No","Decreasing","Arizona","Phoenix","Urban And Center City","SOUTH PHOENIX","No","Trichloroethylene","","0.250711077203066","","","","0.0968544493736799","0.0929797984281873","0.0571311076137816","0.0645801786419517","0.034124172303019","","0.0272682073483735","",""
"04-013-4009","Trichloroethylene","33.40642","-112.14434","Phoenix","","INDUSTRIAL","","UATMP: MCAZ","meanRos_ug_m3","No","Undetermined","Arizona","Phoenix","Urban And Center City","WEST 43RD AVENUE","No","Trichloroethylene","","","","","","","","","","","","","",""
"04-021-8001","Trichloroethylene","33.293465","-111.285594","QUEEN VALLEY","","DESERT","","UATMP: QVAZ, IMPROVE: QUVA1","meanRos_ug_m3","No","Undetermined","Arizona","Queen Valley","Rural","QUEEN VALLEY","No","Trichloroethylene","","0.0685931767646753","0.10430864439232","","","","","","","","","","",""
"06-001-0003","Trichloroethylene","37.6849","-121.7659","LIVERMORE","","COMMERCIAL","","Livermore - Old 1st St.","meanRos_ug_m3","No","Undetermined","California","Livermore","Urban And Center City","Livermore - Old 1st St.","No","Trichloroethylene","","","","","","","","","","","","","",""
"06-001-0006","Trichloroethylene","37.710229","-122.116899","San Leandro","","RESIDENTIAL","","San Leandro","meanRos_ug_m3","No","Undetermined","California","Castro Valley","Suburban","San Leandro","No","Trichloroethylene","","","","","","","","","","","","","",""
"06-001-0007","Trichloroethylene","37.687526","-121.784217","LIVERMORE","","COMMERCIAL","","REPLACES OLD SITE 06-001-0003 THAT WAS LOCATED AT 2614 OLD 1ST. ST.","meanRos_ug_m3","No","Undetermined","California","Livermore","Urban And Center City","Livermore","No","Trichloroethylene","","","","","","0.0479287149231134","","0.0403514966527299","0.0422406520125927","","","","",""
"06-001-0008","Trichloroethylene","37.817118","-122.280454","OAKLAND","","RESIDENTIAL","","OAKLAND FILBERT ST","meanRos_ug_m3","No","Undetermined","California","Oakland","Urban And Center City","Oakland - Filbert St.","No","Trichloroethylene","","","","","","0.0325976276368808","","","","","","","",""
"06-001-0009","Trichloroethylene","37.743065","-122.169935","Oakland","","RESIDENTIAL","","Oakland East","meanRos_ug_m3","No","No Trend","California","Oakland","Urban And Center City","Oakland","No","Trichloroethylene","","","","","","0.178459629219557","0.0360382885592496","0.0415110629161434","0.0426876763199663","0.0383114720023795","0.148670058762195","0.0511538173490232","1.28465282581978","0.0538916317742255"
"06-001-0011","Trichloroethylene","37.814781","-122.282347","OAKLAND","","RESIDENTIAL","","Oakland-West","meanRos_ug_m3","No","No Trend","California","Oakland","Urban And Center City","Oakland West","No","Trichloroethylene","","","","","","","","0.0430863736221285","0.0499886897489279","0.0556868434741363","0.046570892212447","","0.0388242753495036",""
"06-001-0012","Trichloroethylene","37.793624","-122.263376","Oakland","","COMMERCIAL","","Laney College","meanRos_ug_m3","No","Undetermined","California","Oakland","Urban And Center City","Laney College","No","Trichloroethylene","","","","","","","","","","","","","",""
"06-001-1001","Trichloroethylene","37.535833","-121.961823","Fremont","","RESIDENTIAL","","Fremont - Chapel Way","meanRos_ug_m3","No","Undetermined","California","Fremont","Suburban","Fremont - Chapel Way","No","Trichloroethylene","0.169478236767247","","","","","0.0570328555668484","","","","","","","",""
"06-001-2003","Trichloroethylene","37.816514","-122.23062","NOT IN A CITY","","RESIDENTIAL","","","meanRos_ug_m3","No","Undetermined","California","Not in a city","Suburban","","No","Trichloroethylene","","","","","","","","","","","","","",""
"06-001-2004","Trichloroethylene","37.877794","-122.30129","Berkeley","","COMMERCIAL","","Berkeley 6th and Camelia","meanRos_ug_m3","No","Undetermined","California","Berkeley","Urban And Center City","Berkeley","No","Trichloroethylene","","","","","","0.036758447771229","","","","","","","",""
"06-007-0002","Trichloroethylene","39.757371","-121.843286","Chico","","COMMERCIAL","","468 MANZANITA AVE, CHICO","meanRos_ug_m3","No","Undetermined","California","Not in a city","Suburban","Chico-Manzanita Ave.","No","Trichloroethylene","","","","","","","","0.0537385097503662","","","","","",""
"06-007-0008","Trichloroethylene","39.761538","-121.84162","Chico","","COMMERCIAL","","Chico - East Avenue","meanRos_ug_m3","No","Undetermined","California","Chico","Suburban","Chico-East Avenue","No","Trichloroethylene","","","","","","","","","","","","0.0558880501403809","0.0616201578470866","0.0607245160179138"
"06-013-0002","Trichloroethylene","37.936013","-122.026154","CONCORD","","RESIDENTIAL","","Concord","meanRos_ug_m3","No","Undetermined","California","Concord","Suburban","Concord","No","Trichloroethylene","","","","","","0.0405028270073983","","0.107477019500732","","","","","",""
"06-013-0003","Trichloroethylene","37.949924","-122.357193","RICHMOND","","COMMERCIAL","","Richmond-13th St.","meanRos_ug_m3","No","Undetermined","California","Richmond","Suburban","Richmond-13th St.","No","Trichloroethylene","","","","","","","","","","","","","",""
"06-013-0006","Trichloroethylene","37.948172","-122.364852","Richmond","","INDUSTRIAL","","Richmond - 7th St","meanRos_ug_m3","No","No Trend","California","Richmond","Urban And Center City","Richmond - 7th St.","No","Trichloroethylene","","","","0.687835463908433","0.452832288970453","0.16345628647831","0.102500577624985","0.367284391426409","0.248393922914172","0.130473164272985","0.133341449105714","","",""
"06-013-1001","Trichloroethylene","38.05492","-122.233229","CROCKETT","","INDUSTRIAL","","Crockett - Kendall Ave","meanRos_ug_m3","No","Undetermined","California","Crockett","Suburban","Crockett - Kendall Ave","No","Trichloroethylene","","","","","","0.0424699944808239","","0.0378505355557114","0.0370477470736165","","","","",""
"06-013-1002","Trichloroethylene","38.006311","-121.641918","BETHEL ISLAND","","AGRICULTURAL","","Bethel Island","meanRos_ug_m3","No","Undetermined","California","Bethel Island","Rural","Bethel Island","No","Trichloroethylene","","","","","","0.0537385097503663","","0.0293991686527343","","","","","",""
"06-013-1003","Trichloroethylene","37.9642","-122.3403","SAN PABLO","","COMMERCIAL","","San Pablo - El Portal Center","meanRos_ug_m3","No","Undetermined","California","San Pablo","Urban And Center City","San Pablo - El Portal Center","No","Trichloroethylene","","","","","","","","","","","","","",""
"06-013-1004","Trichloroethylene","37.9604","-122.356811","SAN PABLO","","COMMERCIAL","","SAN PABLO RUMRILL","meanRos_ug_m3","No","Undetermined","California","San Pablo","Urban And Center City","San Pablo","No","Trichloroethylene","","","","","","0.0471794428853985","","","","","","","",""
"06-013-2001","Trichloroethylene","38.012816","-122.134467","MARTINEZ","","RESIDENTIAL","","Martinez - Jones St.","meanRos_ug_m3","No","Undetermined","California","Martinez","Urban And Center City","Martinez - Jones St.","No","Trichloroethylene","","","","","","0.042906684509781","","","","","","","",""
"06-013-2003","Trichloroethylene","38.0096","-121.8211","Antioch","","RESIDENTIAL","","","meanRos_ug_m3","No","Undetermined","California","Not in a city","Suburban","","No","Trichloroethylene","","","","","","","","","","","","","",""
"06-013-2004","Trichloroethylene","38.0066","-122.0908","Martinez","","COMMERCIAL","","","meanRos_ug_m3","No","Undetermined","California","Martinez","Urban And Center City","","No","Trichloroethylene","","","","","","","","","","","","","",""
"06-013-2006","Trichloroethylene","38.0106","-122.0291","CONCORD","","COMMERCIAL","","","meanRos_ug_m3","No","Undetermined","California","Concord","Urban And Center City","","No","Trichloroethylene","","","","","","","","","","","","","",""
"06-013-3001","Trichloroethylene","38.029258","-121.896866","PITTSBURG","","RESIDENTIAL","","Pittsburg - W 10th St.","meanRos_ug_m3","No","Undetermined","California","Pittsburg","Urban And Center City","Pittsburg - W 10th St.","No","Trichloroethylene","","","","","","","","","","","","","",""
"06-019-0008","Trichloroethylene","36.781333","-119.77319","Fresno","","RESIDENTIAL","","PM Supersite: Fresno","meanRos_ug_m3","No","Undetermined","California","Fresno","Suburban","3425 N FIRST ST, FRESNO","No","Trichloroethylene","","","","","","","","0.0537385097503662","","","","","",""
"06-019-0011","Trichloroethylene","36.785322","-119.774174","Fresno","","COMMERCIAL","","Fresno - Garland","meanRos_ug_m3","No","Undetermined","California","Fresno","Urban And Center City","Fresno - Garland","No","Trichloroethylene","","","","","","","","","","","","0.0537385097503662","0.0596497458229065","0.0755921703821818"
"06-019-3002","Trichloroethylene","36.607171","-119.540683","PARLIER","","AGRICULTURAL","","PARLIER","meanRos_ug_m3","No","Undetermined","California","Parlier","Urban And Center City","PARLIER","No","Trichloroethylene","","","","","","","","","","","","","",""
"06-025-0005","Trichloroethylene","32.676186","-115.484144","Calexico","","RESIDENTIAL","","CALEXICO HIGH SCHOOL  ARB (#1300698)","meanRos_ug_m3","No","Decreasing","California","Calexico","Suburban","Calexico-Ethel Street","No","Trichloroethylene","0.233746773385736","0.146927291761104","0.231075591926575","0.177068462755942","0.0847781687342236","0.0785459549313088","","0.060809366296467","","","","0.071113961236318","0.0686061641146342","0.062633159640082"
"06-029-0004","Trichloroethylene","35.374959","-119.022602","BAKERSFIELD","","RESIDENTIAL","","Bakersfield-Chester Ave.","meanRos_ug_m3","No","Undetermined","California","Bakersfield","Urban And Center City","Bakersfield-Chester Ave.","No","Trichloroethylene","","","","","","","","","","","","","",""
"06-029-0009","Trichloroethylene","35.36107","-119.060103","BAKERSFIELD","","COMMERCIAL","","BAKERSFIELD","meanRos_ug_m3","No","Undetermined","California","Bakersfield","Urban And Center City","BAKERSFIELD","No","Trichloroethylene","","","","","","","","","","","","","",""
"06-029-0014","Trichloroethylene","35.356601","-119.063542","Bakersfield","","MOBILE","","Bakersfield-California Avenue","meanRos_ug_m3","No","No Trend","California","Bakersfield","Urban And Center City","Bakersfield-California","No","Trichloroethylene","0.0831553678427968","","","","","","","0.0762191196626027","0.23448330570829","","","","0.0549028441282908","0.0577255604737805"
"06-037-0002","Trichloroethylene","34.1365","-117.92391","Azusa","","RESIDENTIAL","","Azusa","meanRos_ug_m3","Yes","No Trend","California","Azusa","Suburban","Azusa","No","Trichloroethylene","0.31091566355569","0.224046627844073","0.29834138171755","0.159362477190741","0.159019898928334","0.0816836863138057","0.109532556964337","0.129420244315465","0.137760560037418","","","0.530757347967784","0.0868772574297587","0.109984816622416"
"06-037-1002","Trichloroethylene","34.17605","-118.31712","BURBANK","","COMMERCIAL","","MATES: Burbank","meanRos_ug_m3","No","Decreasing","California","Burbank","Urban And Center City","Burbank","No","Trichloroethylene","0.225288367799612","0.162367707778047","0.178330394376255","0.179666259429626","0.13698771407171","0.0997536083154265","0.0840127978374208","0.09320851863598","0.255247585585211","0.0595835710523139","0.0709889747997613","","",""
"06-037-1302","Trichloroethylene","33.901389","-118.205","COMPTON","","RESIDENTIAL","","MATES: Compton","meanRos_ug_m3","No","Undetermined","California","Compton","Urban And Center City","Compton","No","Trichloroethylene","","0.0764250267219016","0.0926173460857832","","","","","","","","","","",""
"06-037-1601","Trichloroethylene","34.01407","-118.06056","Pico Rivera","","COMMERCIAL","","MATES: Pico Rivera","meanRos_ug_m3","No","Undetermined","California","Pico Rivera","Suburban","MATES: Pico Rivera","No","Trichloroethylene","","0.13659023025011","","","","","","","","","","","",""
"06-037-4002","Trichloroethylene","33.82376","-118.18921","Long Beach","","RESIDENTIAL","","UATMP: LBHCA; MATES: North Long Beach","meanRos_ug_m3","No","No Trend","California","Long Beach","Suburban","Long Beach (North)","No","Trichloroethylene","0.126534311635345","0.0781092835495785","0.0879530530749069","","0.122328948725323","0.113541272733437","0.084810730310264","0.0917688397275485","0.258135190661664","0.0437248478553261","","","",""
"06-037-L0HP","Trichloroethylene","33.98325","-118.2307","Huntington Park","","","","MATES: Huntington Park","meanRos_ug_m3","No","Undetermined","California","Huntington Park","","MATES: Huntington Park","No","Trichloroethylene","","0.104589791233642","","","","","","","","","","","",""
"06-037-LWLB","Trichloroethylene","33.79242","-118.2159","Long Beach","","","","MATES: West Long Beach","meanRos_ug_m3","No","Undetermined","California","Long Beach","","MATES: West Long Beach","No","Trichloroethylene","","0.111465477684136","0.110740316885181","","","","","","","","","","",""
"06-041-0001","Trichloroethylene","37.97231","-122.520004","SAN RAFAEL","","COMMERCIAL","","San Rafael","meanRos_ug_m3","No","No Trend","California","San Rafael","Urban And Center City","San Rafael","No","Trichloroethylene","","","","","","0.0500551903084379","0.0537385097503662","0.0473492744458536","0.0410912169822932","","","0.0473299139567946","",""
"06-041-0004","Trichloroethylene","37.832725","-122.527658","NOT IN A CITY","","FOREST","","FORT CRONKHITE","meanRos_ug_m3","No","Undetermined","California","Not in a city","Rural","Ft. Cronkhite","No","Trichloroethylene","","","","","","0.0304903837435686","0.0391063567742817","","","","","","",""
"06-055-0003","Trichloroethylene","38.310942","-122.296189","NAPA","","COMMERCIAL","","Napa - Jefferson St.","meanRos_ug_m3","No","Undetermined","California","Napa","Urban And Center City","Napa","No","Trichloroethylene","","","","","","0.0491675812623141","","0.0460772587785525","0.0416121465618057","","","","",""
"06-059-0001","Trichloroethylene","33.821353","-117.91427","Anaheim","","RESIDENTIAL","","MATES: Anaheim","meanRos_ug_m3","No","Undetermined","California","Anaheim","Suburban","Anaheim (1010 Harbor Blvd)","No","Trichloroethylene","","0.0672126085372407","0.0696917602854636","","","","","","","","","","",""
"06-061-0006","Trichloroethylene","38.745726","-121.266312","Roseville","","MOBILE","","Roseville-N Sunrise Blvd","meanRos_ug_m3","No","Undetermined","California","Roseville","Suburban","Roseville-N Sunrise Ave","No","Trichloroethylene","","","","","","","","0.0537385097503662","","","","0.0557089217745463","0.0591123607254028","0.067889650651296"
"06-065-3011","Trichloroethylene","33.796533","-116.974417","San Jacinto","","RESIDENTIAL","","PILOT CITY: San Jacinto","meanRos_ug_m3","No","Undetermined","California","San Jacinto","Rural","SAN JACINTO TOXICS SITE #1 MOUNTAIN VIEW HIGH SCHOOL","No","Trichloroethylene","","","","","","","","","","","","","",""
"06-067-0001","Trichloroethylene","38.667126","-121.251338","CITRUS HEIGHTS","","RESIDENTIAL","","","meanRos_ug_m3","No","Undetermined","California","Citrus Heights","Suburban","","No","Trichloroethylene","","","","","","","","","","","","","",""
"06-071-1004","Trichloroethylene","34.10374","-117.62914","Upland","","RESIDENTIAL","","Upland","meanRos_ug_m3","No","Undetermined","California","Upland","Urban And Center City","Upland","No","Trichloroethylene","","","","","","","","","","","","","",""
"06-071-2002","Trichloroethylene","34.10002","-117.49201","Fontana","","INDUSTRIAL","","MATES: Inland Valley San Bernardino","meanRos_ug_m3","No","Undetermined","California","Fontana","Suburban","Fontana","No","Trichloroethylene","","0.130780097265035","0.0935059410207105","","","","","","","","","","",""
"06-073-0001","Trichloroethylene","32.631231","-117.059075","Chula Vista","","RESIDENTIAL","","Chula Vista","meanRos_ug_m3","Yes","Decreasing","California","Chula Vista","Suburban","Chula Vista","No","Trichloroethylene","0.329636229625566","0.408660010922318","0.406318940274803","0.289879137780893","0.213535456377724","0.117219415907052","0.0909679717461573","0.106760506037394","","0.0969071869660711","","0.0776428813289774","0.123251872362937","0.0952962906239827"
"06-073-0003","Trichloroethylene","32.791194","-116.942092","El Cajon","","COMMERCIAL","","El Cajon","meanRos_ug_m3","No","Decreasing","California","El Cajon","Suburban","El Cajon","No","Trichloroethylene","0.115968750674875","0.087724477942226","0.109878763195898","0.0687562932155198","0.0749044575904507","","","0.0558880501403809","","","","","",""
"06-073-1002","Trichloroethylene","33.127711","-117.075325","ESCONDIDO","","COMMERCIAL","","Escondido","meanRos_ug_m3","No","No Trend","California","Escondido","Urban And Center City","Escondido","No","Trichloroethylene","","","","","","","0.0799251019516199","0.0694779037242193","0.03652491930465","0.0228401890757228","0.0581803330598382","","",""
"06-073-1010","Trichloroethylene","32.701492","-117.149653","SAN DIEGO","","COMMERCIAL","","Downtown","meanRos_ug_m3","No","Decreasing","California","San Diego","Urban And Center City","San Diego - Beardsley Street","No","Trichloroethylene","","","","","","","0.0985435518424543","0.078079106452284","0.0478245873597286","0.0302100470422638","0.0182774734150242","0.0154403735825764","0.0111705337880853",""
"06-073-1014","Trichloroethylene","32.579361","-116.929486","Otay Mesa","","COMMERCIAL","","Donovan","meanRos_ug_m3","No","Undetermined","California","Otay Mesa","Rural","Donovan","No","Trichloroethylene","","","","","","","","","","","","","0.152993991241981",""
"06-073-1018","Trichloroethylene","32.817978","-116.968133","El Cajon","","COMMERCIAL","","El Cajon - Floyd Smith Drive","meanRos_ug_m3","No","Undetermined","California","El Cajon","Suburban","El Cajon - Floyd Smith Dr.","No","Trichloroethylene","","","","","","","","","","","","","0.0881647425591946",""
"06-073-2007","Trichloroethylene","32.552164","-116.937772","SAN DIEGO","","MOBILE","","Otay Mesa","meanRos_ug_m3","No","No Trend","California","San Diego","Rural","Otay Mesa","No","Trichloroethylene","","","","","","","2.13892959278612","1.23955733374484","0.700512543030834","0.517232698045791","0.983705879017871","","",""
"06-075-0005","Trichloroethylene","37.765946","-122.399044","San Francisco","","INDUSTRIAL","","San Francisco - Arkansas St.","meanRos_ug_m3","No","No Trend","California","San Francisco","Urban And Center City","San Francisco","No","Trichloroethylene","","","","","","0.0372024806804739","","0.0550882152375971","","","","0.0544489319631234","0.0588194497118383","0.0536461486737014"
"06-077-1002","Trichloroethylene","37.950741","-121.268523","Stockton","","RESIDENTIAL","","HAZELTON-HD, STOCKTON","meanRos_ug_m3","No","Undetermined","California","Stockton","Urban And Center City","Stockton-Hazelton","No","Trichloroethylene","","","","","","","","0.0537385097503662","","","","0.0562575023949146","0.0537385097503662","0.0772043256746928"
"06-081-1001","Trichloroethylene","37.482934","-122.20337","REDWOOD CITY","","INDUSTRIAL","","Redwood City","meanRos_ug_m3","Yes","No Trend","California","Redwood City","Suburban","Redwood City","No","Trichloroethylene","0.507758794555094","0.429817556587513","0.30322008124118","0.248929279354257","0.406461326314703","0.491227575952096","0.269657294498514","0.396944378214092","0.284207226857888","0.622126744968664","0.257333557039364","0.27329044777232","0.335129218902834","0.142703133645237"
"06-083-0010","Trichloroethylene","34.421386","-119.702079","SANTA BARBARA","","MOBILE","","Santa Barbara-W. Carrillo St.","meanRos_ug_m3","No","Undetermined","California","Santa Barbara","Urban And Center City","Santa Barbara-W. Carrillo St.","No","Trichloroethylene","","","","","","","","","","","","","",""
"06-085-0004","Trichloroethylene","37.339666","-121.888575","San Jose","","RESIDENTIAL","","San Jose - 4th St.","meanRos_ug_m3","No","Undetermined","California","San Jose","Urban And Center City","San Jose - 4th St.","No","Trichloroethylene","","","","","","","","","","","","","",""
"06-085-0006","Trichloroethylene","37.338135","-121.849783","San Jose","","MOBILE","","San Jose Knox Ave.","meanRos_ug_m3","No","Undetermined","California","San Jose","Urban And Center City","San Jose - Knox Avenue","No","Trichloroethylene","","","","","","","","","","","","","",""
"06-085-1002","Trichloroethylene","37.3735","-122.077","MOUNTAIN VIEW","","RESIDENTIAL","","Mt. View - Cuesta","meanRos_ug_m3","No","Undetermined","California","Mountain View","Suburban","Mountain View - Cuesta","No","Trichloroethylene","","","","","","","","","","","","","",""
"06-085-2004","Trichloroethylene","37.322998","-121.927179","SAN JOSE","","COMMERCIAL","","San Jose-W. San Carlos St.","meanRos_ug_m3","No","Undetermined","California","San Jose","Urban And Center City","San Jose-W. San Carlos St.","No","Trichloroethylene","","","","","","","","","","","","","",""
"06-085-2007","Trichloroethylene","37.355475","-122.050845","SUNNYVALE","","RESIDENTIAL","","LOCATED NEAR TICONDEROGA & MARY STREETS IN SUNNAYVALE.","meanRos_ug_m3","No","Undetermined","California","Sunnyvale","Urban And Center City","Sunnyvale - Ticonderoga","No","Trichloroethylene","","","","","","0.0613689268572192","","","","","","","",""
"06-085-2008","Trichloroethylene","37.402244","-122.066597","MOUNTAIN VIEW","","RESIDENTIAL","","MT VIEW-WHISMAN PARK","meanRos_ug_m3","No","Undetermined","California","Mountain View","Suburban","MT VIEW-WHISMAN PARK","No","Trichloroethylene","","","","","","","","","","","","","",""
"06-085-2009","Trichloroethylene","37.318435","-122.069705","CUPERTINO","","RESIDENTIAL","","Cupertino Monta Vista","meanRos_ug_m3","No","Undetermined","California","Cupertino","Suburban","Cupertino Monta Vista","No","Trichloroethylene","","","","","","","","","0.0423534083256137","","","","",""
"06-095-0004","Trichloroethylene","38.102507","-122.237976","VALLEJO","","COMMERCIAL","","Vallejo - Tuolumne St.","meanRos_ug_m3","No","Undetermined","California","Vallejo","Urban And Center City","Vallejo","No","Trichloroethylene","","","","","","0.0365281093578263","","0.0414564774240364","0.0337998736861817","","","","",""
"06-095-0006","Trichloroethylene","38.0656","-122.1507","Benicia","","RESIDENTIAL","","Benicia - VIP","meanRos_ug_m3","No","Undetermined","California","Benicia","Suburban","Benicia - VIP","No","Trichloroethylene","","","","","","","","","","","","","",""
"06-097-0003","Trichloroethylene","38.443503","-122.710169","SANTA ROSA","","COMMERCIAL","","Santa Rosa - 5th St","meanRos_ug_m3","No","Undetermined","California","Santa Rosa","Urban And Center City","Santa Rosa - 5th St","No","Trichloroethylene","","","","","","","","0.0537385097503663","0.0310771530562278","","","","",""
"06-097-0004","Trichloroethylene","38.403765","-122.818294","Sebastopol","","COMMERCIAL","","Sebastopol","meanRos_ug_m3","No","Undetermined","California","Sebastopol","Urban And Center City","Sebastopol","No","Trichloroethylene","","","","","","","","","","","","","",""
"06-099-0005","Trichloroethylene","37.641583","-120.994622","MODESTO","","COMMERCIAL","","Modesto-14th Street","meanRos_ug_m3","No","Undetermined","California","Modesto","Urban And Center City","Modesto-14th Street","No","Trichloroethylene","","","","","","","","","","","","","",""
"06-111-2002","Trichloroethylene","34.276362","-118.683757","Simi Valley","","RESIDENTIAL","","SIMI VALLEY","meanRos_ug_m3","No","Undetermined","California","Simi Valley","Suburban","Simi Valley-Cochran Street","No","Trichloroethylene","","","","","","","","0.0555297934087118","","","","0.0685165999317169","0.0696681394263676","0.0819945648771717"
"08-031-0002","Trichloroethylene","39.751184","-104.987625","Denver","","COMMERCIAL","","UATMP: DECO","meanRos_ug_m3","No","Undetermined","Colorado","Denver","Urban And Center City","DENVER - CAMP","No","Trichloroethylene","","","","","","","","","","","","","",""
"10-001-0002","Trichloroethylene","38.986672","-75.5568","NOT IN A CITY","","AGRICULTURAL","","PROPERTY OF KILLENS POND STATE PARK; BEHIND FARM BUILDINGS","meanRos_ug_m3","No","Undetermined","Delaware","Not in a city","Rural","PROPERTY OF KILLENS POND STATE PARK; BEHIND FARM BUILDINGS","No","Trichloroethylene","0.0820382224602515","0.043862915701714","0.0429037308031632","","","","","","","","","","",""
"10-003-1007","Trichloroethylene","39.5513","-75.732","NOT IN A CITY","","AGRICULTURAL","","PAMS: Lums Pond; NADP: DE99","meanRos_ug_m3","No","Undetermined","Delaware","Not in a city","Rural","Lums Pond","No","Trichloroethylene","0.0499872909028455","0.0360524394747921","0.0508664178156629","","","","","","","","","","",""
"10-003-1008","Trichloroethylene","39.57768","-75.6036","DELAWARE CITY","","AGRICULTURAL","","","meanRos_ug_m3","No","No Trend","Delaware","Delaware City","Rural","Route 9 Delaware City","No","Trichloroethylene","0.085120760021529","0.0466095430824793","0.0715251201213316","0.0632267634336499","0.051982323481147","0.0537385097503663","0.0487960099601415","","","","","","",""
"10-003-2004","Trichloroethylene","39.739444","-75.558056","Wilmington","","COMMERCIAL","","CORNER OF MLK BLVD AND JUSTISON ST, NO TRAFFIC DATA AVAILABLE","meanRos_ug_m3","No","No Trend","Delaware","Wilmington","Urban And Center City","MLK  CORNER OF MLK BLVD AND JUSTISON ST","No","Trichloroethylene","0.10795385795748","0.0771212687098433","0.106930085595109","0.0649020970400856","0.0872740832308002","0.052726983754404","0.0649926945568859","0.0658485418843521","","","","","",""
"10-005-1002","Trichloroethylene","38.6539","-75.6106","Seaford","","RESIDENTIAL","","Seaford Shipley State Service Center","meanRos_ug_m3","No","Undetermined","Delaware","Seaford","Suburban","Seaford Shipley State Service Center","No","Trichloroethylene","0.0640371340012967","0.0407581368822752","0.0817466876516616","","","","","","","","","","",""
"11-001-0025","Trichloroethylene","38.583226","-77.1219","Washington","","COMMERCIAL","","UATMP: W1DC","meanRos_ug_m3","No","Undetermined","District Of Columbia","Washington","Urban And Center City","TAKOMA SCHOOL","No","Trichloroethylene","","","","","","","","","","","","","",""
"11-001-0039","Trichloroethylene","38.864279","-76.991642","Washington","","COMMERCIAL","","UATMP: W2DC","meanRos_ug_m3","No","Undetermined","District Of Columbia","Washington","Urban And Center City","UATMP: W2DC","No","Trichloroethylene","","","","","","","","","","","","","",""
"12-011-0010","Trichloroethylene","26.128611","-80.167222","FORT LAUDERDALE","","RESIDENTIAL","","SITE # 28","meanRos_ug_m3","No","No Trend","Florida","Fort Lauderdale","Suburban","SITE # 28","No","Trichloroethylene","","","","","","","","0.0757999603421133","0.118158499094181","0.103007390213379","0.0659835141676094","","0.0579622490612543",""
"12-011-1002","Trichloroethylene","26.083143","-80.237586","Davie","","COMMERCIAL","","UATMP: FLFL","meanRos_ug_m3","No","Decreasing","Florida","Davie","Suburban","U of F Ag Research Center","No","Trichloroethylene","","","0.421847301540375","0.334269014624664","0.205418610772345","0.08363173095959","0.114976695477764","0.0863001312079019","0.104643714123035","0.0796273654567381","0.0758677003657246","","",""
"12-011-2004","Trichloroethylene","26.217582","-80.127545","Pompano Beach","","COMMERCIAL","","UATMP: FLFL(2)","meanRos_ug_m3","No","Undetermined","Florida","Pompano Beach","Suburban","UATMP: FLFL(2)","No","Trichloroethylene","","","","0.365371486449599","0.178349849045163","","","","","","","","",""
"12-011-3002","Trichloroethylene","26.001202","-80.160324","Holleywood","","COMMERCIAL","","SITE #18","meanRos_ug_m3","No","Undetermined","Florida","Hollywood","Suburban","SITE #18","No","Trichloroethylene","","","","0.308437362007027","0.179035524939111","","","","","","","","",""
"12-011-5005","Trichloroethylene","26.294167","-80.176389","Coconut Creek","","RESIDENTIAL","","UATMP: CCFL; SITE #30","meanRos_ug_m3","No","No Trend","Florida","Coconut Creek","Suburban","Coconut Creek","No","Trichloroethylene","","","0.57261930908527","0.286766292022528","0.140609696103476","0.0466560185305259","0.07723343744082","0.0829725135935001","0.12039121932549","","","","",""
"12-011-8002","Trichloroethylene","26.088421","-80.111193","J.U.Lloyd State Park","","RESIDENTIAL","","SITE # 25","meanRos_ug_m3","No","Undetermined","Florida","Dania","Suburban","Dr. Von Mizell-Eula Johnson State Park (prev. John U Lloyd State Park)","No","Trichloroethylene","","","","","","","","0.095441571618396","0.103118795216383","0.0787153381358748","0.0618088884507411","","",""
"12-057-0081","Trichloroethylene","27.740033","-82.465146","Tampa","","FOREST","","UATMP: SMFL; PILOT CITY:  Simmons Park","meanRos_ug_m3","No","Undetermined","Florida","Ruskin","Rural","Simmons Park","No","Trichloroethylene","","","","","","","","","","","","","",""
"12-057-1065","Trichloroethylene","27.892523","-82.538429","Tampa","","COMMERCIAL","","UATMP: GAFL; NADP: FL18; PILOT CITY: Gandy","meanRos_ug_m3","No","Undetermined","Florida","Tampa","Suburban","USMC Reserve Center (Gandy)","No","Trichloroethylene","0.105293321063147","","","","0.026330017079545","0.0304658308176539","","","","","","","",""
"12-057-1075","Trichloroethylene","28.050296","-82.377871","Tampa","","RESIDENTIAL","","UATMP: LEFL; PILOT CITY: Lewis","meanRos_ug_m3","No","Undetermined","Florida","Tampa","Urban And Center City","WHITEWAY DRIVE TAMPA","No","Trichloroethylene","0.0892938091832484","","","","","","","","","","","","",""
"12-073-0012","Trichloroethylene","30.439722","-84.346389","TALLAHASSEE","","COMMERCIAL","","Tallahassee Community College","meanRos_ug_m3","No","No Trend","Florida","Tallahassee","Suburban","Tallahassee Community College","No","Trichloroethylene","","","","","0.0162652158639339","0.0707062371509348","0.202211174186323","0.0803312180605934","0.0490991191280936","","","","",""
"12-086-0029","Trichloroethylene","25.587327","-80.325922","CUTLER BAY","","FOREST","","","meanRos_ug_m3","No","Undetermined","Florida","Cutler Ridge","Rural","Perdue","No","Trichloroethylene","0.23619994267777","0.261394859127731","","","","","","","","","","","",""
"12-095-2002","Trichloroethylene","28.596389","-81.3625","Winter Park","","COMMERCIAL","","UATMP: ORFL","meanRos_ug_m3","No","Decreasing","Florida","Winter Park","Urban And Center City","WINTER PARK","No","Trichloroethylene","","","0.0806213281314446","0.102619499431035","0.0737607206825494","0.0483619238639403","","0.0345472686310634","0.0429903590342159","0.0255991327867888","","","",""
"12-103-0004","Trichloroethylene","27.946688","-82.731767","Clearwater","","COMMERCIAL","","UATMP: CWFL","meanRos_ug_m3","No","Undetermined","Florida","Clearwater","Suburban","St. Petersburg College","No","Trichloroethylene","0.122307957540152","","","","","","","","","","","","",""
"12-103-0018","Trichloroethylene","27.785866","-82.739875","SAINT PETERSBURG","","RESIDENTIAL","","UATMP: AZFL; PILOT CITY: Azalea Park","meanRos_ug_m3","No","Decreasing","Florida","Saint Petersburg","Suburban","Azalea Park","No","Trichloroethylene","0.0961887144828797","0.0823915857892522","","0.0798799571008742","0.0330748610508238","0.0338148019029741","0.0279996071561041","0.0194611769310765","","","","","",""
"12-103-1008","Trichloroethylene","28.000297","-82.776213","Dunedin","","RESIDENTIAL","","UATMP: DNFL; PILOT CITY: Dunedin","meanRos_ug_m3","No","Undetermined","Florida","Dunedin","Suburban","DUNEDIN HIGHLAND MIDDLE SCHOOL","No","Trichloroethylene","","","","","","","","","","","","","",""
"12-103-2008","Trichloroethylene","27.892801","-82.680378","SAINT PETERSBURG","","COMMERCIAL","","Gateway","meanRos_ug_m3","No","Undetermined","Florida","Clearwater","Suburban","Gateway","No","Trichloroethylene","","","","","","","","","","","","","",""
"12-103-5002","Trichloroethylene","28.090299","-82.700707","Tarpon Springs","","RESIDENTIAL","","UATMP: ELFL; PILOT CITY: East Lake","meanRos_ug_m3","No","Undetermined","Florida","Tarpon Springs","Rural","John Chesnut Sr. Park - East Lake","No","Trichloroethylene","","","","","","","","","","","","","",""
"13-009-0001","Trichloroethylene","33.153413","-83.23569","Milledgeville","","RESIDENTIAL","","","meanRos_ug_m3","No","Undetermined","Georgia","Milledgeville","Rural","","No","Trichloroethylene","","","","","","","","","","","","","",""
"13-021-0012","Trichloroethylene","32.805361","-83.543515","Macon","","INDUSTRIAL","","Macon SE","meanRos_ug_m3","No","Undetermined","Georgia","Macon","Rural","Macon-Forestry","No","Trichloroethylene","","","","","","","","","","","","","",""
"13-051-0021","Trichloroethylene","32.069183","-81.048747","Savannah","","COMMERCIAL","","Savannah-E. President Street","meanRos_ug_m3","No","Undetermined","Georgia","Savannah","Suburban","Savannah-E. President","No","Trichloroethylene","","","","","","","","","","","","","","0.0510009128934767"
"13-069-0002","Trichloroethylene","31.513127","-82.750011","Douglas","","AGRICULTURAL","","General Coffee","meanRos_ug_m3","No","Undetermined","Georgia","Not in a city","Rural","General Coffee","No","Trichloroethylene","","","","","","","","","","","","","",""
"13-085-0001","Trichloroethylene","34.376307","-84.059556","DAWSONVILLE","","UNKNOWN","","Dawsonville, Georgia Forestry Commission","meanRos_ug_m3","No","Undetermined","Georgia","Not in a city","Rural","Dawsonville","No","Trichloroethylene","","","","","","","","","","","","","",""
"13-089-0003","Trichloroethylene","33.698553","-84.272664","ATLANTA","","COMMERCIAL","","DMRC","meanRos_ug_m3","No","Undetermined","Georgia","Atlanta","Suburban","NR-285","No","Trichloroethylene","","","","","","","","","","","","","",""
"13-115-0004","Trichloroethylene","34.263312","-85.178723","Rome","","COMMERCIAL","","","meanRos_ug_m3","No","Undetermined","Georgia","Rome","Urban And Center City","","No","Trichloroethylene","","","","","","","","","","","","","",""
"13-121-0020","Trichloroethylene","33.741253","-84.5527","Utoy Creek","","INDUSTRIAL","","Utoy Creek","meanRos_ug_m3","No","Undetermined","Georgia","Not in a city","Suburban","Utoy Creek","No","Trichloroethylene","","","","","","","","","","","","","",""
"13-127-3001","Trichloroethylene","31.185187","-81.485166","Brunswick","","RESIDENTIAL","","","meanRos_ug_m3","No","Undetermined","Georgia","Brunswick","Suburban","","No","Trichloroethylene","","","","","","","","","","","","","",""
"13-139-0003","Trichloroethylene","34.29933","-83.81341","GAINESVILLE","","RESIDENTIAL","","MONITOR LOCATED ON TOP OF SCHOOL","meanRos_ug_m3","No","Undetermined","Georgia","Gainesville","Suburban","Gainesville","No","Trichloroethylene","","","","","","","","","","","","","",""
"13-153-0001","Trichloroethylene","32.605556","-83.598056","WARNER ROBINS","","COMMERCIAL","","LOCATED NEAR ROBBINS AIR FORCE BASE","meanRos_ug_m3","No","Undetermined","Georgia","Warner Robins","Suburban","Warner Robins","No","Trichloroethylene","","","","","","","","","","","","","",""
"13-185-0003","Trichloroethylene","30.848056","-83.294444","VALDOSTA","","COMMERCIAL","","S.L. MASON ELEMENTARY SCHOOL","meanRos_ug_m3","No","Undetermined","Georgia","Valdosta","Suburban","Valdosta","No","Trichloroethylene","","","","","","","","","","","","","",""
"13-215-5000","Trichloroethylene","32.503272","-84.942035","Columbus","","COMMERCIAL","","","meanRos_ug_m3","No","Undetermined","Georgia","Columbus (Remainder)","Suburban","","No","Trichloroethylene","","","","","","","","","","","","","",""
"13-223-0003","Trichloroethylene","33.9285","-85.04534","Yorkville","","AGRICULTURAL","","PAMS: Yorkville (Near Rockmart)","meanRos_ug_m3","No","Undetermined","Georgia","Not in a city","Rural","Yorkville, King Farm","No","Trichloroethylene","","","","","","","","","","","","","","0.0435632741440774"
"13-245-0092","Trichloroethylene","33.432353","-81.991372","Augusta","","INDUSTRIAL","","","meanRos_ug_m3","No","Undetermined","Georgia","Augusta-Richmond County (Remainder)","Suburban","","No","Trichloroethylene","","","","","","","","","","","","","",""
"15-003-2004","Trichloroethylene","21.392833","-157.969126","PEARL CITY","","RESIDENTIAL","","PEARL CITY","meanRos_ug_m3","No","Undetermined","Hawaii","Pearl City","Urban And Center City","Pearl City","No","Trichloroethylene","","","","","","","","","","","","","",""
"16-001-0100","Trichloroethylene","43.6013","-116.3473","Meridian","","COMMERCIAL","","","meanRos_ug_m3","No","Undetermined","Idaho","Not in a city","Suburban","","No","Trichloroethylene","","","","","","","","","","","","","",""
"16-001-0200","Trichloroethylene","43.5776","-116.1777","Boise","","RESIDENTIAL","","White Pine Elementary School","meanRos_ug_m3","No","Undetermined","Idaho","Boise City (corporate name for Boise)","Urban And Center City","White Pine Elementary School","No","Trichloroethylene","","","","","","","","","","","","","",""
"16-027-0004","Trichloroethylene","43.562401","-116.563232","Nampa","","RESIDENTIAL","","NORTHWEST NAZARENE COLLEGE SAMPLER ON ARTS BUILDING IN SUB. SETTING","meanRos_ug_m3","No","Undetermined","Idaho","Nampa","Suburban","NORTHWEST NAZARENE COLLEGE SAMPLER ON ARTS BUILDING IN SUB. SETTING","No","Trichloroethylene","","","","","","","","","","","","","",""
"16-027-0400","Trichloroethylene","43.7872","-116.9596","Parma","","AGRICULTURAL","","Parma","meanRos_ug_m3","No","Undetermined","Idaho","Not in a city","Rural","Parma","No","Trichloroethylene","","","","","","","","","","","","","",""
"17-031-0060","Trichloroethylene","41.656518","-87.589574","CHICAGO","","RESIDENTIAL","","UATMP: CARV","meanRos_ug_m3","No","Undetermined","Illinois","Chicago","Suburban","CARVER HS","No","Trichloroethylene","","","","","","","","","","","","","",""
"17-031-3103","Trichloroethylene","41.965193","-87.876265","Schiller Park","","MOBILE","","UATMP: SPIL","meanRos_ug_m3","Yes","Decreasing","Illinois","Schiller Park","Suburban","IEPA TRAILER","No","Trichloroethylene","2.94347552849835","0.7332260786688","0.738389015849444","0.417131719408267","0.521565369467905","0.505104438469019","0.343656262883082","0.793025390297504","0.640367276879144","0.706469865837931","0.266752019713248","0.443370352306863","0.29188367590348","0.323539657603369"
"17-119-9010","Trichloroethylene","38.848382","-90.076413","Roxana","","INDUSTRIAL","","UATMP: ROIL; Phillips 66 Wood River Refinery","meanRos_ug_m3","No","Undetermined","Illinois","Roxana","Suburban","Phillips 66 Wood River Refinery","No","Trichloroethylene","","","","","","","","","","","","","",""
"17-163-1010","Trichloroethylene","38.592192","-90.165081","NOT IN A CITY","","INDUSTRIAL","","UATMP: SAIL","meanRos_ug_m3","No","Undetermined","Illinois","Sauget (Monsanto)","Suburban","IEPA TRAILER","No","Trichloroethylene","","","","","","","","","","","","","",""
"18-003-0004","Trichloroethylene","41.094965","-85.101816","Fort Wayne","","COMMERCIAL","","Ft. Wayne- Beacon St.","meanRos_ug_m3","No","Undetermined","Indiana","Fort Wayne","Suburban","Ft. Wayne- Beacon St.","No","Trichloroethylene","","0.0725580024705584","0.0753355939194765","0.103085870939277","0.0912792464962189","","","","","","","","",""
"18-019-0009","Trichloroethylene","38.276683","-85.763767","CLARKSVILLE","","RESIDENTIAL","","Clarksville","meanRos_ug_m3","No","No Trend","Indiana","Clarksville","Urban And Center City","Clarksville","No","Trichloroethylene","","","","","","0.177684873125518","0.0537385097503663","0.0306101943215471","0.0502628713714492","0.0456071763496867","","","0.0321083741744837",""
"18-039-0003","Trichloroethylene","41.667827","-85.969444","Elkhart","","COMMERCIAL","","SAMPLERS ARE ON THE ROOF ON THE WEST SIDE OF THE SCHOOL","meanRos_ug_m3","No","No Trend","Indiana","Elkhart","Urban And Center City","SAMPLERS ARE ON THE ROOF ON THE WEST SIDE OF THE SCHOOL","No","Trichloroethylene","0.0737637367584362","0.0496336404894033","0.0544964887620273","0.106674775104076","0.0617372607214407","","","","","","","","",""
"18-089-0022","Trichloroethylene","41.60668","-87.304729","Gary","","INDUSTRIAL","","UATMP: INDEM","meanRos_ug_m3","No","Undetermined","Indiana","Gary","Urban And Center City","Gary-IITRI/ 1219.5 meters east of Tennessee St.- old ammuntion bunker","No","Trichloroethylene","0.0334630559408249","0.0488401785929152","","0.0670855841990118","","","","","","","17.1519324228647","","",""
"18-089-0023","Trichloroethylene","41.65274","-87.439551","East Chicago","","INDUSTRIAL","","East Chicago Water Flitration Plant","meanRos_ug_m3","No","No Trend","Indiana","East Chicago","Urban And Center City","SITE MOVED FROM EAST CHICAGO FIELD SCHOOL","No","Trichloroethylene","0.0606587509881002","0.050687451586529","0.0275614045062175","0.0576716575845465","0.0476806941480211","","0.048982452926115","0.158824044035457","0.117288887757647","","","","",""
"18-089-0030","Trichloroethylene","41.6814","-87.494734","WHITING","","RESIDENTIAL","","Whiting- Whiting HS","meanRos_ug_m3","No","No Trend","Indiana","Whiting","Urban And Center City","Whiting- Whiting HS","No","Trichloroethylene","","0.0528753112369021","0.0425410289575324","0.0586936407098053","0.071612688611499","0.0680586120113104","0.0537385097503662","0.0472299510418219","0.0618584358055373","","0.0622514464906379","","",""
"18-089-0034","Trichloroethylene","41.65348","-87.435584","East Chicago","","COMMERCIAL","","East Chicago-Marina","meanRos_ug_m3","No","Undetermined","Indiana","East Chicago","Urban And Center City","East Chicago-Marina","No","Trichloroethylene","","","","","","","","","","","0.0505752117438456","","","0.0537385097503661"
"18-089-0035","Trichloroethylene","41.681393","-87.490233","Whiting","","RESIDENTIAL","","Whiting- Center St.","meanRos_ug_m3","No","Undetermined","Indiana","Whiting","Urban And Center City","Whiting- Center St.","No","Trichloroethylene","","","","","","","","","","","","","",""
"18-089-1003","Trichloroethylene","41.588925","-87.407817","Gary","","RESIDENTIAL","","","meanRos_ug_m3","No","Undetermined","Indiana","Gary","Suburban","","No","Trichloroethylene","","","","","","","","","","","","","",""
"18-089-2008","Trichloroethylene","41.63946","-87.493623","Hammond","","COMMERCIAL","","HAMMOND CAAP- Hammond- 141st St.","meanRos_ug_m3","Yes","Decreasing","Indiana","Hammond","Suburban","HAMMOND CAAP- Hammond- 141st St.","No","Trichloroethylene","0.0520312994084034","0.0513021367770652","0.0776713152611132","0.100107075867837","0.180751872680775","","0.0701787700224234","0.0607177312914053","0.0505744899639989","","0.0419526196307791","0.0496692570194902","0.0491599561588166",""
"18-097-0057","Trichloroethylene","39.749019","-86.186314","INDIANAPOLIS","","RESIDENTIAL","","UATMP: ININ","meanRos_ug_m3","No","Undetermined","Indiana","Indianapolis (Remainder)","Urban And Center City","Indpls- Harding St.","No","Trichloroethylene","","","","","0.0588263078352016","","","","","","","","",""
"18-097-0078","Trichloroethylene","39.811097","-86.114469","Indianapolis","","RESIDENTIAL","","UATMP: WPIN","meanRos_ug_m3","No","No Trend","Indiana","Indianapolis (Remainder)","Suburban","Indpls- Washington Park/  in parking lot next to police station","No","Trichloroethylene","0.0435277800205292","0.0537886704036175","0.0376885229241114","0.0561356901487305","0.0403696450375269","","0.0900016635942252","0.0467715450933921","0.0404884409896059","","","0.0476619285736358","",""
"18-097-0084","Trichloroethylene","39.758855","-86.115415","Indianapolis","","RESIDENTIAL","","Indpls-  School 21/ Florence Fay School 21","meanRos_ug_m3","No","Undetermined","Indiana","Indianapolis (Remainder)","Urban And Center City","Indpls-  School 21/ Florence Fay School 21","No","Trichloroethylene","","0.0684668396727701","","","","","","","","","","","",""
"18-097-0085","Trichloroethylene","39.740383","-86.22595","INDIANAPOLIS","","MILITARY RESERVATION","","UATMP: IDIN","meanRos_ug_m3","No","Undetermined","Indiana","Indianapolis (Remainder)","Urban And Center City","Stout Field 2","No","Trichloroethylene","","","","","0.0927988078550317","0.0993318872224493","","","","","","","",""
"18-097-0087","Trichloroethylene","39.787933","-86.13088","Indianapolis (Remainder)","","RESIDENTIAL","","Indpls.- I 70","meanRos_ug_m3","No","Undetermined","Indiana","Indianapolis (Remainder)","Urban And Center City","Indpls.- I 70","No","Trichloroethylene","","","","","","","","","","","","","",""
"18-127-0024","Trichloroethylene","41.617558","-87.199248","NOT IN A CITY","","RESIDENTIAL","","Ogden Dunes- Water Treatment Plant","meanRos_ug_m3","No","No Trend","Indiana","Ogden Dunes (Wickliffe)","Suburban","Ogden Dunes- Water Treatment Plant","No","Trichloroethylene","0.0555743631930445","0.0514391313511657","","0.0631168660996733","0.0299492134779511","","0.0537385097503663","","","0.0417944349258333","0.0491327146079513","","0.0417134044714485","0.128584034773112"
"18-157-0008","Trichloroethylene","40.431639","-86.8525","LAFAYETTE","","INDUSTRIAL","","Lafayette- Greenbush St./ Cinergy Substation","meanRos_ug_m3","No","Undetermined","Indiana","Lafayette","Suburban","Lafayette- Greenbush St./ Cinergy Substation","No","Trichloroethylene","","","","","","","0.0433619480483877","","0.0728872346531413","","","","",""
"18-163-0016","Trichloroethylene","37.974436","-87.532289","Evansville","","COMMERCIAL","","Evansville- U of E/  University of Evansville-Carson Center","meanRos_ug_m3","No","No Trend","Indiana","Evansville","Urban And Center City","Evansville- U of E/  University of Evansville-Carson Center","No","Trichloroethylene","0.0595189216992441","0.053180281482774","0.0857268292747135","0.198467186675512","0.206619404718776","0.0921609730361622","0.0571980857434538","0.13167490629583","0.0932554899078497","","","","",""
"18-167-0025","Trichloroethylene","39.507688","-87.37444","Terre Haute","","COMMERCIAL","","Terre Haute-Fort Harrison Rd.","meanRos_ug_m3","No","Undetermined","Indiana","Terre Haute","Urban And Center City","Terre Haute-Fort Harrison Rd.","No","Trichloroethylene","","","","","","","","","","","","","",""
"19-045-0021","Trichloroethylene","41.874999","-90.177574","Clinton","","RESIDENTIAL","","UATMP: CLIA","meanRos_ug_m3","No","Undetermined","Iowa","Clinton","Suburban","CLINTON, RAINBOW PARK","No","Trichloroethylene","","","","","","","","","","","","","",""
"19-113-0037","Trichloroethylene","42.00508","-91.6793","Cedar Rapids","","RESIDENTIAL","","UATMP: C2IA; PILOT CITY: Army Reserve","meanRos_ug_m3","No","Undetermined","Iowa","Cedar Rapids","Urban And Center City","ARMY RESERVE CENTER ROOF- CORE MONITORING SITE","No","Trichloroethylene","","","","","","","","","","","","","",""
"19-113-0039","Trichloroethylene","41.93417","-91.682679","Cedar Rapids","","INDUSTRIAL","","UATMP: CRIA; PILOT CITY: Hawkeye Downs","meanRos_ug_m3","No","Undetermined","Iowa","Cedar Rapids","Urban And Center City","HAWKEYE DOWNS SOUTHWEST CORNER","No","Trichloroethylene","","","","","","","","","","","","","",""
"19-113-0040","Trichloroethylene","41.97677","-91.68766","CEDAR RAPIDS","","RESIDENTIAL","","Public Health","meanRos_ug_m3","No","Undetermined","Iowa","Cedar Rapids","Urban And Center City","Public Health","No","Trichloroethylene","","","","","","","","","","","","","",""
"19-139-0020","Trichloroethylene","41.4069","-91.0616","Muscatine","","INDUSTRIAL","","UATMP: MUIA","meanRos_ug_m3","No","Undetermined","Iowa","Muscatine","Suburban","MUSCATINE, MUSSER PARK","No","Trichloroethylene","","","","","","","","","","","","","",""
"19-153-0030","Trichloroethylene","41.603159","-93.643118","Des Moines","","COMMERCIAL","","UATMP: DMIA","meanRos_ug_m3","No","Undetermined","Iowa","Des Moines","Urban And Center City","CARPENTER","No","Trichloroethylene","","","","","","","","","","","","","",""
"19-153-2510","Trichloroethylene","41.603517","-93.7479","CLIVE","","RESIDENTIAL","","INDIAN HILLS JR HIGH, CLIVE IA, FRM R&P SEQ. SAMPLER (1),ROOF","meanRos_ug_m3","No","Undetermined","Iowa","Clive","Suburban","INDIAN HILLS JR HIGH, CLIVE IA, FRM R&P SEQ. SAMPLER (1),ROOF","No","Trichloroethylene","","","","","","","","","","","","","",""
"19-163-0015","Trichloroethylene","41.530011","-90.587611","Davenport","","RESIDENTIAL","","UATMP: DAIA","meanRos_ug_m3","No","Undetermined","Iowa","Davenport","Urban And Center City","DAVENPORT, JEFFERSON SCH.","No","Trichloroethylene","","","","","","","","","","","","","",""
"20-173-0010","Trichloroethylene","37.702066","-97.314847","WICHITA","","RESIDENTIAL","","UATMP: W1KS","meanRos_ug_m3","No","Undetermined","Kansas","Wichita","Urban And Center City","WICHITA HD","No","Trichloroethylene","","","","","","","","","","","","","",""
"21-019-0017","Trichloroethylene","38.45934","-82.64041","ASHLAND","","RESIDENTIAL","","UATMP: ASKY","meanRos_ug_m3","No","Undetermined","Kentucky","Ashland","Suburban","ASHLAND PRIMARY (FIVCO)","No","Trichloroethylene","","","","","","","","","","","","","",""
"21-067-0012","Trichloroethylene","38.06503","-84.49761","LEXINGTON-FAYETTE","","RESIDENTIAL","","UATMP: LEKY","meanRos_ug_m3","No","Undetermined","Kentucky","Lexington-Fayette (corporate name for Lexington)","Suburban","LEXINGTON PRIMARY","No","Trichloroethylene","","","","","","","","","","","","","",""
"21-139-0004","Trichloroethylene","37.07151","-88.33389","NOT IN A CITY","","AGRICULTURAL","","UATMP: BLKY","meanRos_ug_m3","No","Undetermined","Kentucky","Smithland","Rural","BLOODWORTH","No","Trichloroethylene","","","","","","","","","","","","","","0.0311518729502678"
"21-157-0014","Trichloroethylene","37.0452","-88.33087","GRAND RIVERS","","INDUSTRIAL","","UATMP: TVKY; TVA SUBSTATION","meanRos_ug_m3","No","Undetermined","Kentucky","Calvert City (RR name Calvert)","Suburban","TVA SUBSTATION","No","Trichloroethylene","","","","","","","","","","","","0.0339997039981518","","0.0434113396078673"
"21-157-0016","Trichloroethylene","37.04176","-88.35407","GRAND RIVERS","","INDUSTRIAL","","UATMP: ATKY; ATMOS ENERGY","meanRos_ug_m3","No","Undetermined","Kentucky","Calvert City (RR name Calvert)","Suburban","ATMOS ENERGY","No","Trichloroethylene","","","","","","","","","","","","0.0383313183405352","","0.0465254511392934"
"21-157-0018","Trichloroethylene","37.02702","-88.34387","CALVERT CITY","","RESIDENTIAL","","UATMP: CCKY; CALVERT CITY ELEMENTARY","meanRos_ug_m3","No","Undetermined","Kentucky","Calvert City (RR name Calvert)","Suburban","CALVERT CITY ELEMENTARY","No","Trichloroethylene","","","","","","","","","","","","0.0329700091033631","",""
"21-157-0019","Trichloroethylene","37.03718","-88.33411","Calvert City","","RESIDENTIAL","","UATMP: LAKY; Lazy Daz","meanRos_ug_m3","No","Undetermined","Kentucky","Not in a city","Suburban","LAZY DAZ","No","Trichloroethylene","","","","","","","","","","","","","",""
"22-005-0004","Trichloroethylene","30.229653","-90.965628","NOT IN A CITY","","AGRICULTURAL","","Dutchtown","meanRos_ug_m3","No","Undetermined","Louisiana","Not in a city","Rural","Dutchtown","No","Trichloroethylene","","","","","","","","","","","","","",""
"22-015-0008","Trichloroethylene","32.536273","-93.74894","Shreveport","","COMMERCIAL","","Shreveport / Airport","meanRos_ug_m3","No","Undetermined","Louisiana","Shreveport","Urban And Center City","Shreveport / Airport","No","Trichloroethylene","","","","","","","","","","","","","",""
"22-019-0008","Trichloroethylene","30.262604","-93.285084","Westlake","","INDUSTRIAL","","Westlake","meanRos_ug_m3","No","Undetermined","Louisiana","Westlake (RR name West Lake)","Rural","Westlake","No","Trichloroethylene","","","","","","","","","","","","","",""
"22-033-0009","Trichloroethylene","30.461981","-91.179219","Baton Rouge","","COMMERCIAL","","UATMP: B2LA","meanRos_ug_m3","No","Undetermined","Louisiana","Baton Rouge","Urban And Center City","Capitol","No","Trichloroethylene","","","","","","","","","","","","","",""
"22-033-0013","Trichloroethylene","30.700895","-91.056068","ZACHARY","","AGRICULTURAL","","Pride","meanRos_ug_m3","No","Undetermined","Louisiana","Not in a city","Rural","Pride","No","Trichloroethylene","","","","","","","","","","","","","",""
"22-073-0004","Trichloroethylene","32.509959","-92.046196","Monroe","","INDUSTRIAL","","Monroe / Airport","meanRos_ug_m3","No","Undetermined","Louisiana","Monroe","Urban And Center City","Monroe / Airport","No","Trichloroethylene","","","","","","","","","","","","","",""
"22-089-0003","Trichloroethylene","29.984371","-90.410638","HAHNVILLE","","INDUSTRIAL","","UATMP: HALA","meanRos_ug_m3","No","Undetermined","Louisiana","Hahnville","Rural","Hahnville","No","Trichloroethylene","","","","","","","","","","","","","",""
"22-095-0002","Trichloroethylene","30.057515","-90.619286","NOT IN A CITY","","INDUSTRIAL","","UATMP: GALA","meanRos_ug_m3","No","Undetermined","Louisiana","Garyville","Rural","Garyville","No","Trichloroethylene","","","","","","","","","","","","","",""
"23-001-0011","Trichloroethylene","44.089406","-70.214219","LEWISTON","","COMMERCIAL","","LEWISTON","meanRos_ug_m3","No","No Trend","Maine","Lewiston","Urban And Center City","COUNTRY KITCHEN BAKERY PARKING LOT","No","Trichloroethylene","","","","","0.0133802317784707","0.0107932812938449","0.0402174165708028","0.0142210381571385","","0.0193774415560761","","","",""
"23-003-1011","Trichloroethylene","46.682299","-68.016195","PRESQUE ISLE","","COMMERCIAL","","RIVERSIDE STREET MONITORING SHELTER","meanRos_ug_m3","No","Undetermined","Maine","Presque Isle","Urban And Center City","RIVERSIDE","No","Trichloroethylene","","","","","","","0.0238955490148825","","","","","","",""
"23-005-0029","Trichloroethylene","43.660246","-70.268965","PORTLAND","","COMMERCIAL","","PDO - Portland Deering Oaks","meanRos_ug_m3","No","No Trend","Maine","Portland","Urban And Center City","PDO - Portland Deering Oaks","No","Trichloroethylene","","","","","","","0.0563125632829346","0.0128973453423724","","0.0303500380791895","0.0622361504343957","","0.0780700527674657",""
"23-005-2003","Trichloroethylene","43.561043","-70.207324","Cape Elizabeth","","RESIDENTIAL","","CETL - Cape Elizabeth Two Lights (State Park)","meanRos_ug_m3","No","Undetermined","Maine","Not in a city","Rural","CETL - Cape Elizabeth Two Lights (State Park)","No","Trichloroethylene","","","","","","","","","","","","","",""
"23-017-2011","Trichloroethylene","44.551419","-70.546319","RUMFORD","","INDUSTRIAL","","IN 8 X 8 ECTO SHELTER LOCATED IN PARKING LOT EAST OF RUMFORD AVENUE.","meanRos_ug_m3","No","Undetermined","Maine","Rumford (census name for Rumford Compact)","Rural","Rumford Avenue Parking Lot (RAP)","No","Trichloroethylene","","","","","","","0.029851327607791","","","0.0264272833863779","","","",""
"23-019-0002","Trichloroethylene","44.79886","-68.769675","BANGOR","","COMMERCIAL","","BANGOR","meanRos_ug_m3","No","Undetermined","Maine","Bangor","Urban And Center City","KENDUSKEAG PUMP STATION (BUILDING ROOF)","No","Trichloroethylene","","","","","0.0255885990451521","","","","","","","","",""
"24-003-0019","Trichloroethylene","39.101111","-76.729444","Fort Meade","","COMMERCIAL","","PAMS: Fort Meade","meanRos_ug_m3","No","Undetermined","Maryland","Fort Meade (U.S. Army)","Suburban","FT MEADE LAT/LONG POINT IS OF THE SAMPLING INLET","No","Trichloroethylene","0.0471785001394051","0.0355223478497605","","","","","","","","","","","",""
"24-003-1003","Trichloroethylene","39.169533","-76.627933","GLEN BURNIE","","RESIDENTIAL","","GLEN BURNIE","meanRos_ug_m3","No","Undetermined","Maryland","Glen Burnie","Suburban","GLEN BURNIE","No","Trichloroethylene","","","","","","","","","","","","","",""
"24-005-3001","Trichloroethylene","39.310833","-76.474444","Essex","","RESIDENTIAL","","PAMS: Essex","meanRos_ug_m3","No","No Trend","Maryland","Essex","Suburban","Essex","No","Trichloroethylene","0.0682141659514401","0.049310659597254","0.0625827432609782","0.0526901190149008","0.0515349405459696","0.0589009291723919","0.0576643360518326","0.0687400677565595","","","","","0.0537385097503661","0.0500917109441319"
"24-025-9001","Trichloroethylene","39.563333","-76.203889","NOT IN A CITY","","COMMERCIAL","","PAMS: Aldino","meanRos_ug_m3","No","Undetermined","Maryland","Not in a city","Suburban","Aldino","No","Trichloroethylene","","","","","","","","","","","","","",""
"24-027-0006","Trichloroethylene","39.14313","-76.84611","North Laurel","","RESIDENTIAL","","Howard County Near Road","meanRos_ug_m3","No","Undetermined","Maryland","North Laurel","Suburban","Howard County Near Road","No","Trichloroethylene","","","","","","","","","","","","","0.0272184892727561","0.081995491163196"
"24-033-0030","Trichloroethylene","39.055277","-76.878333","BELTSVILLE","","RESIDENTIAL","","HU-Beltsville","meanRos_ug_m3","No","No Trend","Maryland","Beltsville","Suburban","HU-Beltsville","No","Trichloroethylene","","","","0.051836029000533","0.0495492851923104","0.0537385097503661","0.0547990290022249","0.0509993274647347","","","","","0.0543168004957936","0.0553311849414101"
"24-510-0006","Trichloroethylene","39.340556","-76.582222","Baltimore","","RESIDENTIAL","","Northeast Police","meanRos_ug_m3","No","Decreasing","Maryland","Baltimore","Suburban","Northeast Police","No","Trichloroethylene","0.0945140223543225","0.0657356869206811","0.0841267182984202","0.0718851782078898","0.0746442472699347","0.0618745779962971","0.0568868999490822","0.0518637677094291","","","","","",""
"24-510-0011","Trichloroethylene","39.236775","-76.584132","Baltimore","","INDUSTRIAL","","","meanRos_ug_m3","No","Undetermined","Maryland","Baltimore","Suburban","","No","Trichloroethylene","","","","","","","","","","","","","",""
"24-510-0035","Trichloroethylene","39.232778","-76.579722","BALTIMORE","","INDUSTRIAL","","FMC-Fairfield","meanRos_ug_m3","No","Undetermined","Maryland","Baltimore","Urban And Center City","FMC-Fairfield","No","Trichloroethylene","","","","","","","","","","","","","",""
"24-510-0040","Trichloroethylene","39.297733","-76.604603","Baltimore","","RESIDENTIAL","","Oldtown","meanRos_ug_m3","No","No Trend","Maryland","Baltimore","Urban And Center City","Oldtown","No","Trichloroethylene","0.114811210981092","0.0647525725998253","0.0788703303379873","0.0705423935041208","0.0809037514799044","0.0613113904758485","0.0594710396186226","0.0529604486254448","","","","","0.0367943208565221","0.0906566236414239"
"24-510-0043","Trichloroethylene","39.264274","-76.580244","Baltimore","","INDUSTRIAL","","","meanRos_ug_m3","No","Undetermined","Maryland","Baltimore","Urban And Center City","","No","Trichloroethylene","","","","","","","","","","","","","",""
"24-510-0050","Trichloroethylene","39.318611","-76.5825","BALTIMORE","","RESIDENTIAL","","LAT/LONG POINT IS OF SAMPLING INLET.................................","meanRos_ug_m3","No","Undetermined","Maryland","Baltimore","Urban And Center City","LAT/LONG POINT IS OF SAMPLING INLET.................................","No","Trichloroethylene","","","","","","","","","","","","","",""
"24-510-0051","Trichloroethylene","39.281496","-76.598578","BALTIMORE","","COMMERCIAL","","PAMS: Living Classroom","meanRos_ug_m3","No","Undetermined","Maryland","Baltimore","Urban And Center City","PAMS-OZONE-NOX ANALYZERS ARE LOCATED AT SOUTH CAROLINE STREET.","No","Trichloroethylene","","","","","","","","","","","","","",""
"25-009-2006","Trichloroethylene","42.474642","-70.970816","Lynn","","COMMERCIAL","","LYNN WATER TREATMENT PLANT","meanRos_ug_m3","Yes","Decreasing","Massachusetts","Lynn","Urban And Center City","LYNN WATER TREATMENT PLANT","No","Trichloroethylene","0.11311268771739","","0.0234090983492937","0.0204080161786463","0.0120299204850933","0.0444756999004254","0.03074512577606","0.0195529929396179","0.0235381250729853","0.0208734809932845","0.0175097977603277","0.0147780901813507","0.0147165166064586","0.016297744760357"
"25-017-1801","Trichloroethylene","42.385095","-71.388394","SUDBURY","","AGRICULTURAL","","SUDBURY","meanRos_ug_m3","No","Undetermined","Massachusetts","Sudbury (RR name South Sudbury)","Rural","SUDBURY","No","Trichloroethylene","","","","","","","","","","","","","",""
"25-025-0041","Trichloroethylene","42.317372","-70.968359","Boston","","COMMERCIAL","","BOSTON LONG ISLAND","meanRos_ug_m3","No","Undetermined","Massachusetts","Boston","Rural","BOSTON LONG ISLAND","No","Trichloroethylene","","","","","","","","","","","","","",""
"26-007-0901","Trichloroethylene","45.083624","-83.450254","ALPENA","","RESIDENTIAL","","375 WILSON, ALPENA CO.","meanRos_ug_m3","No","Undetermined","Michigan","Alpena","Rural","375 WILSON, ALPENA CO.","No","Trichloroethylene","","","","","","","","","","","","","",""
"26-007-0902","Trichloroethylene","45.068069","-83.426642","Alpena","","RESIDENTIAL","","ALPENA","meanRos_ug_m3","No","Undetermined","Michigan","Alpena","Urban And Center City","309 W LAKE ST, 17.5 FEET NORTH OF TAYLOR STREET","No","Trichloroethylene","","","","","","","","","","","","","",""
"26-033-0901","Trichloroethylene","46.493633","-84.364207","SAULT STE MARIE","","RESIDENTIAL","","UATMP: ITCMI","meanRos_ug_m3","No","Undetermined","Michigan","Sault Ste. Marie","Rural","NORTH OF EASTERDAY AVENUE","No","Trichloroethylene","","","","","","","","","","","","","",""
"26-081-0020","Trichloroethylene","42.984173","-85.671339","Grand Rapids","","INDUSTRIAL","","Grand Rapids","meanRos_ug_m3","No","Undetermined","Michigan","Grand Rapids","Urban And Center City","GR-Monroe","No","Trichloroethylene","","","","","","","","","","","","","",""
"26-081-0021","Trichloroethylene","42.938638","-85.671141","Grand Rapids","","INDUSTRIAL","","1270 RANDOLPH, GRAND RAPIDS","meanRos_ug_m3","No","Undetermined","Michigan","Grand Rapids","Urban And Center City","1270 RANDOLPH, GRAND RAPIDS","No","Trichloroethylene","0.306281770705496","0.376861545399657","","","","","","","","","","","",""
"26-111-0953","Trichloroethylene","43.591416","-84.209431","Midland","","INDUSTRIAL","","WOOD PLATFORM","meanRos_ug_m3","No","Undetermined","Michigan","Midland","Rural","WOOD PLATFORM","No","Trichloroethylene","","","","","","","","","","","","","","0.0376353344743474"
"26-111-0955","Trichloroethylene","43.589471","-84.221099","Midland","","INDUSTRIAL","","WOOD PLATFORM","meanRos_ug_m3","No","Undetermined","Michigan","Midland","Rural","WOOD PLATFORM","No","Trichloroethylene","","","","","","","","","","","","","","0.0445624761373486"
"26-111-0959","Trichloroethylene","43.576215","-84.321607","MIDLAND","","AGRICULTURAL","","","meanRos_ug_m3","No","Undetermined","Michigan","Midland","Rural","","No","Trichloroethylene","","","","","","","","","","","","","","0.0454098122203078"
"26-111-0960","Trichloroethylene","43.60002","-84.200144","Midland","","COMMERCIAL","","","meanRos_ug_m3","No","Undetermined","Michigan","Midland","Rural","","No","Trichloroethylene","","","","","","","","","","","","","","0.0956838279405126"
"26-113-0001","Trichloroethylene","44.310555","-84.891865","NOT IN A CITY","","FOREST","","UATMP: HOMI; PILOT CITY: Houghton Lake","meanRos_ug_m3","No","Undetermined","Michigan","Not in a city","Rural","LOCATED ABOUT 1/4 MILE WEST OF SITE","No","Trichloroethylene","","","","","","","","","","","","","",""
"26-125-0010","Trichloroethylene","42.490313","-83.279931","Southfield","","MOBILE","","UATMP: LOMI; PILOT CITY: 696 Lodge","meanRos_ug_m3","No","Undetermined","Michigan","Southfield","Urban And Center City","338 FEET NORTH TO I-696 FREEWAY","No","Trichloroethylene","","","","","","","","","","","","","",""
"26-161-0008","Trichloroethylene","42.240565","-83.599602","Ypsilanti","","COMMERCIAL","","PILOT CITY: Ypsilanti","meanRos_ug_m3","No","Undetermined","Michigan","Ypsilanti","Urban And Center City","TOWNER ST, SOUTH; 2 LANE RESIDENIAL - HOSPITAL","No","Trichloroethylene","","","","","","","","","","","","","",""
"26-163-0001","Trichloroethylene","42.22862","-83.2082","Allen Park","","COMMERCIAL","","UATMP: APMI; IMPROVE: DETR1; PILOT CITY: Allen Park","meanRos_ug_m3","No","Undetermined","Michigan","Allen Park","Suburban","Allen Park","No","Trichloroethylene","","","","","","","","","","","","","",""
"26-163-0005","Trichloroethylene","42.267231","-83.132086","River Rouge","","INDUSTRIAL","","UATMP: RRMI; PILOT CITY: River Rouge","meanRos_ug_m3","No","Undetermined","Michigan","River Rouge","Suburban","River Rouge","No","Trichloroethylene","","","","","","","","","","","","","",""
"26-163-0015","Trichloroethylene","42.302786","-83.10653","Detroit","","COMMERCIAL","","UATMP: SWMI; PILOT CITY: Southwest HS","meanRos_ug_m3","No","Undetermined","Michigan","Detroit","Urban And Center City","Southwestern H.S.","No","Trichloroethylene","","","","","","","","","","","","","",""
"26-163-0027","Trichloroethylene","42.292231","-83.106807","Detroit","","INDUSTRIAL","","UATMP: YFMI; PILOT CITY: Yellow Freight","meanRos_ug_m3","No","Undetermined","Michigan","Detroit","Urban And Center City","UATMP: YFMI; PILOT CITY: Yellow Freight","No","Trichloroethylene","","","","","","","","","","","","","",""
"26-163-1005","Trichloroethylene","42.289449","-83.153435","Detroit","","INDUSTRIAL","","","meanRos_ug_m3","No","Undetermined","Michigan","Detroit","Urban And Center City","","No","Trichloroethylene","","","","","","","","","","0.732956732791163","0.522835088396637","","",""
"26-163-1006","Trichloroethylene","42.283069","-83.161145","Detroit","","INDUSTRIAL","","","meanRos_ug_m3","No","Undetermined","Michigan","Detroit","Urban And Center City","","No","Trichloroethylene","","","","","","","","","","1.15525260987816","","","",""
"26-163-1008","Trichloroethylene","42.281869","-83.151415","Detroit","","INDUSTRIAL","","","meanRos_ug_m3","No","Undetermined","Michigan","Detroit","Urban And Center City","","No","Trichloroethylene","","","","","","","","","","1.06265895645155","","","",""
"26-163-1009","Trichloroethylene","42.270009","-83.162585","Detroit","","INDUSTRIAL","","","meanRos_ug_m3","No","Undetermined","Michigan","Detroit","Urban And Center City","","No","Trichloroethylene","","","","","","","","","","","","","",""
"27-003-1002","Trichloroethylene","45.13768","-93.207615","Blaine","","COMMERCIAL","","Anoka Airport6010","meanRos_ug_m3","No","No Trend","Minnesota","Blaine","Suburban","Anoka County Airport","No","Trichloroethylene","","","","","","","","","","0.0613534347486255","0.0486751530072999","0.0449212926887852","0.0749122961678822","0.050832426692546"
"27-007-2302","Trichloroethylene","47.473285","-94.884721","BEMIDJI","","COMMERCIAL","","BEMIDJI","meanRos_ug_m3","No","Undetermined","Minnesota","Bemidji","Urban And Center City","KITCHAGAMI REGIONAL LIBRARY, 1 STORY BUILDING","No","Trichloroethylene","","","","","","","","","","","","","",""
"27-007-2303","Trichloroethylene","47.877222","-95.01222","Red Lake","","RESIDENTIAL","","Red Lake","meanRos_ug_m3","No","Undetermined","Minnesota","Red Lake","Rural","Red Lake District","No","Trichloroethylene","","","","","","","","","0.0112170928161069","","","","",""
"27-017-7416","Trichloroethylene","46.70527","-92.52377","CLOQUET","","FOREST","","Cloquet","meanRos_ug_m3","No","Undetermined","Minnesota","Cloquet","Rural","Fond du Lac Band 7416","No","Trichloroethylene","","","","","","","","0.0162460063970658","","","","","",""
"27-019-0052","Trichloroethylene","44.850655","-93.591809","Chaska","","RESIDENTIAL","","CHASKA","meanRos_ug_m3","No","No Trend","Minnesota","Chaska","Rural","Chaska","No","Trichloroethylene","0.109037557899422","0.182256964843803","0.148740518059049","0.166900842703333","0.0912758444946598","","","","","","","","",""
"27-021-0001","Trichloroethylene","47.159942","-94.150987","NOT IN A CITY","","RESIDENTIAL","","Leech Lake","meanRos_ug_m3","No","Undetermined","Minnesota","Not in a city","Rural","Leech Lake Nation: Chatfield","No","Trichloroethylene","","","","","","","","","0.00904958537523423","","","","",""
"27-035-3202","Trichloroethylene","46.164666","-94.359379","FORT RIPLEY","","AGRICULTURAL","","HIGHWAY 371.  FT. RIPLEY","meanRos_ug_m3","No","Undetermined","Minnesota","Not in a city","Rural","Fort Ripley","No","Trichloroethylene","","","","","","","","","","","","","",""
"27-037-0020","Trichloroethylene","44.76323","-93.03255","NOT IN A CITY","","INDUSTRIAL","","FHR 420","meanRos_ug_m3","Yes","No Trend","Minnesota","Rosemount","Rural","Flint Hills Refinery 420","No","Trichloroethylene","0.040469524950301","0.0432153974680124","0.0511411484457652","0.0429027118826694","0.0446302877587787","0.0455406852168968","0.0273587980465839","0.0231488594985197","0.0324215150609031","0.0169560743451775","0.00763942239408353","0.0166190154604602","0.0501192058596391",""
"27-037-0423","Trichloroethylene","44.77553","-93.06299","Rosemount","","INDUSTRIAL","","FHR 423","meanRos_ug_m3","Yes","No Trend","Minnesota","Inver Grove Heights (RR name Inver Grove)","Rural","Flint Hills Refinery 423","No","Trichloroethylene","0.0348562982295252","0.0419677902694021","0.0498872498849233","0.0585365909780775","0.0362798671635075","0.123582382646363","0.0219447637875781","0.0199713409767965","0.0297785177446715","0.0177938728668513","0.00550945279231339","0.0155773005655068","","0.0586120318976523"
"27-037-0439","Trichloroethylene","44.748006","-93.04348","ROSEMOUNT","","INDUSTRIAL","","ROSEMOUNT","meanRos_ug_m3","No","Undetermined","Minnesota","Rosemount","Rural","Flint Hills Refinery 439","No","Trichloroethylene","","","","","","","","","","","","","",""
"27-037-0441","Trichloroethylene","44.7468","-93.02611","Rosemount","","INDUSTRIAL","","FHR 441","meanRos_ug_m3","No","No Trend","Minnesota","Rosemount","Rural","Flint Hills Refinery 441","No","Trichloroethylene","0.0230934771045748","0.0251017688253887","0.0335865685939789","0.0261282873478477","0.0215556314762112","","","","","","","","",""
"27-037-0442","Trichloroethylene","44.73857","-93.00496","Rosemount","","AGRICULTURAL","","FHR 442","meanRos_ug_m3","No","No Trend","Minnesota","Rosemount","Rural","Flint Hills Refinery 442","No","Trichloroethylene","0.0141814076084875","0.0197589616992538","0.0324810918127759","0.0270622153241729","0.0218788732345533","0.0292295426229927","0.0185765311451416","0.0162048204495573","0.0247339124441151","0.0129990269821463","0.00545642013371254","","",""
"27-037-0443","Trichloroethylene","44.745662","-93.05541","ROSEMOUNT","","INDUSTRIAL","","FHR 443","meanRos_ug_m3","No","No Trend","Minnesota","Rosemount","Rural","Flint Hills Refinery 443","No","Trichloroethylene","","","","","","0.0698055103568201","0.026187472970691","0.0179486675928895","0.0306667222356406","0.0125707616716203","0.00524425721110248","0.0172307728819278","0.0549062335190792","0.0567314467015088"
"27-037-0470","Trichloroethylene","44.73846","-93.23725","Apple Valley","","RESIDENTIAL","","Apple Valley","meanRos_ug_m3","Yes","Decreasing","Minnesota","Apple Valley","Suburban","Apple Valley","No","Trichloroethylene","0.0305222473028455","0.0588402418136563","0.0537385097503662","0.0525110766919017","0.0391833840778497","0.0260624177154227","0.0266224432361264","0.023797175340758","0.0268359982953594","0.0134956328006477","0.00525524520074945","0.02583058868882","0.0441452649876773",""
"27-041-2010","Trichloroethylene","45.883295","-95.380316","ALEXANDRIA","","RESIDENTIAL","","ALEXANDRIA (was 2001)","meanRos_ug_m3","No","Undetermined","Minnesota","Alexandria","Urban And Center City","Alexandria toxics site","No","Trichloroethylene","","","","","","","","","","","","","",""
"27-047-5401","Trichloroethylene","43.650235","-93.366599","ALBERT LEA","","COMMERCIAL","","ALBERT LEA","meanRos_ug_m3","No","Undetermined","Minnesota","Albert Lea","Urban And Center City","Albert Lea City Hall","No","Trichloroethylene","","","","","","","","","","","","","",""
"27-049-5356","Trichloroethylene","44.39762","-92.831439","LEON TOWNSHIP","","AGRICULTURAL","","LEON TOWNSHIP(Zumbrota)","meanRos_ug_m3","No","Undetermined","Minnesota","Not in a city","Rural","MPCA SITE 5356","No","Trichloroethylene","","","","","","","","","","","","","",""
"27-053-0050","Trichloroethylene","45.001229","-93.267117","Minneapolis","","COMMERCIAL","","NE Fire Station","meanRos_ug_m3","No","Undetermined","Minnesota","Minneapolis","Urban And Center City","Minneapolis Fire Station 2","No","Trichloroethylene","0.201957731911472","0.238624202756426","0.253985167135941","0.334822402362208","","","","","","","","","",""
"27-053-0053","Trichloroethylene","44.981076","-93.269669","Minneapolis","","COMMERCIAL","","Old Downtown Library","meanRos_ug_m3","No","Undetermined","Minnesota","Minneapolis","Urban And Center City","Minneapolis Central Library","No","Trichloroethylene","","","","","","","","","","","","","",""
"27-053-0260","Trichloroethylene","45.032742","-93.421064","MINNEAPOLIS","","RESIDENTIAL","","MINNEAPOLIS","meanRos_ug_m3","No","Undetermined","Minnesota","Minneapolis","Suburban","MPCA SITE 0260","No","Trichloroethylene","","","","","","","","","","","","","",""
"27-053-0909","Trichloroethylene","45.012102","-93.276699","Minneapolis","","INDUSTRIAL","","Lowry Ave","meanRos_ug_m3","No","Undetermined","Minnesota","Minneapolis","Urban And Center City","Lowry Avenue","No","Trichloroethylene","","","","","","","","","","","","","","0.118792286064279"
"27-053-0958","Trichloroethylene","44.926076","-93.204666","MINNEAPOLIS","","RESIDENTIAL","","MINNEAPOLIS","meanRos_ug_m3","No","Undetermined","Minnesota","Minneapolis","Urban And Center City","MPCA SITE 0958 1997/1998 AIR TOXICS SITE","No","Trichloroethylene","","","","","","","","","","","","","",""
"27-053-0959","Trichloroethylene","45.003866","-93.236924","Minneapolis","","INDUSTRIAL","","MPCA SITE 0959 INTER PLASTICS","meanRos_ug_m3","No","Undetermined","Minnesota","Minneapolis","Urban And Center City","MPCA SITE 0959 INTER PLASTICS","No","Trichloroethylene","","","","","","","","","","","","","",""
"27-053-0960","Trichloroethylene","44.959409","-93.256892","MINNEAPOLIS","","RESIDENTIAL","","MINNEAPOLIS","meanRos_ug_m3","No","Undetermined","Minnesota","Minneapolis","Urban And Center City","Phillips Community Center","No","Trichloroethylene","","","","","","","","","","","","","",""
"27-053-0961","Trichloroethylene","44.87551","-93.25892","RICHFIELD","","RESIDENTIAL","","RICHFIELD INTERMEDIATE SCHOOL","meanRos_ug_m3","No","No Trend","Minnesota","Richfield","Suburban","Richfield Intermediate School","No","Trichloroethylene","","","","0.105716620043393","0.0788164809672038","0.50930357545328","0.0308622041976757","0.0487149197469417","0.0412949655141459","0.0321845454505198","0.0142189805809857","0.0305840388222866","0.0572210606841924",""
"27-053-0962","Trichloroethylene","44.965242","-93.254759","Minneapolis","","RESIDENTIAL","","Minneapolis Near Roadway NOx","meanRos_ug_m3","No","Undetermined","Minnesota","Minneapolis","Urban And Center City","Near Road I-35/I-94","No","Trichloroethylene","","","","","","","","","","","","0.0876206350546699","0.0839167284744573","0.0708560145890138"
"27-053-0963","Trichloroethylene","44.95366","-93.25821","Minneapolis","","RESIDENTIAL","","HC Anderson School","meanRos_ug_m3","Yes","Decreasing","Minnesota","Minneapolis","Urban And Center City","Andersen School","No","Trichloroethylene","0.156021874110455","0.303807885295605","0.345839189020577","0.26116915738678","0.175298724909815","0.128161276083892","0.206738258989249","0.197017910856314","0.0907899096295005","0.146954155509655","0.0707988724058514","0.0895699490665168","0.0799510035595382","0.0756826269573337"
"27-053-0964","Trichloroethylene","44.888551","-93.195377","NOT IN A CITY","","COMMERCIAL","","MSP AIRPORT","meanRos_ug_m3","No","Undetermined","Minnesota","Not in a city","Suburban","MSP Airport","No","Trichloroethylene","0.0661826381392763","","","","","","","","","","","","",""
"27-053-0965","Trichloroethylene","45.004478","-93.240046","Minneapolis","","RESIDENTIAL","","Putnam School","meanRos_ug_m3","No","Undetermined","Minnesota","Minneapolis","Urban And Center City","Putnam Elementary School","No","Trichloroethylene","0.694579355478334","1.39701908906969","0.606902148414774","0.260434709849044","","","","","","","","","",""
"27-053-0966","Trichloroethylene","44.97944","-93.26613","Minneapolis","","COMMERCIAL","","UATMP: MIMN; City of Lakes Bldg","meanRos_ug_m3","Yes","Decreasing","Minnesota","Minneapolis","Urban And Center City","City of Lakes Building","No","Trichloroethylene","0.176606764161376","0.185144375102205","0.172674381635727","0.177929344721167","0.162581762549837","0.126148874583487","0.123504294338561","0.128921726693567","0.114184071347439","0.0812794959974289","0.0747259414875526","0.0611762046828506","0.0790906976945704","0.068018158378129"
"27-053-0968","Trichloroethylene","44.893005","-93.233227","MINNEAPOLIS","","COMMERCIAL","","MSP Airport 968","meanRos_ug_m3","No","Undetermined","Minnesota","Minneapolis","Urban And Center City","Metropolitan Airports Commission","No","Trichloroethylene","","","0.109300290367263","0.0775040397431313","","","","","","","","","",""
"27-053-0969","Trichloroethylene","44.90057","-93.23828","MINNEAPOLIS","","RESIDENTIAL","","WENONAH SCHOOL","meanRos_ug_m3","No","Undetermined","Minnesota","Minneapolis","Suburban","Wenonah Elementary School","No","Trichloroethylene","","","","0.107000679291928","0.0599321007046457","0.0648201506044557","0.0542474594814957","","","","","","",""
"27-053-1007","Trichloroethylene","45.03972","-93.29874","Minneapolis","","RESIDENTIAL","","Humboldt Ave","meanRos_ug_m3","Yes","Decreasing","Minnesota","Minneapolis","Suburban","Humboldt Avenue","No","Trichloroethylene","0.124087949245668","0.123015184071869","0.112379480039362","0.0981728450189701","0.0904253769837893","0.0822403388300368","0.0745240882031388","0.102231117358435","0.0705671483300861","0.0615461989489114","0.0804317780215833","0.0804059055043561","0.0713001401577719","0.089538629707162"
"27-053-2006","Trichloroethylene","44.94805","-93.34315","ST LOUIS PARK","","RESIDENTIAL","","St. Louis Park","meanRos_ug_m3","No","No Trend","Minnesota","St. Louis Park","Suburban","St. Louis Park City Hall","No","Trichloroethylene","","","","","","0.0439759372742589","0.0598778012197693","0.0743616749726122","0.0712279520145763","0.0394970729502538","0.0341175897765855","0.0358010348080261","0.0597630968178079","0.0411698600377528"
"27-067-4110","Trichloroethylene","45.112271","-95.040357","Willmar","","COMMERCIAL","","201 SE WILLMAR AVE.","meanRos_ug_m3","No","Undetermined","Minnesota","Willmar","Urban And Center City","Willmar","No","Trichloroethylene","","","","","","","","","","","","","",""
"27-071-1240","Trichloroethylene","48.605216","-93.402371","International Falls","","INDUSTRIAL","","LOCATED IN PENTHOUSE ATOP CUSTOMS BUILDING","meanRos_ug_m3","No","Undetermined","Minnesota","International Falls","Urban And Center City","LOCATED IN PENTHOUSE ATOP CUSTOMS BUILDING","No","Trichloroethylene","","","","","","","","","","","","","",""
"27-071-1241","Trichloroethylene","48.605216","-93.406538","INTERNATIONAL FALLS","","RESIDENTIAL","","MPCA SITE 1241, AIR TOXICS SITE","meanRos_ug_m3","No","Undetermined","Minnesota","International Falls","Urban And Center City","MPCA SITE 1241, AIR TOXICS SITE","No","Trichloroethylene","","","","","","","","","","","","","",""
"27-075-0005","Trichloroethylene","47.948622","-91.495574","NOT IN A CITY","","UNKNOWN","","Fernberg Road","meanRos_ug_m3","No","Undetermined","Minnesota","Not in a city","Rural","Boundary Waters","No","Trichloroethylene","","","","","","","","0.00434904285712418","","","","","",""
"27-085-4301","Trichloroethylene","44.890795","-94.367483","HUTCHINSON","","COMMERCIAL","","HUTCHINSON","meanRos_ug_m3","No","Undetermined","Minnesota","Hutchinson","Urban And Center City","1999/2000 STATE WIDE AIR TOXICS STUDY HUTCHINSON SITE 4301","No","Trichloroethylene","","","","","","","","","","","","","",""
"27-095-3051","Trichloroethylene","46.2053","-93.75945","ONAMIA","","FOREST","","Mille Lacs","meanRos_ug_m3","No","Undetermined","Minnesota","Onamia","Rural","Mille Lacs Band","No","Trichloroethylene","","","","","","","","","","0.00463408619610789","","","",""
"27-097-3049","Trichloroethylene","45.971127","-94.347481","LITTLE FALLS","","RESIDENTIAL","","AIR TOXICS MONITOR","meanRos_ug_m3","No","Undetermined","Minnesota","Little Falls","Urban And Center City","AIR TOXICS MONITOR","No","Trichloroethylene","","","","","","","","","","","","","",""
"27-109-5008","Trichloroethylene","43.996908","-92.450366","ROCHESTER","","RESIDENTIAL","","ROCHESTER","meanRos_ug_m3","No","Undetermined","Minnesota","Rochester","Suburban","Ben Franklin School","No","Trichloroethylene","","","","","","","","","","","","","",""
"27-111-2005","Trichloroethylene","46.281349","-96.074225","FERGUS FALLS","","RESIDENTIAL","","FERGUS FALLS","meanRos_ug_m3","No","Undetermined","Minnesota","Fergus Falls","Urban And Center City","1997/1998 MN AIR TOXICS SITE","No","Trichloroethylene","","","","","","","","","","","","","",""
"27-111-2012","Trichloroethylene","46.586904","-95.584209","PERHAM","","RESIDENTIAL","","PRAIRIE WINDS MIDDLE SCHOOL","meanRos_ug_m3","No","Undetermined","Minnesota","Not in a city","Suburban","PRAIRIE WINDS MIDDLE SCHOOL","No","Trichloroethylene","","","","","","","","","","","","","",""
"27-115-1400","Trichloroethylene","46.121338","-92.999927","SANDSTONE","","AGRICULTURAL","","MPCA SITE 1400","meanRos_ug_m3","No","Undetermined","Minnesota","Not in a city","Rural","MPCA SITE 1400","No","Trichloroethylene","","","","","","","","","","","","","",""
"27-123-0017","Trichloroethylene","44.944134","-93.065125","SAINT PAUL","","INDUSTRIAL","","","meanRos_ug_m3","No","Undetermined","Minnesota","St. Paul","Suburban","Holman Field","No","Trichloroethylene","0.118556721227117","0.129261949334191","0.174601303498008","0.168039312616106","","","","","","","","","",""
"27-123-0021","Trichloroethylene","44.96555","-93.05684","SAINT PAUL","","COMMERCIAL","","Ross Avenue","meanRos_ug_m3","No","No Trend","Minnesota","St. Paul","Urban And Center City","Ross Avenue","No","Trichloroethylene","0.094030316034689","0.53065584866287","0.114126021554591","0.103732943001731","0.123135309410753","","","","","","","","",""
"27-123-0868","Trichloroethylene","44.95072","-93.09827","SAINT PAUL","","COMMERCIAL","","Ramsey Health Center","meanRos_ug_m3","No","No Trend","Minnesota","St. Paul","Urban And Center City","Ramsey Health Center","No","Trichloroethylene","","","","","0.114763597094002","0.115920746341388","0.108063257788918","0.124596010672979","0.114156293179151","0.168820035347849","0.102517329058988","0.14166567892835","","0.164679071012476"
"27-123-0871","Trichloroethylene","44.95939","-93.03587","SAINT PAUL","","RESIDENTIAL","","Harding High School","meanRos_ug_m3","No","No Trend","Minnesota","St. Paul","Suburban","Harding High School","No","Trichloroethylene","","","","","","0.044563642232011","0.0605949793222288","0.0564890968749932","0.0627516599943873","0.0706875615840311","0.041783114121153","0.0243383214858965","","0.0506111614941315"
"27-123-1908","Trichloroethylene","44.973096","-93.199879","St. Paul","","RESIDENTIAL","","South St. Anthony Park","meanRos_ug_m3","No","Undetermined","Minnesota","St. Paul","Urban And Center City","South St. Anthony Park","No","Trichloroethylene","","","","","","","","","","","","","","0.232945106416823"
"27-137-7001","Trichloroethylene","47.523355","-92.536305","Virginia","","COMMERCIAL","","Virginia","meanRos_ug_m3","No","Undetermined","Minnesota","Virginia","Urban And Center City","Virginia City Hall","No","Trichloroethylene","","","","","","","","","","","","","",""
"27-137-7014","Trichloroethylene","47.423821","-92.926856","HIBBING","","RESIDENTIAL","","HIBBING","meanRos_ug_m3","No","Undetermined","Minnesota","Hibbing","Suburban","1997/1998 MN AIR TOXICS SITE","No","Trichloroethylene","","","","","","","","","","","","","",""
"27-137-7549","Trichloroethylene","46.77107","-92.11732","Duluth","","INDUSTRIAL","","Michigan St.","meanRos_ug_m3","Yes","Decreasing","Minnesota","Duluth","Urban And Center City","Michigan Street","No","Trichloroethylene","0.0719388227021495","0.0736723000489835","0.0601871309204102","0.0415828571284949","0.0322421939493606","0.0372691679507162","0.0207912572775555","0.0142408887499478","0.0433705149761833","0.0163094673013909","0.0153797615911618","0.0408267493956359","",""
"27-137-7550","Trichloroethylene","46.81826","-92.08936","DULUTH","","RESIDENTIAL","","DULUTH","meanRos_ug_m3","No","Undetermined","Minnesota","Duluth","Suburban","U of M - Duluth","No","Trichloroethylene","","","","","","","","","","","","","",""
"27-137-7551","Trichloroethylene","46.76643","-92.13354","Duluth","","RESIDENTIAL","","Lincoln Park School","meanRos_ug_m3","No","Undetermined","Minnesota","Duluth","Suburban","Lincoln Park School","No","Trichloroethylene","","","","","","","","","","","","","",""
"27-141-3050","Trichloroethylene","45.303298","-93.599684","ELK RIVER","","RESIDENTIAL","","ELK RIVER","meanRos_ug_m3","No","Undetermined","Minnesota","Elk River","Suburban","ELK RIVER CITY HALL","No","Trichloroethylene","","","","","","","","","","","","","",""
"27-145-3052","Trichloroethylene","45.549839","-94.13345","SAINT CLOUD","","RESIDENTIAL","","ST CLOUD","meanRos_ug_m3","No","Undetermined","Minnesota","St. Cloud","Suburban","Talahi School","No","Trichloroethylene","","","","","","","","","","","","","",""
"27-151-4500","Trichloroethylene","45.247739","-95.917822","HOLLOWAY","","AGRICULTURAL","","SCHLEUTER FARM_(HOLLOWAY)","meanRos_ug_m3","No","Undetermined","Minnesota","Not in a city","Rural","SCHLEUTER FARM_(HOLLOWAY)","No","Trichloroethylene","","","","","","","","","","","","","",""
"27-163-0301","Trichloroethylene","44.991634","-92.822429","STILLWATER","","RESIDENTIAL","","STILLWATER","meanRos_ug_m3","No","Undetermined","Minnesota","Stillwater","Rural","SITE NAME WEST LAKELAND  1999/2000 STATEWIDE AIR TOXIC SITE  0301","No","Trichloroethylene","","","","","","","","","","","","","",""
"27-163-0436","Trichloroethylene","44.84737","-92.9954","SAINT PAUL","","INDUSTRIAL","","MPC 436","meanRos_ug_m3","Yes","No Trend","Minnesota","St. Paul Park","Suburban","Saint Paul Park Refinery 436","No","Trichloroethylene","0.0469842573344855","0.0262066366503694","0.0442561040390655","0.0721505565336884","0.0350983113605456","0.0323263084200619","0.0378657556804142","0.0286350353000709","0.0458294713595674","0.0266563059386036","0.0125300628571443","0.0393890224178231","0.0569619406735698",""
"27-163-0438","Trichloroethylene","44.85711","-93.00352","Newport","","INDUSTRIAL","","MPC 438","meanRos_ug_m3","Yes","No Trend","Minnesota","Newport","Suburban","Saint Paul Park Refinery 438","No","Trichloroethylene","","0.0330135838162914","0.0761604396806914","0.055732122685431","0.0376169568252563","0.0518680608349744","0.0345590053963162","0.0371956961269633","0.0433590212931306","0.0318898440383441","0.0151828025671043","0.0228841762914418","0.0484816618853728",""
"27-163-0445","Trichloroethylene","45.01876","-92.78027","BAYPORT","","RESIDENTIAL","","Anderson School","meanRos_ug_m3","No","Undetermined","Minnesota","Bayport","Suburban","Anderson School","No","Trichloroethylene","","","","","0.161240294918255","","","","","","","","",""
"27-163-0446","Trichloroethylene","45.02798","-92.77415","Bayport","","INDUSTRIAL","","Point Rd.","meanRos_ug_m3","No","No Trend","Minnesota","Bayport","Suburban","Point Road","No","Trichloroethylene","","","","","","0.0246932617182664","0.0192315567475832","0.0222295724391563","","0.015159243349126","0.0144214950029132","0.0160879996480396","",""
"27-169-5210","Trichloroethylene","44.050871","-91.642432","WINONA","","RESIDENTIAL","","WINONA","meanRos_ug_m3","No","Undetermined","Minnesota","Winona","Urban And Center City","WINONA MIDDLE SCHOOL,  2 STORY BUILDING","No","Trichloroethylene","","","","","","","","","","","","","",""
"27-171-3201","Trichloroethylene","45.20916","-93.66921","SAINT MICHAEL","","RESIDENTIAL","","St. Michael","meanRos_ug_m3","No","Undetermined","Minnesota","St. Michael","Suburban","St. Michael Elementary School","No","Trichloroethylene","","","","","","","","","","","","","",""
"28-043-0001","Trichloroethylene","33.834444","-89.792778","Grenada","","AGRICULTURAL","","UATMP: GRMS","meanRos_ug_m3","No","Undetermined","Mississippi","Grenada","Rural","Grenada","No","Trichloroethylene","","","","","","","","","","","","","",""
"28-047-0008","Trichloroethylene","30.390369","-89.049778","Gulfport","","COMMERCIAL","","UATMP: GPMS; Katrina: GPMS; BP Oil site GPMS","meanRos_ug_m3","No","Undetermined","Mississippi","Gulfport","Rural","Gulfport Youth Court","No","Trichloroethylene","","","","","","","","","","","","","",""
"28-049-0010","Trichloroethylene","32.385731","-90.1412","Jackson","","COMMERCIAL","","UATMP: JAMS","meanRos_ug_m3","No","Undetermined","Mississippi","Jackson","Suburban","Jackson FS19","No","Trichloroethylene","","","","","","","","","","","","","",""
"28-059-0006","Trichloroethylene","30.378287","-88.53393","Pascagoula","","COMMERCIAL","","UATMP: PGMS; Katrina: PGMS","meanRos_ug_m3","No","Undetermined","Mississippi","Pascagoula","Urban And Center City","Pascagoula","No","Trichloroethylene","","","","","","","","","","","","","",""
"28-081-0005","Trichloroethylene","34.264917","-88.766222","Tupelo","","COMMERCIAL","","UATMP: TUMS; Katrina: TUMS","meanRos_ug_m3","No","Undetermined","Mississippi","Tupelo","Suburban","TUPELO AIRPORT NEAR OLD NWS OFFICE","No","Trichloroethylene","","","","","","","","","","","","","",""
"28-087-0002","Trichloroethylene","33.509588","-88.408928","Columbus","","RESIDENTIAL","","UATMP: KMMS","meanRos_ug_m3","No","Undetermined","Mississippi","Columbus","Urban And Center City","UATMP: KMMS","No","Trichloroethylene","","","","","","","","","","","0.0467918858906396","","",""
"28-087-0003","Trichloroethylene","33.499588","-88.403648","Columbus","","RESIDENTIAL","","UATMP: SSMS","meanRos_ug_m3","No","Undetermined","Mississippi","Columbus","Urban And Center City","UATMP: SSMS","No","Trichloroethylene","","","","","","","","","","","0.0376517704204579","","",""
"29-510-0089","Trichloroethylene","38.60183","-90.232891","SAINT LOUIS","","RESIDENTIAL","","UATMP: SLMO","meanRos_ug_m3","No","Undetermined","Missouri","St. Louis","Urban And Center City","UATMP: SLMO","No","Trichloroethylene","","","","","","","","","","","","","",""
"33-011-0020","Trichloroethylene","42.995778","-71.462528","Manchester","","COMMERCIAL","","PEARL ST MUNICIPAL PARKING LOT","meanRos_ug_m3","No","No Trend","New Hampshire","Manchester","Urban And Center City","PEARL ST MUNICIPAL PARKING LOT","No","Trichloroethylene","","0.0884618545121413","0.103058519810147","0.120663623047168","0.104549197245368","0.767600873274231","","","","","","","",""
"33-013-1003","Trichloroethylene","43.177304","-71.462014","Pembroke","","RESIDENTIAL","","","meanRos_ug_m3","No","Undetermined","New Hampshire","Pembroke","Rural","","No","Trichloroethylene","0.262855434761705","","","","","","","","","","","","",""
"33-013-1006","Trichloroethylene","43.13246","-71.458246","Pembroke","","RESIDENTIAL","","PEMBROKE HIGHWAY DEPARTMENT","meanRos_ug_m3","No","Undetermined","New Hampshire","Suncook","Suburban","PEMBROKE HIGHWAY DEPARTMENT","No","Trichloroethylene","0.233877671363558","","","","","","","","","","","","",""
"33-015-0014","Trichloroethylene","43.075371","-70.748017","Portsmouth","","RESIDENTIAL","","PORTSMOUTH - PEIRCE ISLAND","meanRos_ug_m3","No","Undetermined","New Hampshire","Portsmouth","Urban And Center City","PORTSMOUTH - PEIRCE ISLAND","No","Trichloroethylene","","0.0921231595720564","0.0995088956411954","0.124118622520201","0.0713647409484863","","","","","","","","",""
"33-019-0003","Trichloroethylene","43.364518","-72.337867","Claremont","","RESIDENTIAL","","","meanRos_ug_m3","No","No Trend","New Hampshire","Claremont","Urban And Center City","","No","Trichloroethylene","1.16698547773895","0.0846957298315593","0.102103168525696","0.123992654830678","0.112024124171917","0.810555855401357","","","","","","","",""
"34-007-0002","Trichloroethylene","39.934446","-75.125291","Camden","","INDUSTRIAL","","UATMP: CSNJ; Camden Spruce Street","meanRos_ug_m3","No","Undetermined","New Jersey","Camden","Urban And Center City","Camden Spruce Street","No","Trichloroethylene","","","","","","","","","","","0.0564038728894492","0.0532518452658425","0.0806043059937811","0.0637475185614482"
"34-007-0003","Trichloroethylene","39.923042","-75.097617","Camden","","RESIDENTIAL","","UATMP: CANJ","meanRos_ug_m3","No","Undetermined","New Jersey","Camden","Suburban","CAMDEN LAB","No","Trichloroethylene","","0.326989061207163","0.390402167895558","0.412602525094954","0.215160497003018","","","","","","","","",""
"34-023-0006","Trichloroethylene","40.472825","-74.422403","NOT IN A CITY","","AGRICULTURAL","","UATMP: NBNJ","meanRos_ug_m3","No","No Trend","New Jersey","North Brunswick Township","Rural","New Brunswick","No","Trichloroethylene","","","0.0597606482118673","0.0702726399003837","0.0602545632003517","0.0772388356192586","0.0408460397703077","0.0278733135444685","0.0348545671032115","0.041414855254916","","0.0372079077027079","",""
"34-023-0011","Trichloroethylene","40.462182","-74.429439","NOT IN A CITY","","AGRICULTURAL","","Rutgers University","meanRos_ug_m3","No","Undetermined","New Jersey","East Brunswick","Rural","Rutgers University","No","Trichloroethylene","","","","","","","","","","","","","","0.0395337597042801"
"34-027-3001","Trichloroethylene","40.787628","-74.676301","NOT IN A CITY","","AGRICULTURAL","","UATMP: CHNJ","meanRos_ug_m3","No","Undetermined","New Jersey","Chester","Rural","Chester","No","Trichloroethylene","","","","","0.0295569155845918","0.034654751661576","","","","","","","",""
"34-031-0006","Trichloroethylene","40.915747","-74.176733","Paterson","","MOBILE","","Paterson Public School - PS2","meanRos_ug_m3","No","Undetermined","New Jersey","Paterson","Urban And Center City","Paterson Public School - PS2","No","Trichloroethylene","","","","0.0616849489581331","","","","","","","","","",""
"34-031-0007","Trichloroethylene","40.927458","-74.160611","Paterson","","INDUSTRIAL","","Paterson Public School - PS10","meanRos_ug_m3","No","Undetermined","New Jersey","Paterson","Urban And Center City","Paterson Public School - PS10","No","Trichloroethylene","","","","0.078733165448211","","","","","","","","","",""
"34-039-0004","Trichloroethylene","40.64144","-74.208365","Elizabeth","","INDUSTRIAL","","UATMP: ELNJ; NADP: NJ54","meanRos_ug_m3","Yes","Decreasing","New Jersey","Elizabeth","Suburban","Elizabeth Lab","No","Trichloroethylene","0.124705365945338","","0.102133126910857","0.0936566315169267","0.0900091820726638","0.0746162891185152","0.081994397562382","0.0394434472050146","0.101726837450025","0.0487599371039488","0.0405945234495271","0.0472877771621562","0.0284980787800902","0.0374965066749558"
"36-001-0013","Trichloroethylene","42.640931","-73.756511","Albany","","RESIDENTIAL","","","meanRos_ug_m3","No","Undetermined","New York","Not in a city","Urban And Center City","","No","Trichloroethylene","","","","","","","","","","","","","0.0141292678059315","0.0137119448313593"
"36-005-0083","Trichloroethylene","40.86585","-73.88083","New York City","","COMMERCIAL","","UATMP: BXNY","meanRos_ug_m3","No","Undetermined","New York","New York","Urban And Center City","BOTANICAL GARDEN","No","Trichloroethylene","0.365229943053382","","","","","","","","","","","","",""
"36-005-0133","Trichloroethylene","40.8679","-73.87809","NEW YORK CITY","","COMMERCIAL","","PFIZER LAB SITE; NADP: NY06","meanRos_ug_m3","No","No Trend","New York","New York","Urban And Center City","PFIZER LAB SITE","No","Trichloroethylene","","","","","0.0873222127046672","0.0804557190842765","0.0541984092516978","0.0225522301031418","0.0179055170380289","0.0255360483248406","0.0252111177799978","0.0235493865871203","0.0276020472384221","0.0340508881925662"
"36-029-0005","Trichloroethylene","42.876907","-78.809526","BUFFALO","","RESIDENTIAL","","BUFFALO","meanRos_ug_m3","No","Undetermined","New York","Buffalo","Urban And Center City","BUFFALO","No","Trichloroethylene","","","","","","","","","","","","0.0711736706915961","0.0636035994467772","0.0291825292154569"
"36-029-1007","Trichloroethylene","42.8273","-78.84984","Lackawanna","","INDUSTRIAL","","SIMON STREET","meanRos_ug_m3","No","Decreasing","New York","Lackawanna","Urban And Center City","SIMON STREET","No","Trichloroethylene","0.107483367651248","","0.0519418753142136","0.0406198744018608","0.036167929513157","0.0381490601516953","0.0216537534356836","0.0226277816762329","","","","","",""
"36-029-1013","Trichloroethylene","42.98844","-78.91859","Tonawanda","","INDUSTRIAL","","UATMP: TONY; GRAND ISLE BOULDVARD","meanRos_ug_m3","No","No Trend","New York","Tonawanda","Urban And Center City","GRAND ISLE BOULDVARD","No","Trichloroethylene","","","","","","0.113368656109024","0.0652937576119887","0.0450965239713839","0.0203356596334265","0.0236073298575734","0.0459236134120727","0.0288349984150803","0.0348451117112575","0.0271110931945605"
"36-029-1014","Trichloroethylene","42.99813","-78.89926","Tonawanda","","RESIDENTIAL","","BROOKSIDE TERRACE","meanRos_ug_m3","No","Decreasing","New York","Tonawanda","Suburban","BROOKSIDE TERRACE","No","Trichloroethylene","","","","","","0.120463826023738","0.065786661603263","0.0449254094904483","0.0220002466891282","0.0324999779623724","0.04446106212697","0.0284241134136643","0.0306093301478672","0.0233159053544005"
"36-031-0003","Trichloroethylene","44.39308","-73.8589","SUNY","","FOREST","","WHITEFACE BASE","meanRos_ug_m3","Yes","No Trend","New York","Not in a city","Rural","WHITEFACE BASE","No","Trichloroethylene","0.0337941347185647","0.0372968389945528","0.033165299956021","","0.0203157899653467","","0.00779497049230457","0.00307837219975389","","0.00651549273467603","","0.0112292684595364","0.00956720976056352","0.0871607186064535"
"36-031-0006","Trichloroethylene","44.401161","-73.387353","Lake Champlain","","AGRICULTURAL","","","meanRos_ug_m3","No","Undetermined","New York","Not in a city","Rural","","No","Trichloroethylene","","","","","","","","","","","","","",""
"36-047-0099","Trichloroethylene","40.712325","-73.939582","Brooklyn","","COMMERCIAL","","EAST HS","meanRos_ug_m3","No","Undetermined","New York","New York","Urban And Center City","EASTERN DISTRICT HIGH SCHOOL","No","Trichloroethylene","","","","","","","","","","","","","",""
"36-047-0118","Trichloroethylene","40.69454","-73.92769","New York City","","RESIDENTIAL","","PS 274","meanRos_ug_m3","Yes","Decreasing","New York","New York","Suburban","PS 274","No","Trichloroethylene","0.171963231201172","","0.135421044570923","","0.0925349934083701","0.0808148643072966","0.0712035254192352","0.0453183658632591","0.0309240131824121","0.03338571769277","","0.0339290198816038","0.0324619443669859","0.0395967966581646"
"36-055-0008","Trichloroethylene","43.170062","-77.636391","ROCHESTER","","RESIDENTIAL","","","meanRos_ug_m3","No","Undetermined","New York","Rochester","Urban And Center City","","No","Trichloroethylene","","","","","","","","","","","","","",""
"36-055-1006","Trichloroethylene","43.20361","-77.62916","ROCHESTER","","INDUSTRIAL","","MERL ST","meanRos_ug_m3","No","Undetermined","New York","Rochester","Urban And Center City","KODAK AREA","No","Trichloroethylene","","","","","","","","","","","","","",""
"36-061-0056","Trichloroethylene","40.75912","-73.96661","New York","","COMMERCIAL","","PS 59","meanRos_ug_m3","No","Undetermined","New York","New York","Urban And Center City","PS 59","No","Trichloroethylene","0.407910631142388","","0.281551406442097","0.229201005475137","0.213765728959074","","","","","","","","",""
