"site_id","parameter_desc","latitude","longitude","city_name","location","land_use_type","setting","site_name","stat","used_in_nat_agg","trend","state_name","city_name","location_setting","local_site_name","natts","toxic_name_alias","2003","2004","2005","2006","2007","2008","2009","2010","2011","2012","2013","2014","2015","2016"
"02-020-0018","Benzene","61.205861","-149.824602","ANCHORAGE","","RESIDENTIAL","","UATMP: ANAK","meanRos_ug_m3","No","Undetermined","Alaska","Anchorage","Suburban","GARDEN/TRINITY CHRISTIAN CHURCH","No","Benzene","","","","","","","2.83748521191946","","","","1.55076532461695","","",""
"02-090-NCRV","Benzene","64.986","-147.598","Barrow","","REMOTE-NOAA Global Monitoring Division","","NOAA: Carbon in Arctic Reservoirs Vulnerability Experiment (CARVE)","meanRos_ug_m3","No","Undetermined","Alaska","Barrow","","NOAA: Carbon in Arctic Reservoirs Vulnerability Experiment (CARVE)","No","Benzene","","","","","","","","","","0.258908564148813","0.298000190975784","0.179167891442776","",""
"02-185-NBRW","Benzene","71.323","-156.611","Barrow","","REMOTE-NOAA Global Monitoring Division","","NOAA: Barrow, Alaska","meanRos_ug_m3","Yes","Decreasing","Alaska","Barrow","","NOAA: Barrow, Alaska","No","Benzene","0.289971810189031","0.214814570080489","0.25144262611866","0.216754429636801","0.248152074766242","","0.214191573532298","0.245946905948222","0.21659570443444","0.19727886586291","0.209916991647333","0.203486662586125","",""
"04-013-4003","Benzene","33.40316","-112.07533","Phoenix","","RESIDENTIAL","","UATMP: SPAZ","meanRos_ug_m3","Yes","Decreasing","Arizona","Phoenix","Urban And Center City","SOUTH PHOENIX","No","Benzene","","2.80981639834001","4.49110129590911","","","1.47679766492936","1.63598260880442","1.68303154995343","1.64844600802735","1.43768814079285","1.06749632704891","1.07911806893733","1.27874372967186","1.32597101214629"
"04-013-4009","Benzene","33.40642","-112.14434","Phoenix","","INDUSTRIAL","","UATMP: MCAZ","meanRos_ug_m3","No","Undetermined","Arizona","Phoenix","Urban And Center City","WEST 43RD AVENUE","No","Benzene","1.6995710227946","","","","","","","","","","","","",""
"04-021-8001","Benzene","33.293465","-111.285594","QUEEN VALLEY","","DESERT","","UATMP: QVAZ, IMPROVE: QUVA1","meanRos_ug_m3","No","Undetermined","Arizona","Queen Valley","Rural","QUEEN VALLEY","No","Benzene","0.585597003599386","0.319199535076885","0.368673824622758","","","","","","","","","","",""
"06-001-0003","Benzene","37.6849","-121.7659","LIVERMORE","","COMMERCIAL","","Livermore - Old 1st St.","meanRos_ug_m3","No","Undetermined","California","Livermore","Urban And Center City","Livermore - Old 1st St.","No","Benzene","","","","","","","","","","","","","",""
"06-001-0006","Benzene","37.710229","-122.116899","San Leandro","","RESIDENTIAL","","San Leandro","meanRos_ug_m3","No","No Trend","California","Castro Valley","Suburban","San Leandro","No","Benzene","0.896622711462205","0.718892214254176","0.638972507019043","0.803634470949634","0.663606135174408","","","","","","","","",""
"06-001-0007","Benzene","37.687526","-121.784217","LIVERMORE","","COMMERCIAL","","REPLACES OLD SITE 06-001-0003 THAT WAS LOCATED AT 2614 OLD 1ST. ST.","meanRos_ug_m3","Yes","Decreasing","California","Livermore","Urban And Center City","Livermore","No","Benzene","1.25733299768263","0.994792021074378","0.79356262968494","0.883911968043009","0.821338852830611","0.628666498841316","0.57744182115795","0.677310857440185","0.704260582318762","0.626745719141491","0.858408033139196","0.627845571983022","0.678302366502801","0.57012837239183"
"06-001-0008","Benzene","37.817118","-122.280454","OAKLAND","","RESIDENTIAL","","OAKLAND FILBERT ST","meanRos_ug_m3","No","No Trend","California","Oakland","Urban And Center City","Oakland - Filbert St.","No","Benzene","1.60773727572533","1.27794501403809","0.927540735995385","1.12517078734299","1.05430463658142","0.609153790024821","","","","","","","",""
"06-001-0009","Benzene","37.743065","-122.169935","Oakland","","RESIDENTIAL","","Oakland East","meanRos_ug_m3","No","No Trend","California","Oakland","Urban And Center City","Oakland","No","Benzene","","","","","","0.747185592885171","0.638972507019043","0.969475527890962","0.957428159710792","0.851121463797062","1.13783483286189","0.800419560459188","0.833113653734995","0.754094053700307"
"06-001-0011","Benzene","37.814781","-122.282347","OAKLAND","","RESIDENTIAL","","Oakland-West","meanRos_ug_m3","No","No Trend","California","Oakland","Urban And Center City","Oakland West","No","Benzene","","","","","","","","0.839183892551676","0.939907945808657","0.795542070322276","0.942278327689534","0.68540450919576","0.89243160146993","0.715443087697774"
"06-001-0012","Benzene","37.793624","-122.263376","Oakland","","COMMERCIAL","","Laney College","meanRos_ug_m3","No","Undetermined","California","Oakland","Urban And Center City","Laney College","No","Benzene","","","","","","","","","","","","0.669437803335844","0.766554017587179","0.636189884811057"
"06-001-1001","Benzene","37.535833","-121.961823","Fremont","","RESIDENTIAL","","Fremont - Chapel Way","meanRos_ug_m3","No","Decreasing","California","Fremont","Suburban","Fremont - Chapel Way","No","Benzene","1.11713693310496","0.927575089355977","0.920805023507799","0.956255407056085","0.822144625697835","0.739311158511877","0.727363703823344","","","","","","",""
"06-001-2003","Benzene","37.816514","-122.23062","NOT IN A CITY","","RESIDENTIAL","","","meanRos_ug_m3","No","Undetermined","California","Not in a city","Suburban","","No","Benzene","","","","","","","","","","","","","",""
"06-001-2004","Benzene","37.877794","-122.30129","Berkeley","","COMMERCIAL","","Berkeley 6th and Camelia","meanRos_ug_m3","No","Undetermined","California","Berkeley","Urban And Center City","Berkeley","No","Benzene","","","","","","0.859994144692843","0.531453094780262","0.827521771385318","","","","","",""
"06-001-2005","Benzene","37.689615","-121.631916","NOT IN A CITY","","AGRICULTURAL","","Patterson Pass","meanRos_ug_m3","No","Undetermined","California","Not in a city","Rural","Patterson Pass","No","Benzene","","","","","","","","","0.343276784292088","0.295515614272769","","","",""
"06-007-0002","Benzene","39.757371","-121.843286","Chico","","COMMERCIAL","","468 MANZANITA AVE, CHICO","meanRos_ug_m3","No","No Trend","California","Not in a city","Suburban","Chico-Manzanita Ave.","No","Benzene","1.41810672525517","1.66239347242788","1.36863788600208","0.956328852171834","0.966170497682243","1.25630239686486","1.01101940223497","0.93694668612559","1.135347649555","","","","",""
"06-007-0008","Benzene","39.761538","-121.84162","Chico","","COMMERCIAL","","Chico - East Avenue","meanRos_ug_m3","No","Undetermined","California","Chico","Suburban","Chico-East Avenue","No","Benzene","","","","","","","","","","","0.87498009428898","0.575288247152812","0.735244364743245","0.613619726901836"
"06-013-0002","Benzene","37.936013","-122.026154","CONCORD","","RESIDENTIAL","","Concord","meanRos_ug_m3","Yes","Decreasing","California","Concord","Suburban","Concord","No","Benzene","1.37069908763762","0.980492295253359","0.829159045697246","0.566327203402763","0.673049149013881","0.533851223606233","0.460296861537792","0.528217272469075","0.602901478397","0.470432858750987","0.562048461980492","0.463042076753133","0.433223359758911","0.433264583791622"
"06-013-0003","Benzene","37.949924","-122.357193","RICHMOND","","COMMERCIAL","","Richmond-13th St.","meanRos_ug_m3","No","Undetermined","California","Richmond","Suburban","Richmond-13th St.","No","Benzene","","","","","","","","","","","","","",""
"06-013-0006","Benzene","37.948172","-122.364852","Richmond","","INDUSTRIAL","","Richmond - 7th St","meanRos_ug_m3","Yes","Decreasing","California","Richmond","Urban And Center City","Richmond - 7th St.","No","Benzene","1.10274287501674","0.969108302312215","0.756679523570224","0.742879644059669","0.773825706395561","0.526637017881824","0.455563731856169","0.594007775043629","0.595043147161484","0.497957884780358","0.761857569660589","0.432158405580546","0.479009044917034","0.454925604550879"
"06-013-1001","Benzene","38.05492","-122.233229","CROCKETT","","INDUSTRIAL","","Crockett - Kendall Ave","meanRos_ug_m3","Yes","No Trend","California","Crockett","Suburban","Crockett - Kendall Ave","No","Benzene","0.645342640168722","0.497153902332027","","0.414170943297441","0.447010342690604","0.372046895215927","0.323172633357708","0.389773229281616","0.421515734469014","0.421909139677729","0.468752434502642","0.310540638411255","0.364214329000854","0.44695025168233"
"06-013-1002","Benzene","38.006311","-121.641918","BETHEL ISLAND","","AGRICULTURAL","","Bethel Island","meanRos_ug_m3","Yes","Decreasing","California","Bethel Island","Rural","Bethel Island","No","Benzene","0.762644605151761","0.643586523522833","0.590748089496399","0.526919241797151","0.529566979036946","0.430791141828968","0.399949458097105","0.442026023625478","0.46686217045101","0.389528289820592","","0.372917575217148","0.37592882496287","0.403480220157992"
"06-013-1003","Benzene","37.9642","-122.3403","SAN PABLO","","COMMERCIAL","","San Pablo - El Portal Center","meanRos_ug_m3","No","Undetermined","California","San Pablo","Urban And Center City","San Pablo - El Portal Center","No","Benzene","","","","","","","","","","","","","",""
"06-013-1004","Benzene","37.9604","-122.356811","SAN PABLO","","COMMERCIAL","","SAN PABLO RUMRILL","meanRos_ug_m3","Yes","Decreasing","California","San Pablo","Urban And Center City","San Pablo","No","Benzene","1.19274867976888","1.09201603606079","0.937846744173111","0.913879793767953","0.922250318464152","0.741001987978535","","","0.632982139765739","0.564660878123619","0.684793019377215","0.530240685407969","0.693946176157406","0.588067697293193"
"06-013-2001","Benzene","38.012816","-122.134467","MARTINEZ","","RESIDENTIAL","","Martinez - Jones St.","meanRos_ug_m3","Yes","Decreasing","California","Martinez","Urban And Center City","Martinez - Jones St.","No","Benzene","1.0512128341281","0.830654813542218","0.745541351437105","0.704692098535643","0.681551251708282","0.549516356036377","0.443730907652113","0.574010302138774","0.561677445686094","0.4613700986931","0.578909091359253","0.429764094807118","0.462961542422584","0.477312462743225"
"06-013-2003","Benzene","38.0096","-121.8211","Antioch","","RESIDENTIAL","","","meanRos_ug_m3","No","Undetermined","California","Not in a city","Suburban","","No","Benzene","","","","","","","","","","","","","",""
"06-013-2004","Benzene","38.0066","-122.0908","Martinez","","COMMERCIAL","","","meanRos_ug_m3","No","Undetermined","California","Martinez","Urban And Center City","","No","Benzene","","","","","","","","","","","","","",""
"06-013-2006","Benzene","38.0106","-122.0291","CONCORD","","COMMERCIAL","","","meanRos_ug_m3","No","Undetermined","California","Concord","Urban And Center City","","No","Benzene","","","","","","","","","","","","","",""
"06-013-3001","Benzene","38.029258","-121.896866","PITTSBURG","","RESIDENTIAL","","Pittsburg - W 10th St.","meanRos_ug_m3","No","No Trend","California","Pittsburg","Urban And Center City","Pittsburg - W 10th St.","No","Benzene","1.205802956794","0.926510135177612","0.876010695106752","0.841313800908407","0.963688169435927","","","","","","","","",""
"06-019-0008","Benzene","36.781333","-119.77319","Fresno","","RESIDENTIAL","","PM Supersite: Fresno","meanRos_ug_m3","No","Decreasing","California","Fresno","Suburban","3425 N FIRST ST, FRESNO","No","Benzene","1.72419516813364","1.25025620540059","1.36815289738195","1.30164883284686","1.2393863282697","1.13366089954991","1.06329018746138","0.846851562635905","1.04205766353022","","","","",""
"06-019-0011","Benzene","36.785322","-119.774174","Fresno","","COMMERCIAL","","Fresno - Garland","meanRos_ug_m3","No","No Trend","California","Fresno","Urban And Center City","Fresno - Garland","No","Benzene","","","","","","","","","","0.788139537105902","0.980307497865345","0.825871965322113","0.82778888284317","0.906722599476377"
"06-019-3002","Benzene","36.607171","-119.540683","PARLIER","","AGRICULTURAL","","PARLIER","meanRos_ug_m3","No","Undetermined","California","Parlier","Urban And Center City","PARLIER","No","Benzene","","","","0.872653881014579","","","","","","","","","",""
"06-023-NTHD","Benzene","41.054","-124.151","Trinidad","","REMOTE-NOAA Global Monitoring Division","","NOAA: Trinidad Head, California","meanRos_ug_m3","Yes","Decreasing","California","Trinidad","","NOAA: Trinidad Head, California","No","Benzene","0.244879823252559","0.228106664151562","0.221224262999992","0.19923026899391","0.224990207608789","0.209374335575469","0.178965548713071","0.193976771248424","0.196001556644938","0.182005512612787","0.170003836281424","0.164814120911537","",""
"06-025-0005","Benzene","32.676186","-115.484144","Calexico","","RESIDENTIAL","","CALEXICO HIGH SCHOOL  ARB (#1300698)","meanRos_ug_m3","Yes","Decreasing","California","Calexico","Suburban","Calexico-Ethel Street","No","Benzene","3.02553482073517","2.54043101580958","3.08410730054525","2.78674461125725","2.35963418663461","1.63158324637104","1.5448706258412","1.61155592296592","1.429752514496","1.8855197340743","1.38924990235753","1.53640939312729","1.25653943505295","1.58092447778295"
"06-029-0004","Benzene","35.374959","-119.022602","BAKERSFIELD","","RESIDENTIAL","","Bakersfield-Chester Ave.","meanRos_ug_m3","No","Undetermined","California","Bakersfield","Urban And Center City","Bakersfield-Chester Ave.","No","Benzene","","","","","","","","","","","","","",""
"06-029-0009","Benzene","35.36107","-119.060103","BAKERSFIELD","","COMMERCIAL","","BAKERSFIELD","meanRos_ug_m3","No","Undetermined","California","Bakersfield","Urban And Center City","BAKERSFIELD","No","Benzene","","","","","","","","","","","","","",""
"06-029-0014","Benzene","35.356601","-119.063542","Bakersfield","","MOBILE","","Bakersfield-California Avenue","meanRos_ug_m3","Yes","Decreasing","California","Bakersfield","Urban And Center City","Bakersfield-California","No","Benzene","1.286758427928","1.13801003500092","1.17643083348748","1.23108703019002","1.00638169855499","1.13466027003988","1.05806329838742","0.970599238161926","0.905888749723816","0.938127817123413","0.783852577632274","","0.915168373178024","0.918469731130956"
"06-037-0002","Benzene","34.1365","-117.92391","Azusa","","RESIDENTIAL","","Azusa","meanRos_ug_m3","Yes","Decreasing","California","Azusa","Suburban","Azusa","No","Benzene","1.86086154255894","1.52650706509502","1.58895600721145","1.42897898162232","1.32237629902069","1.28008365152743","1.24599638868713","1.10655959160459","1.11718130619573","0.995130972960975","0.879658118745204","0.845280583456013","0.797428814141613","1.00895820059942"
"06-037-1002","Benzene","34.17605","-118.31712","BURBANK","","COMMERCIAL","","MATES: Burbank","meanRos_ug_m3","No","Decreasing","California","Burbank","Urban And Center City","Burbank","No","Benzene","2.76334138435366","2.69603248956533","2.87524640912492","2.34592055116762","1.91565639110906","1.96197228539062","2.23711946957899","1.8945091102207","1.69424912558865","1.46847114478768","1.48624709636811","","",""
"06-037-1601","Benzene","34.01407","-118.06056","Pico Rivera","","COMMERCIAL","","MATES: Pico Rivera","meanRos_ug_m3","No","Undetermined","California","Pico Rivera","Suburban","MATES: Pico Rivera","No","Benzene","2.45488073782518","2.23073387963554","","","","","","","","","","","",""
"06-037-1602","Benzene","34.01194","-118.06995","PICO RIVERA","","COMMERCIAL","","Pico Rivera #2","meanRos_ug_m3","No","Decreasing","California","Pico Rivera","Suburban","Pico Rivera #2","No","Benzene","","","","1.97568362889964","1.65917992648614","1.81446498482367","1.88383410846694","1.61749424358645","1.51868070856851","1.30970346900004","1.23383816181747","1.13143583238434","0.982464271714579",""
"06-037-4002","Benzene","33.82376","-118.18921","Long Beach","","RESIDENTIAL","","UATMP: LBHCA; MATES: North Long Beach","meanRos_ug_m3","No","Decreasing","California","Long Beach","Suburban","Long Beach (North)","No","Benzene","2.19143904259124","1.80045962864882","1.84564751065885","1.55376814623464","1.33743555779503","1.40360960708516","1.31760537654272","1.09854119475966","1.4664419036087","1.15777461983027","1.04946393490509","","",""
"06-037-5001","Benzene","33.92288","-118.37026","Hawthorne","","COMMERCIAL","","Hawthorne","meanRos_ug_m3","No","Undetermined","California","Hawthorne","Urban And Center City","Hawthorne","No","Benzene","2.02109408705365","","","","","","","","","","","","",""
"06-037-5005","Benzene","33.9508","-118.43043","LOS ANGELES","","RESIDENTIAL","","LAX Hastings","meanRos_ug_m3","Yes","Decreasing","California","Los Angeles","Suburban","LAX Hastings","No","Benzene","","1.14643555619812","1.48785308761583","1.22382439185888","0.973350068954856","1.04083135265817","1.07418378124424","0.96436441551768","0.694981208251576","0.69301893157107","","0.697825237928692","0.665229135899423",""
"06-037-6012","Benzene","34.38344","-118.5284","Santa Clarita","","COMMERCIAL","","Santa Clarita","meanRos_ug_m3","Yes","Decreasing","California","Santa Clarita","Suburban","Santa Clarita","No","Benzene","1.38881435082145","1.37632233854771","1.43245678693421","1.17337000537568","1.05164225113551","1.0334029239762","0.969288803020413","0.960669042785549","0.799369553006133","0.795727477098903","","0.881246093954099","0.702460159960038",""
"06-037-NMWO","Benzene","34.225","-118.059","Pasadena","","REGIONAL-NOAA Global Monitoring Division","","NOAA: Mt. Wilson Observatory","meanRos_ug_m3","No","No Trend","California","Pasadena","","NOAA: Mt. Wilson Observatory","No","Benzene","","","","","","","","0.255717787314664","0.255407198954241","0.202792770206702","0.163654606117759","0.211094318335731","",""
"06-041-0001","Benzene","37.97231","-122.520004","SAN RAFAEL","","COMMERCIAL","","San Rafael","meanRos_ug_m3","Yes","Decreasing","California","San Rafael","Urban And Center City","San Rafael","No","Benzene","1.21404776333618","1.04365509479777","0.742032588796308","0.926510135177612","0.849239774802879","0.605993280850318","0.544309913386592","0.618738377630107","0.660937186947823","0.591283858911855","0.653040551715246","0.522360024488068","0.498170351008061","0.511839011656978"
"06-041-0004","Benzene","37.832725","-122.527658","NOT IN A CITY","","FOREST","","FORT CRONKHITE","meanRos_ug_m3","Yes","Decreasing","California","Not in a city","Rural","Ft. Cronkhite","No","Benzene","0.451560528481503","0.446673747400013","0.376668341570064","0.328362759921397","0.31448983696943","0.219335492127319","0.217976795688555","0.238549735953776","0.24396658866511","0.230737052388819","0.265612298496177","0.229809767179608","0.190571057619051","0.254204562375743"
"06-055-0003","Benzene","38.310942","-122.296189","NAPA","","COMMERCIAL","","Napa - Jefferson St.","meanRos_ug_m3","Yes","Decreasing","California","Napa","Urban And Center City","Napa","No","Benzene","1.52528921030352","1.42222912852626","1.11304888319446","1.20339822155253","1.29924409760539","1.02647841450156","0.805815328296237","1.04296802758592","1.00792759978165","0.76811240864763","0.978187036682777","0.709700153485634","0.735479389113643","0.700335901227596"
"06-061-0006","Benzene","38.745726","-121.266312","Roseville","","MOBILE","","Roseville-N Sunrise Blvd","meanRos_ug_m3","Yes","Decreasing","California","Roseville","Suburban","Roseville-N Sunrise Ave","No","Benzene","1.15530351672314","0.870067563724264","0.782226020689441","0.765702054244486","0.610218744203186","0.651339716832315","0.59637433988444","0.588185209478391","0.725439915630168","0.561976319923248","0.666386488771795","0.586683256861318","0.59669382613795","0.623101254425344"
"06-065-0012","Benzene","33.92086","-116.85841","Banning","","COMMERCIAL","","Banning Airport","meanRos_ug_m3","No","No Trend","California","Banning","Suburban","Banning Airport","No","Benzene","0.696370405014749","0.632270899807996","0.660446173238535","0.798611226501415","0.559754862873992","0.471058611137171","","","","","","","",""
"06-065-3011","Benzene","33.796533","-116.974417","San Jacinto","","RESIDENTIAL","","PILOT CITY: San Jacinto","meanRos_ug_m3","No","Undetermined","California","San Jacinto","Rural","SAN JACINTO TOXICS SITE #1 MOUNTAIN VIEW HIGH SCHOOL","No","Benzene","","","","","","","","","","","","","",""
"06-067-0001","Benzene","38.667126","-121.251338","CITRUS HEIGHTS","","RESIDENTIAL","","","meanRos_ug_m3","No","Undetermined","California","Citrus Heights","Suburban","","No","Benzene","","","","","","","","","","","","","",""
"06-067-NWGC","Benzene","38.265","-121.491","Walnut Grove","","REGIONAL-NOAA Global Monitoring Division","","NOAA: Walnut Grove, California","meanRos_ug_m3","No","Decreasing","California","Walnut Grove","","NOAA: Walnut Grove, California","No","Benzene","","","","","","0.417782449625109","0.32575802807997","0.327964713815438","0.342874656971935","0.276435480316115","0.308849475785228","0.253001164931517","",""
"06-071-1004","Benzene","34.10374","-117.62914","Upland","","RESIDENTIAL","","Upland","meanRos_ug_m3","No","Decreasing","California","Upland","Urban And Center City","Upland","No","Benzene","2.23076578185766","2.0717949088935","2.03790329902549","1.8297932524995","1.63941839539954","1.54649095934914","","","","","","","",""
"06-071-2002","Benzene","34.10002","-117.49201","Fontana","","INDUSTRIAL","","MATES: Inland Valley San Bernardino","meanRos_ug_m3","No","Undetermined","California","Fontana","Suburban","Fontana","No","Benzene","","","","","","","","","","","","","",""
"06-073-0001","Benzene","32.631231","-117.059075","Chula Vista","","RESIDENTIAL","","Chula Vista","meanRos_ug_m3","Yes","Decreasing","California","Chula Vista","Suburban","Chula Vista","No","Benzene","1.26881683536639","1.09140626602124","1.14904883589804","1.08379567536692","0.845092670573573","0.910535822502136","0.853627333595753","0.787959596572316","0.7280164176746","0.719589538321279","0.615756505930684","0.591930910381607","0.620730872544467","0.731410529701131"
"06-073-0003","Benzene","32.791194","-116.942092","El Cajon","","COMMERCIAL","","El Cajon","meanRos_ug_m3","No","Decreasing","California","El Cajon","Suburban","El Cajon","No","Benzene","1.70392668538411","1.30563382267558","1.36123964441735","1.28593217037582","1.44795734179851","1.09690280371602","1.04152518644104","1.16048056816442","1.26929226133887","1.21628416711075","1.03331877483129","","",""
"06-073-1002","Benzene","33.127711","-117.075325","ESCONDIDO","","COMMERCIAL","","Escondido","meanRos_ug_m3","No","No Trend","California","Escondido","Urban And Center City","Escondido","No","Benzene","","","","","","","1.30764152317577","1.14105327694112","1.04381483792452","1.15339862287829","1.13831380881573","0.910588197297794","",""
"06-073-1006","Benzene","32.842242","-116.768225","Alpine","","RESIDENTIAL","","Alpine","meanRos_ug_m3","No","Undetermined","California","Alpine","Suburban","Alpine","No","Benzene","","","","","","","","","","","","0.472735757225471","",""
"06-073-1008","Benzene","33.217025","-117.396158","Camp Pendleton","","RESIDENTIAL","","CAMP PENDLETON","meanRos_ug_m3","No","Undetermined","California","Camp Pendleton South","Suburban","Camp Pendleton","No","Benzene","","","","","","","","","","","","0.5080119256255","",""
"06-073-1010","Benzene","32.701492","-117.149653","SAN DIEGO","","COMMERCIAL","","Downtown","meanRos_ug_m3","No","Decreasing","California","San Diego","Urban And Center City","San Diego - Beardsley Street","No","Benzene","","","","","","","0.948332670798686","0.928981632610422","0.868845485158927","0.955157402575633","0.85389470026977","0.779599706272151","0.639916441316257",""
"06-073-1014","Benzene","32.579361","-116.929486","Otay Mesa","","COMMERCIAL","","Donovan","meanRos_ug_m3","No","Undetermined","California","Otay Mesa","Rural","Donovan","No","Benzene","","","","","","","","","","","","","0.636358527260139",""
"06-073-1018","Benzene","32.817978","-116.968133","El Cajon","","COMMERCIAL","","El Cajon - Floyd Smith Drive","meanRos_ug_m3","No","Undetermined","California","El Cajon","Suburban","El Cajon - Floyd Smith Dr.","No","Benzene","","","","","","","","","","","","","0.696873602673196",""
"06-073-2007","Benzene","32.552164","-116.937772","SAN DIEGO","","MOBILE","","Otay Mesa","meanRos_ug_m3","No","No Trend","California","San Diego","Rural","Otay Mesa","No","Benzene","","","","","","","2.07833664127292","1.70679825825792","1.71432900566207","1.60748722831381","1.65708615980127","","",""
"06-075-0005","Benzene","37.765946","-122.399044","San Francisco","","INDUSTRIAL","","San Francisco - Arkansas St.","meanRos_ug_m3","Yes","Decreasing","California","San Francisco","Urban And Center City","San Francisco","No","Benzene","1.23651164053607","1.00188892311501","0.796779353449504","0.9043522175955","0.837363164440278","0.57352935509048","0.652816911337789","0.748646147481608","0.72085374199108","0.626453970652362","0.700933945851564","0.585955538172768","0.591191562883063","0.543659108055369"
"06-075-NSTR","Benzene","37.755","-122.452","San Francisco","","REGIONAL-NOAA Global Monitoring Division","","NOAA: Sutro Tower, San Francisco, California","meanRos_ug_m3","No","Decreasing","California","San Francisco","","NOAA: Sutro Tower, San Francisco, California","No","Benzene","","","","","","0.289603258804684","0.258404014224384","0.21034977070471","0.248171507217168","0.219437671514849","0.211081854022595","0.190252965683158","",""
"06-077-1002","Benzene","37.950741","-121.268523","Stockton","","RESIDENTIAL","","HAZELTON-HD, STOCKTON","meanRos_ug_m3","Yes","Decreasing","California","Stockton","Urban And Center City","Stockton-Hazelton","No","Benzene","1.35462171488037","1.20020335901744","1.14705871018096","1.02555087376556","0.895626464005025","0.725542975711946","0.860482976118978","0.746000401944733","0.884124958878682","0.776351596028137","0.889449729770508","0.732621915079021","0.787427119483134","0.759140562371334"
"06-081-1001","Benzene","37.482934","-122.20337","REDWOOD CITY","","INDUSTRIAL","","Redwood City","meanRos_ug_m3","Yes","Decreasing","California","Redwood City","Suburban","Redwood City","No","Benzene","1.7107973575026","1.21404776333618","1.0099888014172","1.13950097085063","1.04365509479777","0.779134218236123","0.736001665492305","0.932899860247803","0.850188419061449","0.750704561608476","0.92017365781634","0.887829478056281","0.766656840749228","0.706064620256042"
"06-083-0010","Benzene","34.421386","-119.702079","SANTA BARBARA","","MOBILE","","Santa Barbara-W. Carrillo St.","meanRos_ug_m3","No","Undetermined","California","Santa Barbara","Urban And Center City","Santa Barbara-W. Carrillo St.","No","Benzene","","","","","","","","","","","","","",""
"06-085-0004","Benzene","37.339666","-121.888575","San Jose","","RESIDENTIAL","","San Jose - 4th St.","meanRos_ug_m3","No","Undetermined","California","San Jose","Urban And Center City","San Jose - 4th St.","No","Benzene","","","","","","","","","","","","","",""
"06-085-0006","Benzene","37.338135","-121.849783","San Jose","","MOBILE","","San Jose Knox Ave.","meanRos_ug_m3","No","Undetermined","California","San Jose","Urban And Center City","San Jose - Knox Avenue","No","Benzene","","","","","","","","","","","","","1.10317420054417","1.26877266675991"
"06-085-1002","Benzene","37.3735","-122.077","MOUNTAIN VIEW","","RESIDENTIAL","","Mt. View - Cuesta","meanRos_ug_m3","No","Undetermined","California","Mountain View","Suburban","Mountain View - Cuesta","No","Benzene","","","","","","","","","","","","","",""
"06-085-2004","Benzene","37.322998","-121.927179","SAN JOSE","","COMMERCIAL","","San Jose-W. San Carlos St.","meanRos_ug_m3","No","Undetermined","California","San Jose","Urban And Center City","San Jose-W. San Carlos St.","No","Benzene","","","","","","","","","","","","","",""
"06-085-2007","Benzene","37.355475","-122.050845","SUNNYVALE","","RESIDENTIAL","","LOCATED NEAR TICONDEROGA & MARY STREETS IN SUNNAYVALE.","meanRos_ug_m3","No","Decreasing","California","Sunnyvale","Urban And Center City","Sunnyvale - Ticonderoga","No","Benzene","1.27794501403809","0.911526576622978","0.689140427703092","0.729878052805586","0.668707363521066","0.48721653660202","","","","","","","",""
"06-085-2008","Benzene","37.402244","-122.066597","MOUNTAIN VIEW","","RESIDENTIAL","","MT VIEW-WHISMAN PARK","meanRos_ug_m3","No","Undetermined","California","Mountain View","Suburban","MT VIEW-WHISMAN PARK","No","Benzene","","","0.845092670573573","","","","","","","","","","",""
"06-085-2009","Benzene","37.318435","-122.069705","CUPERTINO","","RESIDENTIAL","","Cupertino Monta Vista","meanRos_ug_m3","No","Undetermined","California","Cupertino","Suburban","Cupertino Monta Vista","No","Benzene","","","","","","","","","0.440066549188922","0.441982833200216","0.489681905524935","","",""
"06-095-0004","Benzene","38.102507","-122.237976","VALLEJO","","COMMERCIAL","","Vallejo - Tuolumne St.","meanRos_ug_m3","Yes","Decreasing","California","Vallejo","Urban And Center City","Vallejo","No","Benzene","1.60808080933126","1.16457892408309","0.918038211156498","0.988615874205726","1.19473808212908","0.625574696387998","0.498161898990772","0.735883337250264","0.768763797507286","0.562148038358325","0.941868295792749","0.529434362958636","0.591156064410451","0.647732613970111"
"06-095-0006","Benzene","38.0656","-122.1507","Benicia","","RESIDENTIAL","","Benicia - VIP","meanRos_ug_m3","No","Undetermined","California","Benicia","Suburban","Benicia - VIP","No","Benzene","","","","","","0.337590474541728","","","","","","","",""
"06-097-0003","Benzene","38.443503","-122.710169","SANTA ROSA","","COMMERCIAL","","Santa Rosa - 5th St","meanRos_ug_m3","No","Decreasing","California","Santa Rosa","Urban And Center City","Santa Rosa - 5th St","No","Benzene","1.30886303857127","1.05430463658142","0.772950613329487","0.781960662863582","0.872230482583917","0.669890531552222","0.530110524341725","0.691155261758931","0.742273062320455","0.56009363307221","0.656846559148615","","",""
"06-097-0004","Benzene","38.403765","-122.818294","Sebastopol","","COMMERCIAL","","Sebastopol","meanRos_ug_m3","No","Undetermined","California","Sebastopol","Urban And Center City","Sebastopol","No","Benzene","","","","","","","","","","","","0.465238085714038","0.470177269748179","0.505612761199262"
"06-099-0005","Benzene","37.641583","-120.994622","MODESTO","","COMMERCIAL","","Modesto-14th Street","meanRos_ug_m3","No","Undetermined","California","Modesto","Urban And Center City","Modesto-14th Street","No","Benzene","","","","","","","","","","","","","",""
"06-111-2002","Benzene","34.276362","-118.683757","Simi Valley","","RESIDENTIAL","","SIMI VALLEY","meanRos_ug_m3","Yes","Decreasing","California","Simi Valley","Suburban","Simi Valley-Cochran Street","No","Benzene","1.19961935188736","0.94506094989752","1.17144959620158","0.87910249756007","0.832725460760301","0.716847281311989","0.71405177659378","0.730878052611949","0.601355577170341","","0.611078899501096","0.721924830698122","0.511520312315423","0.612898306329395"
"08-013-7002","Benzene","40.1489","-105.059233","NOT IN A CITY","","RESIDENTIAL","","Longmont","meanRos_ug_m3","No","Undetermined","Colorado","Not in a city","Suburban","Longmont","No","Benzene","","","","","2.93396456316295","","","","","","","","",""
"08-013-NNWR","Benzene","40.053","-105.586","Boulder","","REMOTE-NOAA Global Monitoring Division","","NOAA: Niwot Ridge, Colorado","meanRos_ug_m3","No","No Trend","Colorado","Boulder","","NOAA: Niwot Ridge, Colorado","No","Benzene","","","","0.15495862593738","0.149229124188423","0.167330926114863","0.143383093178272","","0.145055167376995","0.1692604537269","0.143425950008195","","",""
"08-031-0002","Benzene","39.751184","-104.987625","Denver","","COMMERCIAL","","UATMP: DECO","meanRos_ug_m3","No","Undetermined","Colorado","Denver","Urban And Center City","DENVER - CAMP","No","Benzene","","","","","","","","","","","","","",""
"08-045-0005","Benzene","39.453654","-108.053259","PARACHUTE","","RESIDENTIAL","","UATMP: PACO; PARACHUTE - HIGH SCHOOL","meanRos_ug_m3","No","Decreasing","Colorado","Parachute","Urban And Center City","PARACHUTE - HIGH SCHOOL","No","Benzene","","","","","","2.30336953730791","2.68900011973234","1.72032330747515","1.46960604631173","1.30892775071564","1.95701630593638","1.48888067498092","1.21008376722782","1.20055834374356"
"08-045-0007","Benzene","39.531813","-107.782298","RIFLE","","COMMERCIAL","","UATMP: RICO; RIFLE - HENRY BLDG","meanRos_ug_m3","No","No Trend","Colorado","Rifle","Urban And Center City","RIFLE - HENRY BLDG","No","Benzene","","","","","","1.68425165693882","2.22236732933049","1.45713242916616","1.31807916954431","0.99447196099361","1.51924121076765","1.08750556916064","","1.09641326832758"
"08-045-0009","Benzene","39.487755","-107.659685","SILT","","AGRICULTURAL","","UATMP: BRCO","meanRos_ug_m3","No","Decreasing","Colorado","Silt","Rural","UATMP: BRCO","No","Benzene","","","","","","1.34228449147507","1.38912062523741","1.09220216580578","0.875070839015073","0.677530387468182","1.14299476789193","0.712660816034283","0.660036071873821","0.705420042727032"
"08-045-0018","Benzene","39.412278","-107.230397","NOT IN A CITY","","RESIDENTIAL","","UATMP: RFCO; CMC Boat House","meanRos_ug_m3","No","Undetermined","Colorado","Carbondale","Rural","Carbondale Rocky Mountain School (Boathouse)","No","Benzene","","","","","","","","","","","0.569518973647408","0.461775964563299","1.05989564601784","0.45016007546965"
"08-045-0019","Benzene","39.43806","-108.02611","Battlement Mesa","","COMMERCIAL","","Battlement Mesa","meanRos_ug_m3","No","No Trend","Colorado","Battlement Mesa","Suburban","Battlement Mesa","No","Benzene","","","","","","","","","1.55820023494754","1.08802651110673","1.26177348762588","0.87602921897766","","0.788731688351631"
"08-045-0020","Benzene","39.5464","-107.3286","Glenwood Springs","","COMMERCIAL","","Vogelaar Park, Glenwood Springs","meanRos_ug_m3","No","Undetermined","Colorado","Glenwood Springs","Suburban","Vogelaar Park, Glenwood Springs","No","Benzene","","","","","","","","","","","","","0.49367794128037",""
"08-123-NBAO","Benzene","40.05","-105.004","Erie","","REGIONAL-NOAA Global Monitoring Division","","NOAA: Boulder Atmospheric Observatory, Colorado","meanRos_ug_m3","No","Decreasing","Colorado","Erie","","NOAA: Boulder Atmospheric Observatory, Colorado","No","Benzene","","","","","","0.424464722526933","0.421999784837651","0.439647483703403","0.385272575867012","0.350490083011161","0.368534214476462","0.366616141024634","",""
"10-001-0002","Benzene","38.986672","-75.5568","NOT IN A CITY","","AGRICULTURAL","","PROPERTY OF KILLENS POND STATE PARK; BEHIND FARM BUILDINGS","meanRos_ug_m3","No","Undetermined","Delaware","Not in a city","Rural","PROPERTY OF KILLENS POND STATE PARK; BEHIND FARM BUILDINGS","No","Benzene","0.46515032502488","0.414230452826138","0.389192345184326","","","","","","","","","","",""
"10-003-1007","Benzene","39.5513","-75.732","NOT IN A CITY","","AGRICULTURAL","","PAMS: Lums Pond; NADP: DE99","meanRos_ug_m3","No","Undetermined","Delaware","Not in a city","Rural","Lums Pond","No","Benzene","0.592702084096974","0.543677469334306","0.554018207790375","","","","","","","","","","",""
"10-003-1008","Benzene","39.57768","-75.6036","DELAWARE CITY","","AGRICULTURAL","","","meanRos_ug_m3","Yes","Decreasing","Delaware","Delaware City","Rural","Route 9 Delaware City","No","Benzene","1.05548791900183","0.765055474921908","0.681937899732392","0.596193839176243","0.629756557398576","0.628132794846399","0.834730447805786","","0.532477089182536","0.526280992144775","0.601273129104919","0.622998194343567","",""
"10-003-2004","Benzene","39.739444","-75.558056","Wilmington","","COMMERCIAL","","CORNER OF MLK BLVD AND JUSTISON ST, NO TRAFFIC DATA AVAILABLE","meanRos_ug_m3","Yes","Decreasing","Delaware","Wilmington","Urban And Center City","MLK  CORNER OF MLK BLVD AND JUSTISON ST","No","Benzene","1.3754434051953","1.2348143698143","1.34498475247943","1.16337063346915","1.09017677732635","0.946688214346635","0.951960735033456","0.770600843464966","0.74759783321228","0.758484031480012","","0.79198960738413","0.897519715877674",""
"10-005-1002","Benzene","38.6539","-75.6106","Seaford","","RESIDENTIAL","","Seaford Shipley State Service Center","meanRos_ug_m3","No","Undetermined","Delaware","Seaford","Suburban","Seaford Shipley State Service Center","No","Benzene","0.565546718931767","0.519034224963829","0.462140580657959","","","","","","","","","","",""
"11-001-0025","Benzene","38.583226","-77.1219","Washington","","COMMERCIAL","","UATMP: W1DC","meanRos_ug_m3","No","Undetermined","District Of Columbia","Washington","Urban And Center City","TAKOMA SCHOOL","No","Benzene","","","","","","","","","","","","","",""
"11-001-0039","Benzene","38.864279","-76.991642","Washington","","COMMERCIAL","","UATMP: W2DC","meanRos_ug_m3","No","Undetermined","District Of Columbia","Washington","Urban And Center City","UATMP: W2DC","No","Benzene","","","","","","","","","","","","","",""
"12-011-0010","Benzene","26.128611","-80.167222","FORT LAUDERDALE","","RESIDENTIAL","","SITE # 28","meanRos_ug_m3","No","No Trend","Florida","Fort Lauderdale","Suburban","SITE # 28","No","Benzene","","","","","","","","1.13146627191564","1.0035171523159","0.922110652342399","0.815415559296234","","0.86060722077312",""
"12-011-1002","Benzene","26.083143","-80.237586","Davie","","COMMERCIAL","","UATMP: FLFL","meanRos_ug_m3","No","No Trend","Florida","Davie","Suburban","U of F Ag Research Center","No","Benzene","","0.883711033292375","0.824100268825378","0.628927642607854","0.697264735729552","0.781452166040307","0.822336317449941","0.709783230747711","0.716005356471798","1.01197270799141","0.81910514172319","","",""
"12-011-2004","Benzene","26.217582","-80.127545","Pompano Beach","","COMMERCIAL","","UATMP: FLFL(2)","meanRos_ug_m3","No","Undetermined","Florida","Pompano Beach","Suburban","UATMP: FLFL(2)","No","Benzene","","","","0.797857014467497","0.769961870957947","","","","","","","","",""
"12-011-3002","Benzene","26.001202","-80.160324","Holleywood","","COMMERCIAL","","SITE #18","meanRos_ug_m3","No","Undetermined","Florida","Hollywood","Suburban","SITE #18","No","Benzene","","1.0123720658083","","0.806142287912402","0.899519055139739","","","","","","","","",""
"12-011-5005","Benzene","26.294167","-80.176389","Coconut Creek","","RESIDENTIAL","","UATMP: CCFL; SITE #30","meanRos_ug_m3","No","No Trend","Florida","Coconut Creek","Suburban","Coconut Creek","No","Benzene","0.770130021617689","0.762512032410202","0.681259225290162","0.578358252991133","0.654355178484316","0.791036753645592","0.795137387734497","0.667695550002832","0.636283497718671","","","","",""
"12-011-8002","Benzene","26.088421","-80.111193","J.U.Lloyd State Park","","RESIDENTIAL","","SITE # 25","meanRos_ug_m3","No","Undetermined","Florida","Dania","Suburban","Dr. Von Mizell-Eula Johnson State Park (prev. John U Lloyd State Park)","No","Benzene","","","","","","","","1.23840708315565","0.926691911839092","1.00889968343435","1.51436484163513","","",""
"12-031-0032","Benzene","30.356339","-81.635396","Jacksonville","","COMMERCIAL","","UATMP: JAFL","meanRos_ug_m3","No","Undetermined","Florida","Jacksonville","Suburban","Kooker Park","No","Benzene","","","5.47214608645058","4.96534885662715","","","","","","","","","",""
"12-031-0084","Benzene","30.320507","-81.68762","Jacksonville","","MOBILE","","","meanRos_ug_m3","No","Undetermined","Florida","Jacksonville","Suburban","Rosselle","No","Benzene","","","7.93954374637066","","","","","","","","","","",""
"12-057-0081","Benzene","27.740033","-82.465146","Tampa","","FOREST","","UATMP: SMFL; PILOT CITY:  Simmons Park","meanRos_ug_m3","No","Undetermined","Florida","Ruskin","Rural","Simmons Park","No","Benzene","","","","","","","","","","","","","",""
"12-057-1065","Benzene","27.892523","-82.538429","Tampa","","COMMERCIAL","","UATMP: GAFL; NADP: FL18; PILOT CITY: Gandy","meanRos_ug_m3","No","No Trend","Florida","Tampa","Suburban","USMC Reserve Center (Gandy)","No","Benzene","0.756478468055596","","0.650344051635484","0.6677262698349","0.570815439603678","0.619803331808472","","","","","","","",""
"12-057-1075","Benzene","28.050296","-82.377871","Tampa","","RESIDENTIAL","","UATMP: LEFL; PILOT CITY: Lewis","meanRos_ug_m3","No","Undetermined","Florida","Tampa","Urban And Center City","WHITEWAY DRIVE TAMPA","No","Benzene","0.86774748497854","","","","","","","","","","","","",""
"12-073-0012","Benzene","30.439722","-84.346389","TALLAHASSEE","","COMMERCIAL","","Tallahassee Community College","meanRos_ug_m3","No","No Trend","Florida","Tallahassee","Suburban","Tallahassee Community College","No","Benzene","","","","","0.93464797213313","0.701728735386985","0.456054920481917","0.522983417976682","0.461709166362147","","","","",""
"12-086-0029","Benzene","25.587327","-80.325922","CUTLER BAY","","FOREST","","","meanRos_ug_m3","No","Undetermined","Florida","Cutler Ridge","Rural","Perdue","No","Benzene","0.853199450220517","0.842165764251099","","","","","","","","","","","",""
"12-095-2002","Benzene","28.596389","-81.3625","Winter Park","","COMMERCIAL","","UATMP: ORFL","meanRos_ug_m3","Yes","Decreasing","Florida","Winter Park","Urban And Center City","WINTER PARK","No","Benzene","","","0.798715633773804","0.642589332530471","0.583393954993424","0.518652778338853","","0.511597003980493","0.42460246839372","0.42377956270602","0.353172435677806","0.473848559152543","","0.381679577526042"
"12-103-0004","Benzene","27.946688","-82.731767","Clearwater","","COMMERCIAL","","UATMP: CWFL","meanRos_ug_m3","No","Undetermined","Florida","Clearwater","Suburban","St. Petersburg College","No","Benzene","0.853948850482229","","","","","","","","","","","","",""
"12-103-0018","Benzene","27.785866","-82.739875","SAINT PETERSBURG","","RESIDENTIAL","","UATMP: AZFL; PILOT CITY: Azalea Park","meanRos_ug_m3","Yes","Decreasing","Florida","Saint Petersburg","Suburban","Azalea Park","No","Benzene","1.03247307592494","0.735342131028472","0.77901398147405","0.765702054244486","0.637815746445991","0.583298099235334","0.504735905749387","0.546321493501282","0.453670479983521","0.435342058071658","0.380304818495789","0.445094796336686","0.390585482468505","0.419731612397591"
"12-103-1008","Benzene","28.000297","-82.776213","Dunedin","","RESIDENTIAL","","UATMP: DNFL; PILOT CITY: Dunedin","meanRos_ug_m3","No","Undetermined","Florida","Dunedin","Suburban","DUNEDIN HIGHLAND MIDDLE SCHOOL","No","Benzene","","","","","","","","","","","","","",""
"12-103-2008","Benzene","27.892801","-82.680378","SAINT PETERSBURG","","COMMERCIAL","","Gateway","meanRos_ug_m3","No","Undetermined","Florida","Clearwater","Suburban","Gateway","No","Benzene","","","","","","","","","","","","","",""
"12-103-5002","Benzene","28.090299","-82.700707","Tarpon Springs","","RESIDENTIAL","","UATMP: ELFL; PILOT CITY: East Lake","meanRos_ug_m3","No","Undetermined","Florida","Tarpon Springs","Rural","John Chesnut Sr. Park - East Lake","No","Benzene","","","","","","","","","","","","","",""
"13-009-0001","Benzene","33.153413","-83.23569","Milledgeville","","RESIDENTIAL","","","meanRos_ug_m3","No","No Trend","Georgia","Milledgeville","Rural","","No","Benzene","","0.367909822980555","0.457930296696981","0.48694111741796","0.444762228228869","0.241817719881504","","","","","","","",""
"13-021-0012","Benzene","32.805361","-83.543515","Macon","","INDUSTRIAL","","Macon SE","meanRos_ug_m3","No","No Trend","Georgia","Macon","Rural","Macon-Forestry","No","Benzene","","0.244357820980567","0.491780625937871","0.460016285679494","","","","4.29294862123164","0.278117055558404","0.709286448077799","3.42956205209644","0.502364591725317","0.30503126029616","0.286876622116826"
"13-051-0021","Benzene","32.069183","-81.048747","Savannah","","COMMERCIAL","","Savannah-E. President Street","meanRos_ug_m3","Yes","No Trend","Georgia","Savannah","Suburban","Savannah-E. President","No","Benzene","","0.294499857615312","0.576216278651101","0.55450633968555","0.380188641676331","0.32540266561155","0.32168525731884","","0.902732051055585","0.733208211119067","0.390738163532777","0.71191886823947","0.356227172663116","0.328048485103577"
"13-069-0002","Benzene","31.513127","-82.750011","Douglas","","AGRICULTURAL","","General Coffee","meanRos_ug_m3","Yes","No Trend","Georgia","Not in a city","Rural","General Coffee","No","Benzene","","0.222754364383648","0.432401442765849","0.323574773820387","0.262604621157443","0.199150964985655","0.284445825705251","0.335595726281157","0.183237104274438","0.302013391201621","0.347939681792221","","0.388137907894664",""
"13-085-0001","Benzene","34.376307","-84.059556","DAWSONVILLE","","UNKNOWN","","Dawsonville, Georgia Forestry Commission","meanRos_ug_m3","Yes","Increasing","Georgia","Not in a city","Rural","Dawsonville","No","Benzene","","0.338208954801499","0.432958957342214","0.376993779141235","0.352518971601965","0.180703768849142","0.396630499135759","4.52151746090429","0.544163039253173","0.763572145887756","0.804040404665629","0.603474034406874","0.780459276430402",""
"13-089-0003","Benzene","33.698553","-84.272664","ATLANTA","","COMMERCIAL","","DMRC","meanRos_ug_m3","No","Undetermined","Georgia","Atlanta","Suburban","NR-285","No","Benzene","","","","","","","","","","","","","1.07793746242156","0.614735618821769"
"13-089-3001","Benzene","33.845741","-84.213398","Tucker","","RESIDENTIAL","","PAMS: Tucker","meanRos_ug_m3","No","Undetermined","Georgia","Tucker","Rural","Tucker-Idlewood Road","No","Benzene","","0.912643544313484","1.37223783191416","1.14256948288998","","","","","","","","","",""
"13-115-0004","Benzene","34.263312","-85.178723","Rome","","COMMERCIAL","","","meanRos_ug_m3","No","No Trend","Georgia","Rome","Urban And Center City","","No","Benzene","","0.775309615946521","0.924228090509687","0.646731574331734","0.782216649977709","0.402885621332233","","","","","","","",""
"13-121-0020","Benzene","33.741253","-84.5527","Utoy Creek","","INDUSTRIAL","","Utoy Creek","meanRos_ug_m3","No","Decreasing","Georgia","Not in a city","Suburban","Utoy Creek","No","Benzene","","1.05543292553908","0.959560437264804","0.821388851764802","0.70852412708397","0.479868352771301","","","","","","","",""
"13-127-3001","Benzene","31.185187","-81.485166","Brunswick","","RESIDENTIAL","","","meanRos_ug_m3","No","Undetermined","Georgia","Brunswick","Suburban","","No","Benzene","","0.398656089800017","0.60465731682728","0.442451217160885","0.497879697455567","","","","","","","","",""
"13-139-0003","Benzene","34.29933","-83.81341","GAINESVILLE","","RESIDENTIAL","","MONITOR LOCATED ON TOP OF SCHOOL","meanRos_ug_m3","No","No Trend","Georgia","Gainesville","Suburban","Gainesville","No","Benzene","","0.403672056462681","0.774559356069425","0.621140716125488","1.67517303855001","1.60497322161793","","","","","","","",""
"13-153-0001","Benzene","32.605556","-83.598056","WARNER ROBINS","","COMMERCIAL","","LOCATED NEAR ROBBINS AIR FORCE BASE","meanRos_ug_m3","No","Undetermined","Georgia","Warner Robins","Suburban","Warner Robins","No","Benzene","","0.426554824173549","0.565160165690981","0.562059149692677","","0.377818435392101","","","","","","","",""
"13-185-0003","Benzene","30.848056","-83.294444","VALDOSTA","","COMMERCIAL","","S.L. MASON ELEMENTARY SCHOOL","meanRos_ug_m3","No","No Trend","Georgia","Valdosta","Suburban","Valdosta","No","Benzene","","0.801817453788874","0.711997936392648","0.5684651958997","0.927575089355977","0.369568867370469","","","","","","","",""
"13-215-5000","Benzene","32.503272","-84.942035","Columbus","","COMMERCIAL","","","meanRos_ug_m3","No","Undetermined","Georgia","Columbus (Remainder)","Suburban","","No","Benzene","","0.732763206790772","0.8903016931132","0.863643485293481","0.632664414251799","","","","","","","","",""
"13-223-0003","Benzene","33.9285","-85.04534","Yorkville","","AGRICULTURAL","","PAMS: Yorkville (Near Rockmart)","meanRos_ug_m3","Yes","Decreasing","Georgia","Not in a city","Rural","Yorkville, King Farm","No","Benzene","0.540155058437711","1.46218433977111","0.391212100993641","0.941243695469682","0.288432190913159","0.394544244126373","0.265707706610104","0.285970962168889","0.217443543254956","0.25393090251427","0.329212849863751","0.367166898064436","","0.289462509021511"
"13-245-0092","Benzene","33.432353","-81.991372","Augusta","","INDUSTRIAL","","","meanRos_ug_m3","No","Undetermined","Georgia","Augusta-Richmond County (Remainder)","Suburban","","No","Benzene","","0.729842834594445","0.917990501750692","1.06921399507853","1.09556865181909","","","","","","","","",""
"13-247-0001","Benzene","33.591077","-84.065294","Conyers","","AGRICULTURAL","","PAMS: Conyers","meanRos_ug_m3","Yes","Decreasing","Georgia","Conyers","Rural","Conyers","No","Benzene","0.496094109532743","0.43605036692614","0.792748218119172","0.622366441864876","0.533270279422165","0.535329645017442","0.372454641155423","0.405502305776293","0.238825226175655","0.401966024900461","0.407423499242832","0.427991018852378","",""
"15-001-NKUM","Benzene","19.52","-154.82","Pahoa","","REMOTE-NOAA Global Monitoring Division","","NOAA: Cape Kumukahi, Hawaii","meanRos_ug_m3","Yes","Decreasing","Hawaii","Pahoa","","NOAA: Cape Kumukahi, Hawaii","No","Benzene","0.126661778173663","0.101366301088832","0.0992470737546682","0.104190104878416","0.0961449693175072","0.0817751683838045","0.0934369494020939","0.091334729604423","0.0861654432490468","0.0812493477715179","0.0775117217563093","0.0807102158432826","",""
"15-001-NMLO","Benzene","19.536","-155.576","Kaulapuu","","REMOTE-NOAA Global Monitoring Division","","NOAA: Mauna Loa, Hawaii","meanRos_ug_m3","Yes","No Trend","Hawaii","Kaulapuu","","NOAA: Mauna Loa, Hawaii","No","Benzene","0.0690967333776986","0.0532011174558041","0.0616161191277206","0.052874974605705","0.0637502870522439","0.0539740073494613","0.0580826011858881","0.0674115992056168","0.0492868986016569","0.0507461536884764","0.0498954186661412","0.0577292097352293","",""
"15-003-2004","Benzene","21.392833","-157.969126","PEARL CITY","","RESIDENTIAL","","PEARL CITY","meanRos_ug_m3","No","No Trend","Hawaii","Pearl City","Urban And Center City","Pearl City","No","Benzene","2.35949452076478","","","0.866401950462514","0.851978577970365","1.18834238672825","1.31198375456037","0.88184221973405","","","","","",""
"16-001-0100","Benzene","43.6013","-116.3473","Meridian","","COMMERCIAL","","","meanRos_ug_m3","No","Undetermined","Idaho","Not in a city","Suburban","","No","Benzene","","","","","0.854972995804828","","","","","","","","",""
"16-001-0200","Benzene","43.5776","-116.1777","Boise","","RESIDENTIAL","","White Pine Elementary School","meanRos_ug_m3","No","Undetermined","Idaho","Boise City (corporate name for Boise)","Urban And Center City","White Pine Elementary School","No","Benzene","","","","","1.38420892009669","","","","","","","","",""
"16-027-0004","Benzene","43.562401","-116.563232","Nampa","","RESIDENTIAL","","NORTHWEST NAZARENE COLLEGE SAMPLER ON ARTS BUILDING IN SUB. SETTING","meanRos_ug_m3","No","Undetermined","Idaho","Nampa","Suburban","NORTHWEST NAZARENE COLLEGE SAMPLER ON ARTS BUILDING IN SUB. SETTING","No","Benzene","1.01659478370817","1.21625111680866","","","1.04507503370226","","","","","","","","",""
"16-027-0400","Benzene","43.7872","-116.9596","Parma","","AGRICULTURAL","","Parma","meanRos_ug_m3","No","Undetermined","Idaho","Not in a city","Rural","Parma","No","Benzene","","","","","0.808881105476379","","","","","","","","",""
"17-031-0060","Benzene","41.656518","-87.589574","CHICAGO","","RESIDENTIAL","","UATMP: CARV","meanRos_ug_m3","No","Undetermined","Illinois","Chicago","Suburban","CARVER HS","No","Benzene","","","","","","","","","","","","","",""
"17-031-0072","Benzene","41.895812","-87.607683","Chicago","","COMMERCIAL","","JARDINE","meanRos_ug_m3","No","Undetermined","Illinois","Chicago","Urban And Center City","JARDINE WATER PLANT","No","Benzene","","","","","","","","","","","","","",""
"17-031-3103","Benzene","41.965193","-87.876265","Schiller Park","","MOBILE","","UATMP: SPIL","meanRos_ug_m3","Yes","Decreasing","Illinois","Schiller Park","Suburban","IEPA TRAILER","No","Benzene","1.52848499301792","1.51896095966808","1.35285903210239","0.924912703910065","0.842507284039333","0.8041244799955","0.675388524897882","0.941366245965805","0.851202661136082","0.949619640848134","0.739610676874542","0.788375896842041","0.706597097345225","0.630048925455501"
"17-119-9010","Benzene","38.848382","-90.076413","Roxana","","INDUSTRIAL","","UATMP: ROIL; Phillips 66 Wood River Refinery","meanRos_ug_m3","No","Undetermined","Illinois","Roxana","Suburban","Phillips 66 Wood River Refinery","No","Benzene","","","","","","","","","","","0.966797893247287","1.21812396726027","",""
"17-163-1010","Benzene","38.592192","-90.165081","NOT IN A CITY","","INDUSTRIAL","","UATMP: SAIL","meanRos_ug_m3","No","Undetermined","Illinois","Sauget (Monsanto)","Suburban","IEPA TRAILER","No","Benzene","","","","","","","","","","","","","",""
"18-003-0004","Benzene","41.094965","-85.101816","Fort Wayne","","COMMERCIAL","","Ft. Wayne- Beacon St.","meanRos_ug_m3","No","Undetermined","Indiana","Fort Wayne","Suburban","Ft. Wayne- Beacon St.","No","Benzene","","0.554897177148116","0.517567730685425","1.19726276970205","0.854874667076627","","","","","","","","",""
"18-019-0009","Benzene","38.276683","-85.763767","CLARKSVILLE","","RESIDENTIAL","","Clarksville","meanRos_ug_m3","No","Decreasing","Indiana","Clarksville","Urban And Center City","Clarksville","No","Benzene","","","","","","0.94062696963501","0.660476389466799","0.878296755102539","1.07106457119176","0.871020417462801","0.530672082100561","0.461853812090957","0.630985350681305","0.531070545928091"
"18-039-0003","Benzene","41.667827","-85.969444","Elkhart","","COMMERCIAL","","SAMPLERS ARE ON THE ROOF ON THE WEST SIDE OF THE SCHOOL","meanRos_ug_m3","No","No Trend","Indiana","Elkhart","Urban And Center City","SAMPLERS ARE ON THE ROOF ON THE WEST SIDE OF THE SCHOOL","No","Benzene","0.870280554559936","0.734276880947307","0.754156350077679","1.15654023770447","1.01064385019109","","","","","","","","",""
"18-089-0022","Benzene","41.60668","-87.304729","Gary","","INDUSTRIAL","","UATMP: INDEM","meanRos_ug_m3","Yes","No Trend","Indiana","Gary","Urban And Center City","Gary-IITRI/ 1219.5 meters east of Tennessee St.- old ammuntion bunker","No","Benzene","2.25832408140466","1.51090374055545","4.22089080211315","1.85203939150673","1.93894447997724","1.3840794304582","2.92371234838821","4.05352540770935","1.37579935630453","0.902134517317256","1.30261058618739","0.968963081287893","2.43096701106175","0.60121504069519"
"18-089-0023","Benzene","41.65274","-87.439551","East Chicago","","INDUSTRIAL","","East Chicago Water Flitration Plant","meanRos_ug_m3","No","No Trend","Indiana","East Chicago","Urban And Center City","SITE MOVED FROM EAST CHICAGO FIELD SCHOOL","No","Benzene","0.767317846790971","0.668016711883545","0.751975978167781","1.14599164340665","0.827976234732267","0.697954584590032","0.630533247492376","0.828569267298464","0.865755372215146","0.541043024965037","","","",""
"18-089-0030","Benzene","41.6814","-87.494734","WHITING","","RESIDENTIAL","","Whiting- Whiting HS","meanRos_ug_m3","Yes","No Trend","Indiana","Whiting","Urban And Center City","Whiting- Whiting HS","No","Benzene","","0.587419043384552","0.714028244504491","1.0438487228302","0.89456150982666","0.793010522103991","0.541502124592409","0.604405141885226","0.734818383071899","0.494932941877462","0.764563654950372","0.675327839314954","0.609390446508902",""
"18-089-0034","Benzene","41.65348","-87.435584","East Chicago","","COMMERCIAL","","East Chicago-Marina","meanRos_ug_m3","No","Undetermined","Indiana","East Chicago","Urban And Center City","East Chicago-Marina","No","Benzene","","","","","","","","","","","0.72958090350617","0.600297855278417","0.656894906606162","0.606453370501109"
"18-089-0035","Benzene","41.681393","-87.490233","Whiting","","RESIDENTIAL","","Whiting- Center St.","meanRos_ug_m3","No","Undetermined","Indiana","Whiting","Urban And Center City","Whiting- Center St.","No","Benzene","","","","","","","","","","","","","","1.3593826865013"
"18-089-1003","Benzene","41.588925","-87.407817","Gary","","RESIDENTIAL","","","meanRos_ug_m3","No","Undetermined","Indiana","Gary","Suburban","","No","Benzene","","","","","","","","","","","","","",""
"18-089-2008","Benzene","41.63946","-87.493623","Hammond","","COMMERCIAL","","HAMMOND CAAP- Hammond- 141st St.","meanRos_ug_m3","Yes","Decreasing","Indiana","Hammond","Suburban","HAMMOND CAAP- Hammond- 141st St.","No","Benzene","1.1962985270301","0.991978629749236","1.21637129972534","1.69327714360046","1.25548320673427","1.24493143450877","1.10248944858614","1.09317546409175","1.00052445057398","0.679522685349098","0.837996730516778","0.659922425281962","0.654946819694519","0.592190591326577"
"18-097-0057","Benzene","39.749019","-86.186314","INDIANAPOLIS","","RESIDENTIAL","","UATMP: ININ","meanRos_ug_m3","No","Undetermined","Indiana","Indianapolis (Remainder)","Urban And Center City","Indpls- Harding St.","No","Benzene","","","","","1.16061644162855","1.11334013994731","","","","","","","",""
"18-097-0078","Benzene","39.811097","-86.114469","Indianapolis","","RESIDENTIAL","","UATMP: WPIN","meanRos_ug_m3","Yes","Decreasing","Indiana","Indianapolis (Remainder)","Suburban","Indpls- Washington Park/  in parking lot next to police station","No","Benzene","1.43523055422739","1.28992574854469","1.0660903556984","1.53533882391461","1.20778332699286","1.18155763586064","0.967987297913936","1.27908603637205","1.15526229269043","0.664060544646303","0.583647897204537","0.571105507751863","0.705186274975919","0.762835697804811"
"18-097-0084","Benzene","39.758855","-86.115415","Indianapolis","","RESIDENTIAL","","Indpls-  School 21/ Florence Fay School 21","meanRos_ug_m3","No","Decreasing","Indiana","Indianapolis (Remainder)","Urban And Center City","Indpls-  School 21/ Florence Fay School 21","No","Benzene","","1.684592677116","0.740598081582977","0.936947097889236","0.80508267574413","0.200905128919601","0.145043177698987","0.157903213246231","","","","","",""
"18-097-0085","Benzene","39.740383","-86.22595","INDIANAPOLIS","","MILITARY RESERVATION","","UATMP: IDIN","meanRos_ug_m3","No","Undetermined","Indiana","Indianapolis (Remainder)","Urban And Center City","Stout Field 2","No","Benzene","","","","","1.19230850900174","1.96314106411808","","","","","","","",""
"18-097-0087","Benzene","39.787933","-86.13088","Indianapolis (Remainder)","","RESIDENTIAL","","Indpls.- I 70","meanRos_ug_m3","No","Undetermined","Indiana","Indianapolis (Remainder)","Urban And Center City","Indpls.- I 70","No","Benzene","","","","","","","","","","","","","","0.849005136641043"
"18-127-0024","Benzene","41.617558","-87.199248","NOT IN A CITY","","RESIDENTIAL","","Ogden Dunes- Water Treatment Plant","meanRos_ug_m3","Yes","Decreasing","Indiana","Ogden Dunes (Wickliffe)","Suburban","Ogden Dunes- Water Treatment Plant","No","Benzene","0.571880393782043","0.516000439630472","0.469481699959975","0.882943827880859","0.614724714189268","0.559609499747935","0.479229380264282","0.46299319361052","0.554800167152111","0.402877580696753","0.55430864983902","0.437365664287172","0.459611803294399","0.388518104714257"
"18-157-0008","Benzene","40.431639","-86.8525","LAFAYETTE","","INDUSTRIAL","","Lafayette- Greenbush St./ Cinergy Substation","meanRos_ug_m3","No","No Trend","Indiana","Lafayette","Suburban","Lafayette- Greenbush St./ Cinergy Substation","No","Benzene","","","","","","0.659353526639478","0.452989217245498","0.469449188830317","0.556734378800851","0.389442726260744","","","",""
"18-163-0016","Benzene","37.974436","-87.532289","Evansville","","COMMERCIAL","","Evansville- U of E/  University of Evansville-Carson Center","meanRos_ug_m3","Yes","Decreasing","Indiana","Evansville","Urban And Center City","Evansville- U of E/  University of Evansville-Carson Center","No","Benzene","0.834924075838216","0.688861981392216","0.751118702128508","1.52072333413517","0.71878723066252","1.00146652542408","0.600133001690434","0.785107885939139","0.739477557602247","0.507872975406515","0.539763617771349","0.461543534087862","0.584043291503371","0.552168694744758"
"18-167-0025","Benzene","39.507688","-87.37444","Terre Haute","","COMMERCIAL","","Terre Haute-Fort Harrison Rd.","meanRos_ug_m3","No","Undetermined","Indiana","Terre Haute","Urban And Center City","Terre Haute-Fort Harrison Rd.","No","Benzene","","","","","","","","","","","","0.441886671099479","0.462974816489236","0.622998194343567"
"19-031-NWBI","Benzene","41.725","-91.353","West Branch","","REGIONAL-NOAA Global Monitoring Division","","NOAA: West Branch, Iowa","meanRos_ug_m3","No","Decreasing","Iowa","West Branch","","NOAA: West Branch, Iowa","No","Benzene","","","","","","0.325468971629509","0.338570329900697","0.307326119570159","0.319888092257376","0.25344144060889","0.277866656448324","0.28988996323371","",""
"19-045-0021","Benzene","41.874999","-90.177574","Clinton","","RESIDENTIAL","","UATMP: CLIA","meanRos_ug_m3","No","Undetermined","Iowa","Clinton","Suburban","CLINTON, RAINBOW PARK","No","Benzene","","","","","","","","","","","","","",""
"19-113-0037","Benzene","42.00508","-91.6793","Cedar Rapids","","RESIDENTIAL","","UATMP: C2IA; PILOT CITY: Army Reserve","meanRos_ug_m3","No","Undetermined","Iowa","Cedar Rapids","Urban And Center City","ARMY RESERVE CENTER ROOF- CORE MONITORING SITE","No","Benzene","","0.377694332325069","0.293971802542508","0.471159982320535","0.505750835283182","","","","","","","","",""
"19-113-0039","Benzene","41.93417","-91.682679","Cedar Rapids","","INDUSTRIAL","","UATMP: CRIA; PILOT CITY: Hawkeye Downs","meanRos_ug_m3","No","Undetermined","Iowa","Cedar Rapids","Urban And Center City","HAWKEYE DOWNS SOUTHWEST CORNER","No","Benzene","","","","","","","","","","","","","",""
"19-113-0040","Benzene","41.97677","-91.68766","CEDAR RAPIDS","","RESIDENTIAL","","Public Health","meanRos_ug_m3","No","No Trend","Iowa","Cedar Rapids","Urban And Center City","Public Health","No","Benzene","","","","","","1.19523357285173","2.20152652522519","","4.72773095557944","0.804484135573281","0.493434494869249","0.543657333131738","0.931888153778356",""
"19-139-0020","Benzene","41.4069","-91.0616","Muscatine","","INDUSTRIAL","","UATMP: MUIA","meanRos_ug_m3","No","Undetermined","Iowa","Muscatine","Suburban","MUSCATINE, MUSSER PARK","No","Benzene","","","","","","","","","","","","","",""
"19-153-0030","Benzene","41.603159","-93.643118","Des Moines","","COMMERCIAL","","UATMP: DMIA","meanRos_ug_m3","Yes","No Trend","Iowa","Des Moines","Urban And Center City","CARPENTER","No","Benzene","0.830753005306286","0.520306184286935","0.58767038746511","0.861760921133016","0.777891976178987","0.805637835933177","0.834391598749034","0.916319625367395","1.37595407826575","0.55439739602055","0.471540411096486","0.603030303499222","0.579656334207739",""
"19-153-2510","Benzene","41.603517","-93.7479","CLIVE","","RESIDENTIAL","","INDIAN HILLS JR HIGH, CLIVE IA, FRM R&P SEQ. SAMPLER (1),ROOF","meanRos_ug_m3","No","Undetermined","Iowa","Clive","Suburban","INDIAN HILLS JR HIGH, CLIVE IA, FRM R&P SEQ. SAMPLER (1),ROOF","No","Benzene","0.522517795477455","","","","","","","","","","","","",""
"19-163-0015","Benzene","41.530011","-90.587611","Davenport","","RESIDENTIAL","","UATMP: DAIA","meanRos_ug_m3","Yes","No Trend","Iowa","Davenport","Urban And Center City","DAVENPORT, JEFFERSON SCH.","No","Benzene","0.589933084773361","0.546410239682812","0.42366281950604","0.710745981331772","0.756025660244514","0.730114835450787","0.748041564119932","0.786291168359544","","0.575241655407508","0.461245395994149","0.595373650182356","0.527661721372695",""
"20-173-0010","Benzene","37.702066","-97.314847","WICHITA","","RESIDENTIAL","","UATMP: W1KS","meanRos_ug_m3","No","Undetermined","Kansas","Wichita","Urban And Center City","WICHITA HD","No","Benzene","","","","","","","","","","","","","",""
"21-019-0017","Benzene","38.45934","-82.64041","ASHLAND","","RESIDENTIAL","","UATMP: ASKY","meanRos_ug_m3","No","Undetermined","Kentucky","Ashland","Suburban","ASHLAND PRIMARY (FIVCO)","No","Benzene","","","","","","","","","","","1.51499333918302","0.863189007227938","0.778321761258113","0.652816911337789"
"21-067-0012","Benzene","38.06503","-84.49761","LEXINGTON-FAYETTE","","RESIDENTIAL","","UATMP: LEKY","meanRos_ug_m3","No","Undetermined","Kentucky","Lexington-Fayette (corporate name for Lexington)","Suburban","LEXINGTON PRIMARY","No","Benzene","","","","","","","","","","","","0.61974824797166","0.506958375851901",""
"21-139-0004","Benzene","37.07151","-88.33389","NOT IN A CITY","","AGRICULTURAL","","UATMP: BLKY","meanRos_ug_m3","No","Undetermined","Kentucky","Smithland","Rural","BLOODWORTH","No","Benzene","","","","","","","","","","","0.672599788956232","0.61650197385554","0.561970904902002","0.492488059784927"
"21-157-0014","Benzene","37.0452","-88.33087","GRAND RIVERS","","INDUSTRIAL","","UATMP: TVKY; TVA SUBSTATION","meanRos_ug_m3","No","Undetermined","Kentucky","Calvert City (RR name Calvert)","Suburban","TVA SUBSTATION","No","Benzene","","","","","","","","","","","1.04786253671557","1.0376494515624","1.04920316253345","0.540193642409378"
"21-157-0016","Benzene","37.04176","-88.35407","GRAND RIVERS","","INDUSTRIAL","","UATMP: ATKY; ATMOS ENERGY","meanRos_ug_m3","No","Undetermined","Kentucky","Calvert City (RR name Calvert)","Suburban","ATMOS ENERGY","No","Benzene","","","","","","","","","","","0.533961041726159","0.615613348155888","0.957159155429543","0.56884265563392"
"21-157-0018","Benzene","37.02702","-88.34387","CALVERT CITY","","RESIDENTIAL","","UATMP: CCKY; CALVERT CITY ELEMENTARY","meanRos_ug_m3","No","Undetermined","Kentucky","Calvert City (RR name Calvert)","Suburban","CALVERT CITY ELEMENTARY","No","Benzene","","","","","","","","","","","0.494260946617927","0.56111509610944","",""
"21-157-0019","Benzene","37.03718","-88.33411","Calvert City","","RESIDENTIAL","","UATMP: LAKY; Lazy Daz","meanRos_ug_m3","No","Undetermined","Kentucky","Not in a city","Suburban","LAZY DAZ","No","Benzene","","","","","","","","","","","0.62289169892573","0.702299246553966","",""
"22-005-0004","Benzene","30.229653","-90.965628","NOT IN A CITY","","AGRICULTURAL","","Dutchtown","meanRos_ug_m3","No","Decreasing","Louisiana","Not in a city","Rural","Dutchtown","No","Benzene","","","","","","","","3.48030517142749","0.852050634018153","0.783582074397037","0.728575548233208","0.704790166895048","0.635181992146896","0.564333908138801"
"22-015-0008","Benzene","32.536273","-93.74894","Shreveport","","COMMERCIAL","","Shreveport / Airport","meanRos_ug_m3","No","Undetermined","Louisiana","Shreveport","Urban And Center City","Shreveport / Airport","No","Benzene","","","","","","","","","","","","","",""
"22-019-0008","Benzene","30.262604","-93.285084","Westlake","","INDUSTRIAL","","Westlake","meanRos_ug_m3","No","Undetermined","Louisiana","Westlake (RR name West Lake)","Rural","Westlake","No","Benzene","","","","","","","","","","","","","",""
"22-033-0008","Benzene","30.700184","-91.100106","PRIDE","","AGRICULTURAL","","","meanRos_ug_m3","No","Undetermined","Louisiana","Not in a city","Rural","","No","Benzene","","","","","","","","","","","","","",""
"22-033-0009","Benzene","30.461981","-91.179219","Baton Rouge","","COMMERCIAL","","UATMP: B2LA","meanRos_ug_m3","Yes","Decreasing","Louisiana","Baton Rouge","Urban And Center City","Capitol","No","Benzene","1.71623683991408","1.99964164026942","2.54411948189424","2.19762169323786","1.82696692706308","1.36725169776765","1.48055705898975","1.30846736147158","0.953799585998217","0.941129051626078","0.919804868128647","0.861281691752752","0.984195153172387","1.23273469514523"
"22-033-0013","Benzene","30.700895","-91.056068","ZACHARY","","AGRICULTURAL","","Pride","meanRos_ug_m3","Yes","Decreasing","Louisiana","Not in a city","Rural","Pride","No","Benzene","1.15985180754678","0.59857769335692","0.715392830003574","0.715414556940671","1.05785448384264","0.880869241819109","1.40097524674921","1.82002570786481","0.616014888255927","0.531392413630497","0.448121508212039","0.466353116107686","0.391225439524841",""
"22-047-0009","Benzene","30.221255","-91.315418","NOT IN A CITY","","AGRICULTURAL","","Bayou Plaquemine","meanRos_ug_m3","Yes","Decreasing","Louisiana","Not in a city","Rural","Bayou Plaquemine","No","Benzene","1.02330610045997","0.911778269043562","1.05365071734909","1.06919594500771","7.29340186578106","0.884862819987978","0.832041355045055","0.753409956016239","0.676337709656507","0.719578521553916","0.662803039043114","0.620060389713594","0.596564510273434",""
"22-073-0004","Benzene","32.509959","-92.046196","Monroe","","INDUSTRIAL","","Monroe / Airport","meanRos_ug_m3","No","Undetermined","Louisiana","Monroe","Urban And Center City","Monroe / Airport","No","Benzene","","","","","","","","","","","","","",""
"22-089-0003","Benzene","29.984371","-90.410638","HAHNVILLE","","INDUSTRIAL","","UATMP: HALA","meanRos_ug_m3","No","Undetermined","Louisiana","Hahnville","Rural","Hahnville","No","Benzene","","","","","","","","","","","","","",""
"22-095-0002","Benzene","30.057515","-90.619286","NOT IN A CITY","","INDUSTRIAL","","UATMP: GALA","meanRos_ug_m3","No","Undetermined","Louisiana","Garyville","Rural","Garyville","No","Benzene","","","","","","","","","","","","","",""
"23-001-0011","Benzene","44.089406","-70.214219","LEWISTON","","COMMERCIAL","","LEWISTON","meanRos_ug_m3","No","Decreasing","Maine","Lewiston","Urban And Center City","COUNTRY KITCHEN BAKERY PARKING LOT","No","Benzene","","","","","0.729197791574973","0.780174020846912","0.79661704759879","0.637595411098743","","0.684581923899368","0.664117258452663","0.629324022163055","0.642810067977281","0.593486328553281"
"23-003-1011","Benzene","46.682299","-68.016195","PRESQUE ISLE","","COMMERCIAL","","RIVERSIDE STREET MONITORING SHELTER","meanRos_ug_m3","No","Decreasing","Maine","Presque Isle","Urban And Center City","RIVERSIDE","No","Benzene","","","","","0.757629701572479","0.717449948562927","0.644119785547807","0.587854706457519","","0.644978848585022","0.614750991055298","","","0.533187058634779"
"23-005-0029","Benzene","43.660246","-70.268965","PORTLAND","","COMMERCIAL","","PDO - Portland Deering Oaks","meanRos_ug_m3","No","No Trend","Maine","Portland","Urban And Center City","PDO - Portland Deering Oaks","No","Benzene","","","","","","","0.652193799850448","0.728869328696205","","0.724317236542611","0.622500633784823","0.584323542602941","0.69978699562568","0.577317265113697"
"23-005-2003","Benzene","43.561043","-70.207324","Cape Elizabeth","","RESIDENTIAL","","CETL - Cape Elizabeth Two Lights (State Park)","meanRos_ug_m3","No","Undetermined","Maine","Not in a city","Rural","CETL - Cape Elizabeth Two Lights (State Park)","No","Benzene","","","","","","","","","","","","0.381679577526042","0.438567493453979","0.36892672674866"
"23-017-0008","Benzene","44.548386","-70.530987","MEXICO","","INDUSTRIAL","","","meanRos_ug_m3","No","Undetermined","Maine","Mexico (census name for Mexico Center)","Suburban","","No","Benzene","","","","","","","","","","","","","",""
"23-017-0009","Benzene","44.555341","-70.545621","MEXICO","","INDUSTRIAL","","","meanRos_ug_m3","No","Undetermined","Maine","Mexico (census name for Mexico Center)","Suburban","","No","Benzene","","","","","","","","","","","","","",""
"23-017-2011","Benzene","44.551419","-70.546319","RUMFORD","","INDUSTRIAL","","IN 8 X 8 ECTO SHELTER LOCATED IN PARKING LOT EAST OF RUMFORD AVENUE.","meanRos_ug_m3","No","No Trend","Maine","Rumford (census name for Rumford Compact)","Rural","Rumford Avenue Parking Lot (RAP)","No","Benzene","","","","","0.705039853027804","0.749384790223435","0.709920488832882","0.659339755680275","","0.676661054890675","0.691771814177985","0.701842837620381","0.775641626575894","0.556897590169183"
"23-019-0002","Benzene","44.79886","-68.769675","BANGOR","","COMMERCIAL","","BANGOR","meanRos_ug_m3","No","No Trend","Maine","Bangor","Urban And Center City","KENDUSKEAG PUMP STATION (BUILDING ROOF)","No","Benzene","","","","","0.726954106062434","0.663834346383057","","0.634693673266683","","0.698217589468089","0.574956928075098","0.556459038083795","0.73830368765564","0.536736905895996"
"23-019-NAMT","Benzene","45.035","-68.682","Argyle","","REGIONAL-NOAA Global Monitoring Division","","NOAA: Argyle, Maine","meanRos_ug_m3","No","Decreasing","Maine","Argyle","","NOAA: Argyle, Maine","No","Benzene","","","","","","","0.352828549176094","0.261399332029348","0.326880874328835","0.249227204210275","0.245286190694617","0.247997793154075","",""
"24-003-0019","Benzene","39.101111","-76.729444","Fort Meade","","COMMERCIAL","","PAMS: Fort Meade","meanRos_ug_m3","No","Undetermined","Maryland","Fort Meade (U.S. Army)","Suburban","FT MEADE LAT/LONG POINT IS OF THE SAMPLING INLET","No","Benzene","0.849897698811608","0.641876927505493","","","","","","","","","","","",""
"24-003-1003","Benzene","39.169533","-76.627933","GLEN BURNIE","","RESIDENTIAL","","GLEN BURNIE","meanRos_ug_m3","No","Undetermined","Maryland","Glen Burnie","Suburban","GLEN BURNIE","No","Benzene","","","","","","","","","","","","","",""
"24-005-3001","Benzene","39.310833","-76.474444","Essex","","RESIDENTIAL","","PAMS: Essex","meanRos_ug_m3","Yes","Decreasing","Maryland","Essex","Suburban","Essex","No","Benzene","1.45579236182505","0.955687706288941","1.45152381597898","1.27488327077529","1.16450031893598","1.09001732411453","1.05024558991798","0.926510135177612","0.802600097785053","0.793696382523313","0.783734074993414","0.818390210967328","1.09956518916194","1.0236653811219"
"24-025-9001","Benzene","39.563333","-76.203889","NOT IN A CITY","","COMMERCIAL","","PAMS: Aldino","meanRos_ug_m3","No","Undetermined","Maryland","Not in a city","Suburban","Aldino","No","Benzene","","","","","","","","","","","","","",""
"24-027-0006","Benzene","39.14313","-76.84611","North Laurel","","RESIDENTIAL","","Howard County Near Road","meanRos_ug_m3","No","Undetermined","Maryland","North Laurel","Suburban","Howard County Near Road","No","Benzene","","","","","","","","","","","","0.663732691666031","0.841905442118609","0.694312090216228"
"24-033-0030","Benzene","39.055277","-76.878333","BELTSVILLE","","RESIDENTIAL","","HU-Beltsville","meanRos_ug_m3","No","No Trend","Maryland","Beltsville","Suburban","HU-Beltsville","No","Benzene","","","","0.688823379333891","0.676024037807994","0.589940241723484","0.546882496148813","0.542270864215715","0.440580418207783","1.91123776543918","0.453271122166634","0.467925919248302","0.677464283042153","0.966712155410894"
"24-510-0006","Benzene","39.340556","-76.582222","Baltimore","","RESIDENTIAL","","Northeast Police","meanRos_ug_m3","No","Decreasing","Maryland","Baltimore","Suburban","Northeast Police","No","Benzene","1.29125694126765","0.953133989636739","0.995364931192595","0.917082671959298","0.914795639215596","0.814388544323327","0.909631616124279","0.705035766219317","0.617271553950472","","","","",""
"24-510-0011","Benzene","39.236775","-76.584132","Baltimore","","INDUSTRIAL","","","meanRos_ug_m3","No","Undetermined","Maryland","Baltimore","Suburban","","No","Benzene","","","","","","","","","","","","","",""
"24-510-0035","Benzene","39.232778","-76.579722","BALTIMORE","","INDUSTRIAL","","FMC-Fairfield","meanRos_ug_m3","No","Undetermined","Maryland","Baltimore","Urban And Center City","FMC-Fairfield","No","Benzene","","","","","","","","","","","","","",""
"24-510-0040","Benzene","39.297733","-76.604603","Baltimore","","RESIDENTIAL","","Oldtown","meanRos_ug_m3","Yes","Decreasing","Maryland","Baltimore","Urban And Center City","Oldtown","No","Benzene","1.54840665278494","1.15989755087694","1.18582647760951","1.63565551573535","1.13749162334428","1.01868977553446","1.05701214720438","0.897269020449622","0.787148028043287","0.835621804437835","0.778669437475167","0.784774415438843","0.95785595627666","0.775712623521118"
"24-510-0043","Benzene","39.264274","-76.580244","Baltimore","","INDUSTRIAL","","","meanRos_ug_m3","No","Undetermined","Maryland","Baltimore","Urban And Center City","","No","Benzene","","","","","","","","","","","","","",""
"24-510-0050","Benzene","39.318611","-76.5825","BALTIMORE","","RESIDENTIAL","","LAT/LONG POINT IS OF SAMPLING INLET.................................","meanRos_ug_m3","No","Undetermined","Maryland","Baltimore","Urban And Center City","LAT/LONG POINT IS OF SAMPLING INLET.................................","No","Benzene","","","","","","","","","","","","","",""
"24-510-0051","Benzene","39.281496","-76.598578","BALTIMORE","","COMMERCIAL","","PAMS: Living Classroom","meanRos_ug_m3","No","Undetermined","Maryland","Baltimore","Urban And Center City","PAMS-OZONE-NOX ANALYZERS ARE LOCATED AT SOUTH CAROLINE STREET.","No","Benzene","","","","","","","","","","","","","",""
"25-009-2006","Benzene","42.474642","-70.970816","Lynn","","COMMERCIAL","","LYNN WATER TREATMENT PLANT","meanRos_ug_m3","Yes","Decreasing","Massachusetts","Lynn","Urban And Center City","LYNN WATER TREATMENT PLANT","No","Benzene","0.635559125197622","0.590162284669674","0.682646721604702","0.732227438302119","0.559020258571621","0.581309299526509","0.533352548440502","0.394065780242362","0.420086451638169","0.509874102343099","0.399070427169046","0.340006219558137","0.422414751726161","0.35790316612415"
"25-013-0008","Benzene","42.19438","-72.555112","Chicopee","","COMMERCIAL","","WESTOVER AFB","meanRos_ug_m3","Yes","Decreasing","Massachusetts","Chicopee","Suburban","WESTOVER AFB","No","Benzene","0.634246998478433","","0.891549801048965","0.985336669734479","0.737249094275501","0.748659517794484","0.623599005992528","0.590675481274875","0.626615110440334","0.685428950767067","0.483376182781822","0.46537710255613","",""
"25-017-1801","Benzene","42.385095","-71.388394","SUDBURY","","AGRICULTURAL","","SUDBURY","meanRos_ug_m3","No","Undetermined","Massachusetts","Sudbury (RR name South Sudbury)","Rural","SUDBURY","No","Benzene","","","","","","","","","","","","","",""
"25-025-0041","Benzene","42.317372","-70.968359","Boston","","COMMERCIAL","","BOSTON LONG ISLAND","meanRos_ug_m3","No","Undetermined","Massachusetts","Boston","Rural","BOSTON LONG ISLAND","No","Benzene","","","","","","","","","","","","","",""
"25-027-NHFM","Benzene","42.538","-72.171","Petersham","","REGIONAL-NOAA Global Monitoring Division","","NOAA: Harvard Forest, Massachusetts","meanRos_ug_m3","No","No Trend","Massachusetts","Petersham","","NOAA: Harvard Forest, Massachusetts","No","Benzene","","","","0.296726850653067","0.29997274428606","0.248307689158029","0.267194827600401","0.295645478036669","0.293288384310224","0.278518284742649","","0.289298698396944","",""
"26-007-0901","Benzene","45.083624","-83.450254","ALPENA","","RESIDENTIAL","","375 WILSON, ALPENA CO.","meanRos_ug_m3","No","Undetermined","Michigan","Alpena","Rural","375 WILSON, ALPENA CO.","No","Benzene","","","","","","","","","","","","","",""
"26-007-0902","Benzene","45.068069","-83.426642","Alpena","","RESIDENTIAL","","ALPENA","meanRos_ug_m3","No","Undetermined","Michigan","Alpena","Urban And Center City","309 W LAKE ST, 17.5 FEET NORTH OF TAYLOR STREET","No","Benzene","","","","","","","","","","","","","",""
"26-033-0901","Benzene","46.493633","-84.364207","SAULT STE MARIE","","RESIDENTIAL","","UATMP: ITCMI","meanRos_ug_m3","No","Undetermined","Michigan","Sault Ste. Marie","Rural","NORTH OF EASTERDAY AVENUE","No","Benzene","","1.55217071496709","","","","","","","","","","","",""
"26-065-0921","Benzene","42.741979","-84.573591","LANSING","","COMMERCIAL","","LANSING","meanRos_ug_m3","No","Undetermined","Michigan","Lansing","Urban And Center City","LANSING","No","Benzene","","","","","","","","","","","","","",""
"26-065-0922","Benzene","42.735591","-84.576924","LANSING","","INDUSTRIAL","","LANSING","meanRos_ug_m3","No","Undetermined","Michigan","Lansing","Urban And Center City","LANSING","No","Benzene","","","","","","","","","","","","","",""
"26-065-0924","Benzene","42.733924","-84.593592","LANSING","","INDUSTRIAL","","LANSING","meanRos_ug_m3","No","Undetermined","Michigan","Lansing","Urban And Center City","LANSING","No","Benzene","","","","","","","","","","","","","",""
"26-077-0901","Benzene","42.216432","-85.552502","Kalamazoo","","INDUSTRIAL","","","meanRos_ug_m3","No","Undetermined","Michigan","Kalamazoo","Suburban","","No","Benzene","0.300292742097109","0.351434878860474","0.351434878860474","","","","","","","","","","",""
"26-077-0902","Benzene","42.214487","-85.543335","KALAMAZOO","","INDUSTRIAL","","KALAMAZOO","meanRos_ug_m3","No","Undetermined","Michigan","Kalamazoo","Suburban","KALAMAZOO","No","Benzene","","","","","","","","","","","","","",""
"26-077-0903","Benzene","42.18921","-85.558612","KALAMAZOO","","INDUSTRIAL","","KALAMAZOO","meanRos_ug_m3","No","Undetermined","Michigan","Kalamazoo","Suburban","KALAMAZOO","No","Benzene","","","","","","","","","","","","","",""
"26-077-0905","Benzene","42.278097","-85.541949","KALAMAZOO","","COMMERCIAL","","KALAMAZOO","meanRos_ug_m3","No","Undetermined","Michigan","Kalamazoo","Urban And Center City","KALAMAZOO","No","Benzene","","","","","","","","","","","","","",""
"26-081-0020","Benzene","42.984173","-85.671339","Grand Rapids","","INDUSTRIAL","","Grand Rapids","meanRos_ug_m3","No","Undetermined","Michigan","Grand Rapids","Urban And Center City","GR-Monroe","No","Benzene","","","","1.09775809950798","","","","","","","","","",""
"26-081-0021","Benzene","42.938638","-85.671141","Grand Rapids","","INDUSTRIAL","","1270 RANDOLPH, GRAND RAPIDS","meanRos_ug_m3","No","Undetermined","Michigan","Grand Rapids","Urban And Center City","1270 RANDOLPH, GRAND RAPIDS","No","Benzene","1.45772332638383","1.1181043274087","","","","","","","","","","","",""
"26-111-0951","Benzene","43.609194","-84.210544","Midland","","COMMERCIAL","","WOOD PLATFORM","meanRos_ug_m3","No","No Trend","Michigan","Midland","Rural","WOOD PLATFORM","No","Benzene","0.799288511092437","0.469047710547077","0.633978055829959","0.757083740354205","0.586857327769979","0.505215852233893","","0.459997866620991","","","","","",""
"26-111-0952","Benzene","43.610027","-84.221377","MIDLAND","","COMMERCIAL","","MIDLAND","meanRos_ug_m3","No","Undetermined","Michigan","Midland","Rural","WOOD PLATFORM","No","Benzene","","","","","","","","","","","","","",""
"26-111-0953","Benzene","43.591416","-84.209431","Midland","","INDUSTRIAL","","WOOD PLATFORM","meanRos_ug_m3","Yes","No Trend","Michigan","Midland","Rural","WOOD PLATFORM","No","Benzene","0.77731745158625","0.432196921757659","0.54872501018437","0.803924827364037","0.72513628396571","0.549765181377596","0.433664772630795","","0.571663204499231","0.622954202278738","0.590006731856979","0.592329722833799","0.500938200999575","0.573689903013972"
"26-111-0954","Benzene","43.601416","-84.298881","Midland","","AGRICULTURAL","","WOOD PLATFORM","meanRos_ug_m3","No","Undetermined","Michigan","Midland","Rural","WOOD PLATFORM","No","Benzene","0.670455042874867","","","","","","","","","","","","",""
"26-111-0955","Benzene","43.589471","-84.221099","Midland","","INDUSTRIAL","","WOOD PLATFORM","meanRos_ug_m3","Yes","No Trend","Michigan","Midland","Rural","WOOD PLATFORM","No","Benzene","0.898570047538478","1.14396161432717","0.448924756480522","0.901644222902446","0.769266727268505","0.573282421143198","0.62972954190291","0.825316606516656","0.973108659858987","1.23459454923869","0.676200793625991","1.07649151540706","0.605190166292173","0.553512332613049"
"26-111-0956","Benzene","43.618083","-84.2286","MIDLAND","","RESIDENTIAL","","MIDLAND","meanRos_ug_m3","No","Undetermined","Michigan","Midland","Suburban","WOOD PLATFORM","No","Benzene","","","","","","","","","","","","","",""
"26-111-0957","Benzene","43.606693","-84.176931","MIDLAND","","RESIDENTIAL","","MIDLAND","meanRos_ug_m3","No","Undetermined","Michigan","Midland","Rural","WOOD PLATFORM","No","Benzene","","","","","","","","","","","","","",""
"26-111-0959","Benzene","43.576215","-84.321607","MIDLAND","","AGRICULTURAL","","","meanRos_ug_m3","No","No Trend","Michigan","Midland","Rural","","No","Benzene","","","","0.510941623671597","","","","","","0.564030958261236","0.545255886966478","0.517686707192268","0.445336334187523","0.422661534133923"
"26-111-0960","Benzene","43.60002","-84.200144","Midland","","COMMERCIAL","","","meanRos_ug_m3","No","Decreasing","Michigan","Midland","Rural","","No","Benzene","","","","","","","","","0.614127295880007","0.648051387430631","0.509749700459648","0.582160661346983","0.463942296848448","0.418998405092895"
"26-113-0001","Benzene","44.310555","-84.891865","NOT IN A CITY","","FOREST","","UATMP: HOMI; PILOT CITY: Houghton Lake","meanRos_ug_m3","No","Undetermined","Michigan","Not in a city","Rural","LOCATED ABOUT 1/4 MILE WEST OF SITE","No","Benzene","","","","0.400063772875121","","","","","","","","","",""
"26-125-0010","Benzene","42.490313","-83.279931","Southfield","","MOBILE","","UATMP: LOMI; PILOT CITY: 696 Lodge","meanRos_ug_m3","No","Undetermined","Michigan","Southfield","Urban And Center City","338 FEET NORTH TO I-696 FREEWAY","No","Benzene","","","","","","","","","","","","","",""
"26-159-0901","Benzene","42.16893","-85.827787","LAWTON","","AGRICULTURAL","","LAWTON","meanRos_ug_m3","No","Undetermined","Michigan","Lawton","Rural","LAWTON","No","Benzene","","","","","","","","","","","","","",""
"26-161-0008","Benzene","42.240565","-83.599602","Ypsilanti","","COMMERCIAL","","PILOT CITY: Ypsilanti","meanRos_ug_m3","No","Undetermined","Michigan","Ypsilanti","Urban And Center City","TOWNER ST, SOUTH; 2 LANE RESIDENIAL - HOSPITAL","No","Benzene","","","","1.11170714233018","","","","","","","","","",""
"26-163-0001","Benzene","42.22862","-83.2082","Allen Park","","COMMERCIAL","","UATMP: APMI; IMPROVE: DETR1; PILOT CITY: Allen Park","meanRos_ug_m3","No","Undetermined","Michigan","Allen Park","Suburban","Allen Park","No","Benzene","","","","","","","","","","","","","",""
"26-163-0005","Benzene","42.267231","-83.132086","River Rouge","","INDUSTRIAL","","UATMP: RRMI; PILOT CITY: River Rouge","meanRos_ug_m3","No","Undetermined","Michigan","River Rouge","Suburban","River Rouge","No","Benzene","","","","","","","","","","","","","",""
"26-163-0015","Benzene","42.302786","-83.10653","Detroit","","COMMERCIAL","","UATMP: SWMI; PILOT CITY: Southwest HS","meanRos_ug_m3","Yes","Decreasing","Michigan","Detroit","Urban And Center City","Southwestern H.S.","No","Benzene","3.33173477518364","2.36409797506375","1.81543577023383","1.63655931251856","1.31086424562031","1.50057256483632","1.01163838234597","1.21271616395996","0.91575067944161","0.837680146205482","0.623006522477572","0.763397069963921","0.873144221658368","0.810274429388162"
"26-163-0027","Benzene","42.292231","-83.106807","Detroit","","INDUSTRIAL","","UATMP: YFMI; PILOT CITY: Yellow Freight","meanRos_ug_m3","No","Undetermined","Michigan","Detroit","Urban And Center City","UATMP: YFMI; PILOT CITY: Yellow Freight","No","Benzene","","","8.18256304627991","","","","","","","","","","",""
"26-163-1005","Benzene","42.289449","-83.153435","Detroit","","INDUSTRIAL","","","meanRos_ug_m3","No","Undetermined","Michigan","Detroit","Urban And Center City","","No","Benzene","","","","","","","","","","1.58660814654711","1.38409874593475","0.946705954127788","",""
"26-163-1006","Benzene","42.283069","-83.161145","Detroit","","INDUSTRIAL","","","meanRos_ug_m3","No","Decreasing","Michigan","Detroit","Urban And Center City","","No","Benzene","","","","","","","","","","1.50902191030561","1.364931163942","1.15188640734017","1.08476808825597","0.908640565066063"
"26-163-1008","Benzene","42.281869","-83.151415","Detroit","","INDUSTRIAL","","","meanRos_ug_m3","No","No Trend","Michigan","Detroit","Urban And Center City","","No","Benzene","","","","","","","","","","2.46021049553577","2.01649333228727","1.44512699058793","1.65891730124189","1.26275632329747"
"26-163-1009","Benzene","42.270009","-83.162585","Detroit","","INDUSTRIAL","","","meanRos_ug_m3","No","Decreasing","Michigan","Detroit","Urban And Center City","","No","Benzene","","","","","","","","","","1.55479656945351","1.44247367721151","1.10025575279188","1.02822412609085","0.913198207948049"
"27-003-1002","Benzene","45.13768","-93.207615","Blaine","","COMMERCIAL","","Anoka Airport6010","meanRos_ug_m3","No","No Trend","Minnesota","Blaine","Suburban","Anoka County Airport","No","Benzene","","","","","","","","","","0.486513666844299","0.458647092778573","0.543801779105914","0.415333472291327","0.457736673256478"
"27-007-2302","Benzene","47.473285","-94.884721","BEMIDJI","","COMMERCIAL","","BEMIDJI","meanRos_ug_m3","No","Undetermined","Minnesota","Bemidji","Urban And Center City","KITCHAGAMI REGIONAL LIBRARY, 1 STORY BUILDING","No","Benzene","","","","","","","","","","","","","",""
"27-007-2303","Benzene","47.877222","-95.01222","Red Lake","","RESIDENTIAL","","Red Lake","meanRos_ug_m3","No","Undetermined","Minnesota","Red Lake","Rural","Red Lake District","No","Benzene","","","","","","","","","0.356018538610566","","","","",""
"27-017-7416","Benzene","46.70527","-92.52377","CLOQUET","","FOREST","","Cloquet","meanRos_ug_m3","No","Undetermined","Minnesota","Cloquet","Rural","Fond du Lac Band 7416","No","Benzene","","","","","","","","0.358637609753973","","","","","",""
"27-019-0052","Benzene","44.850655","-93.591809","Chaska","","RESIDENTIAL","","CHASKA","meanRos_ug_m3","No","No Trend","Minnesota","Chaska","Rural","Chaska","No","Benzene","0.496432486222487","0.481212398389514","0.488357558935983","0.516134006749386","0.333508150191328","","","","","","","","",""
"27-021-0001","Benzene","47.159942","-94.150987","NOT IN A CITY","","RESIDENTIAL","","Leech Lake","meanRos_ug_m3","No","Undetermined","Minnesota","Not in a city","Rural","Leech Lake Nation: Chatfield","No","Benzene","","","","","","","","","0.278925390020487","","","","",""
"27-035-3202","Benzene","46.164666","-94.359379","FORT RIPLEY","","AGRICULTURAL","","HIGHWAY 371.  FT. RIPLEY","meanRos_ug_m3","No","Undetermined","Minnesota","Not in a city","Rural","Fort Ripley","No","Benzene","","","","","","","","","","","","","",""
"27-037-0020","Benzene","44.76323","-93.03255","NOT IN A CITY","","INDUSTRIAL","","FHR 420","meanRos_ug_m3","Yes","Decreasing","Minnesota","Rosemount","Rural","Flint Hills Refinery 420","No","Benzene","0.73622628859584","0.655496755048921","0.621086514302076","0.596313235956173","0.537115957383211","0.421782135057759","0.550086867203358","0.629167584066509","0.503280770761677","0.475267750720764","0.507043477628641","0.472188850444734","0.543126632351122","0.48164059672397"
"27-037-0423","Benzene","44.77553","-93.06299","Rosemount","","INDUSTRIAL","","FHR 423","meanRos_ug_m3","Yes","Decreasing","Minnesota","Inver Grove Heights (RR name Inver Grove)","Rural","Flint Hills Refinery 423","No","Benzene","0.495869289301236","0.459154994002101","0.446197750664145","0.450475617448425","0.379197132613715","0.352618161280879","0.347481913350949","0.435492813835565","0.371146577897759","0.348240016325378","0.337760867210266","0.387043072635089","","0.430028496895326"
"27-037-0424","Benzene","44.779688","-93.062437","Toneyan","","AGRICULTURAL","","","meanRos_ug_m3","No","Undetermined","Minnesota","Inver Grove Heights (RR name Inver Grove)","Rural","","No","Benzene","","","","","","","","","","","","","",""
"27-037-0425","Benzene","44.79958","-93.072866","Inver Grove Heights","","AGRICULTURAL","","","meanRos_ug_m3","No","Undetermined","Minnesota","Inver Grove Heights (RR name Inver Grove)","Rural","","No","Benzene","","","","","","","","","","","","","",""
"27-037-0426","Benzene","44.773003","-93.033072","NOT IN A CITY","","INDUSTRIAL","","Cemetary","meanRos_ug_m3","No","Undetermined","Minnesota","Not in a city","Rural","Cemetary","No","Benzene","","","","","","","","","","","","","",""
"27-037-0439","Benzene","44.748006","-93.04348","ROSEMOUNT","","INDUSTRIAL","","ROSEMOUNT","meanRos_ug_m3","No","Undetermined","Minnesota","Rosemount","Rural","Flint Hills Refinery 439","No","Benzene","","","","","","","","","","","","","",""
"27-037-0441","Benzene","44.7468","-93.02611","Rosemount","","INDUSTRIAL","","FHR 441","meanRos_ug_m3","No","No Trend","Minnesota","Rosemount","Rural","Flint Hills Refinery 441","No","Benzene","0.506359087958132","0.460060205053711","0.438848412812505","0.454351352327065","0.358754018486328","","","","","","","","",""
"27-037-0442","Benzene","44.73857","-93.00496","Rosemount","","AGRICULTURAL","","FHR 442","meanRos_ug_m3","No","Decreasing","Minnesota","Rosemount","Rural","Flint Hills Refinery 442","No","Benzene","0.490696654720606","0.44446494386545","0.435476008597216","0.425545214715551","0.384288715263036","0.331880116792218","0.399845168799035","0.478276526525745","0.397557076185303","0.369339420984236","0.360537223064235","","",""
"27-037-0443","Benzene","44.745662","-93.05541","ROSEMOUNT","","INDUSTRIAL","","FHR 443","meanRos_ug_m3","No","No Trend","Minnesota","Rosemount","Rural","Flint Hills Refinery 443","No","Benzene","","","","","","0.309217052503858","0.358420256267716","0.441507582262193","0.417288167849171","0.362397642461291","0.335159164059045","0.461714688730151","0.338122952255754",""
"27-037-0470","Benzene","44.73846","-93.23725","Apple Valley","","RESIDENTIAL","","Apple Valley","meanRos_ug_m3","Yes","Decreasing","Minnesota","Apple Valley","Suburban","Apple Valley","No","Benzene","0.705658001387939","0.658747604434546","0.618774477771746","0.648600588266328","0.505194899413147","0.373000200972366","0.473265636865438","0.569346537288692","0.473904311984239","0.429239178244557","0.408701282791426","0.586312359338693","0.443202204686733","0.417107051914646"
"27-041-2010","Benzene","45.883295","-95.380316","ALEXANDRIA","","RESIDENTIAL","","ALEXANDRIA (was 2001)","meanRos_ug_m3","No","Undetermined","Minnesota","Alexandria","Urban And Center City","Alexandria toxics site","No","Benzene","","","","","","","","","","","","","",""
"27-047-5401","Benzene","43.650235","-93.366599","ALBERT LEA","","COMMERCIAL","","ALBERT LEA","meanRos_ug_m3","No","Undetermined","Minnesota","Albert Lea","Urban And Center City","Albert Lea City Hall","No","Benzene","","","","","","","","","","","","","",""
"27-049-5356","Benzene","44.39762","-92.831439","LEON TOWNSHIP","","AGRICULTURAL","","LEON TOWNSHIP(Zumbrota)","meanRos_ug_m3","No","Undetermined","Minnesota","Not in a city","Rural","MPCA SITE 5356","No","Benzene","","","","","","","","","","","","","",""
"27-053-0050","Benzene","45.001229","-93.267117","Minneapolis","","COMMERCIAL","","NE Fire Station","meanRos_ug_m3","No","Undetermined","Minnesota","Minneapolis","Urban And Center City","Minneapolis Fire Station 2","No","Benzene","1.83529782534922","1.03760695880366","0.975161726062922","0.942068219917921","","","","","","","","","",""
"27-053-0053","Benzene","44.981076","-93.269669","Minneapolis","","COMMERCIAL","","Old Downtown Library","meanRos_ug_m3","No","Undetermined","Minnesota","Minneapolis","Urban And Center City","Minneapolis Central Library","No","Benzene","","","","","","","","","","","","","",""
"27-053-0260","Benzene","45.032742","-93.421064","MINNEAPOLIS","","RESIDENTIAL","","MINNEAPOLIS","meanRos_ug_m3","No","Undetermined","Minnesota","Minneapolis","Suburban","MPCA SITE 0260","No","Benzene","","","","","","","","","","","","","",""
"27-053-0958","Benzene","44.926076","-93.204666","MINNEAPOLIS","","RESIDENTIAL","","MINNEAPOLIS","meanRos_ug_m3","No","Undetermined","Minnesota","Minneapolis","Urban And Center City","MPCA SITE 0958 1997/1998 AIR TOXICS SITE","No","Benzene","","","","","","","","","","","","","",""
"27-053-0959","Benzene","45.003866","-93.236924","Minneapolis","","INDUSTRIAL","","MPCA SITE 0959 INTER PLASTICS","meanRos_ug_m3","No","Undetermined","Minnesota","Minneapolis","Urban And Center City","MPCA SITE 0959 INTER PLASTICS","No","Benzene","","","","","","","","","","","","","",""
"27-053-0960","Benzene","44.959409","-93.256892","MINNEAPOLIS","","RESIDENTIAL","","MINNEAPOLIS","meanRos_ug_m3","No","Undetermined","Minnesota","Minneapolis","Urban And Center City","Phillips Community Center","No","Benzene","","","","","","","","","","","","","",""
"27-053-0961","Benzene","44.87551","-93.25892","RICHFIELD","","RESIDENTIAL","","RICHFIELD INTERMEDIATE SCHOOL","meanRos_ug_m3","No","No Trend","Minnesota","Richfield","Suburban","Richfield Intermediate School","No","Benzene","","","","0.793517213377717","0.588751509976143","0.463719774866638","0.521514325581719","0.668353832118579","0.543925094335556","0.484742084246407","0.473315485784425","0.52990668156477","0.54535560343288","0.494589297030812"
"27-053-0962","Benzene","44.965242","-93.254759","Minneapolis","","RESIDENTIAL","","Minneapolis Near Roadway NOx","meanRos_ug_m3","No","Undetermined","Minnesota","Minneapolis","Urban And Center City","Near Road I-35/I-94","No","Benzene","","","","","","","","","","","","0.794979268742942","0.709013721333093","0.680976013425889"
"27-053-0963","Benzene","44.95366","-93.25821","Minneapolis","","RESIDENTIAL","","HC Anderson School","meanRos_ug_m3","Yes","Decreasing","Minnesota","Minneapolis","Urban And Center City","Andersen School","No","Benzene","1.07004659561798","1.02268651425134","0.994901853513634","0.985588904679045","1.31710962201141","0.555303276854663","0.801406044329673","0.794925118901657","0.60057387617271","0.58619337793927","0.6044318233849","0.676484602875766","0.59614775740387","0.594121551851539"
"27-053-0964","Benzene","44.888551","-93.195377","NOT IN A CITY","","COMMERCIAL","","MSP AIRPORT","meanRos_ug_m3","No","Undetermined","Minnesota","Not in a city","Suburban","MSP Airport","No","Benzene","0.828020234957781","","","","","","","","","","","","",""
"27-053-0965","Benzene","45.004478","-93.240046","Minneapolis","","RESIDENTIAL","","Putnam School","meanRos_ug_m3","No","Undetermined","Minnesota","Minneapolis","Urban And Center City","Putnam Elementary School","No","Benzene","1.03136552357944","1.03651990180272","0.740096851608144","0.832300141244082","","","","","","","","","",""
"27-053-0966","Benzene","44.97944","-93.26613","Minneapolis","","COMMERCIAL","","UATMP: MIMN; City of Lakes Bldg","meanRos_ug_m3","Yes","Decreasing","Minnesota","Minneapolis","Urban And Center City","City of Lakes Building","No","Benzene","1.14737761307552","1.03128979350453","0.959332826693826","0.851561802592018","0.787641915325889","0.587340279439157","0.681542649043689","0.717246639128876","0.593682096571237","0.569822165033472","0.55828656691703","0.643257353899277","0.556322799057091","0.594849912237506"
"27-053-0968","Benzene","44.893005","-93.233227","MINNEAPOLIS","","COMMERCIAL","","MSP Airport 968","meanRos_ug_m3","No","Undetermined","Minnesota","Minneapolis","Urban And Center City","Metropolitan Airports Commission","No","Benzene","","","0.644801729890094","0.651352700660058","","","","","","","","","",""
"27-053-0969","Benzene","44.90057","-93.23828","MINNEAPOLIS","","RESIDENTIAL","","WENONAH SCHOOL","meanRos_ug_m3","No","No Trend","Minnesota","Minneapolis","Suburban","Wenonah Elementary School","No","Benzene","","","0.683946341166922","0.775589418750927","0.576104110353864","0.480630635762131","0.542384966449111","","","","","","",""
"27-053-1007","Benzene","45.03972","-93.29874","Minneapolis","","RESIDENTIAL","","Humboldt Ave","meanRos_ug_m3","Yes","Decreasing","Minnesota","Minneapolis","Suburban","Humboldt Avenue","No","Benzene","1.01255843278951","0.946340316429927","0.77227539210405","0.845566398861187","0.660414949802663","0.545740609403992","0.636939412678528","0.799780587952169","0.577345038767403","0.587240309816155","0.568323848695805","0.720522728661014","0.540620858930567","0.623553676970551"
