"site_id","parameter_desc","latitude","longitude","city_name","location","land_use_type","setting","site_name","stat","used_in_nat_agg","trend","state_name","city_name","location_setting","local_site_name","natts","toxic_name_alias","2003","2004","2005","2006","2007","2008","2009","2010","2011","2012","2013","2014","2015","2016"
"02-020-0018","Ethylbenzene","61.205861","-149.824602","ANCHORAGE","","RESIDENTIAL","","UATMP: ANAK","meanRos_ug_m3","No","Undetermined","Alaska","Anchorage","Suburban","GARDEN/TRINITY CHRISTIAN CHURCH","No","Ethylbenzene","","","","","","","0.7560804675","","","","0.965344764344262","","",""
"04-013-4003","Ethylbenzene","33.40316","-112.07533","Phoenix","","RESIDENTIAL","","UATMP: SPAZ","meanRos_ug_m3","Yes","No Trend","Arizona","Phoenix","Urban And Center City","SOUTH PHOENIX","No","Ethylbenzene","","2.57404723852041","3.06503795444929","","","0.769277885828756","0.636763101206286","0.828452418103448","1.1613555","0.922080275","0.742488375","0.653285475","0.717354046875","0.805985625"
"04-013-4009","Ethylbenzene","33.40642","-112.14434","Phoenix","","INDUSTRIAL","","UATMP: MCAZ","meanRos_ug_m3","No","Undetermined","Arizona","Phoenix","Urban And Center City","WEST 43RD AVENUE","No","Ethylbenzene","1.68880575354097","","","","","","","","","","","","",""
"04-021-8001","Ethylbenzene","33.293465","-111.285594","QUEEN VALLEY","","DESERT","","UATMP: QVAZ, IMPROVE: QUVA1","meanRos_ug_m3","No","Undetermined","Arizona","Queen Valley","Rural","QUEEN VALLEY","No","Ethylbenzene","0.570270829837913","0.176790280800336","0.299541375","","","","","","","","","","",""
"06-001-0006","Ethylbenzene","37.710229","-122.116899","San Leandro","","RESIDENTIAL","","San Leandro","meanRos_ug_m3","No","No Trend","California","Castro Valley","Suburban","San Leandro","No","Ethylbenzene","0.411875695708967","0.33717202830151","0.333039894633047","0.338560957109279","0.342468725652938","","","","","","","","",""
"06-001-0007","Ethylbenzene","37.687526","-121.784217","LIVERMORE","","COMMERCIAL","","REPLACES OLD SITE 06-001-0003 THAT WAS LOCATED AT 2614 OLD 1ST. ST.","meanRos_ug_m3","Yes","Decreasing","California","Livermore","Urban And Center City","Livermore","No","Ethylbenzene","0.609293333674878","0.525505578670981","0.590669522283957","0.447442273443626","0.553351138682453","0.446000261530809","0.38470799327894","0.366458142705381","0.340455347890737","0.328554693976228","0.487455130232268","0.350700695129419","0.363578199465893","0.304300025298063"
"06-001-0008","Ethylbenzene","37.817118","-122.280454","OAKLAND","","RESIDENTIAL","","OAKLAND FILBERT ST","meanRos_ug_m3","No","No Trend","California","Oakland","Urban And Center City","Oakland - Filbert St.","No","Ethylbenzene","0.86729126155913","0.8076336774888","0.532878066777581","0.693329470513955","0.666319857641482","0.492225067672315","","","","","","","",""
"06-001-0009","Ethylbenzene","37.743065","-122.169935","Oakland","","RESIDENTIAL","","Oakland East","meanRos_ug_m3","No","No Trend","California","Oakland","Urban And Center City","Oakland","No","Ethylbenzene","","","","","","0.459489436636208","0.445572517890785","0.522168831022216","0.419402777035532","0.4729267","0.66055545","0.46088165","0.4779983","0.4914697375"
"06-001-0011","Ethylbenzene","37.814781","-122.282347","OAKLAND","","RESIDENTIAL","","Oakland-West","meanRos_ug_m3","No","No Trend","California","Oakland","Urban And Center City","Oakland West","No","Ethylbenzene","","","","","","","","0.487667879165459","0.519118163768575","0.4406903425","0.6333927375","0.434572725","0.633110673111038","0.591567375"
"06-001-0012","Ethylbenzene","37.793624","-122.263376","Oakland","","COMMERCIAL","","Laney College","meanRos_ug_m3","No","Undetermined","California","Oakland","Urban And Center City","Laney College","No","Ethylbenzene","","","","","","","","","","","","0.341653767857143","0.3854416","0.371934375"
"06-001-1001","Ethylbenzene","37.535833","-121.961823","Fremont","","RESIDENTIAL","","Fremont - Chapel Way","meanRos_ug_m3","No","Undetermined","California","Fremont","Suburban","Fremont - Chapel Way","No","Ethylbenzene","0.939395534977962","0.760293847747165","","0.769797005474204","","0.282794069890716","","","","","","","",""
"06-001-2004","Ethylbenzene","37.877794","-122.30129","Berkeley","","COMMERCIAL","","Berkeley 6th and Camelia","meanRos_ug_m3","No","Undetermined","California","Berkeley","Urban And Center City","Berkeley","No","Ethylbenzene","","","","","","0.541835247639251","0.334167108162268","0.432345689820465","","","","","",""
"06-001-2005","Ethylbenzene","37.689615","-121.631916","NOT IN A CITY","","AGRICULTURAL","","Patterson Pass","meanRos_ug_m3","No","Undetermined","California","Not in a city","Rural","Patterson Pass","No","Ethylbenzene","","","","","","","","","0.0892042652470597","0.0903983098558081","","","",""
"06-007-0002","Ethylbenzene","39.757371","-121.843286","Chico","","COMMERCIAL","","468 MANZANITA AVE, CHICO","meanRos_ug_m3","No","Undetermined","California","Not in a city","Suburban","Chico-Manzanita Ave.","No","Ethylbenzene","0.711868597260681","1.00580154420609","","","","","","0.524593625","","","","","",""
"06-007-0008","Ethylbenzene","39.761538","-121.84162","Chico","","COMMERCIAL","","Chico - East Avenue","meanRos_ug_m3","No","Undetermined","California","Chico","Suburban","Chico-East Avenue","No","Ethylbenzene","","","","","","","","","","","","0.4754625","0.492896125","0.4754625"
"06-013-0002","Ethylbenzene","37.936013","-122.026154","CONCORD","","RESIDENTIAL","","Concord","meanRos_ug_m3","Yes","Decreasing","California","Concord","Suburban","Concord","No","Ethylbenzene","0.615560325588197","0.49656794806654","0.305668363316865","0.33717202830151","0.299771967046765","0.263845804929302","0.226690234025254","0.229330883380986","0.23508326921376","0.1883148475","0.220648223570814","0.19462265","0.154477954195182","0.175354174559246"
"06-013-0003","Ethylbenzene","37.949924","-122.357193","RICHMOND","","COMMERCIAL","","Richmond-13th St.","meanRos_ug_m3","No","Undetermined","California","Richmond","Suburban","Richmond-13th St.","No","Ethylbenzene","","","","","","","","","","","","","",""
"06-013-0006","Ethylbenzene","37.948172","-122.364852","Richmond","","INDUSTRIAL","","Richmond - 7th St","meanRos_ug_m3","Yes","Decreasing","California","Richmond","Urban And Center City","Richmond - 7th St.","No","Ethylbenzene","0.567547453050375","0.572969570503015","0.472251192586335","0.4470619057346","0.458558008993795","0.470910763219346","0.339099055677672","0.389744450969774","0.353188325766895","0.311116427586207","0.57836843375","0.2724400125","0.281502759278449","0.285786924107143"
"06-013-1001","Ethylbenzene","38.05492","-122.233229","CROCKETT","","INDUSTRIAL","","Crockett - Kendall Ave","meanRos_ug_m3","No","Decreasing","California","Crockett","Suburban","Crockett - Kendall Ave","No","Ethylbenzene","","","","","","0.205220625032161","","0.192729110105744","","0.119866234640711","0.166668863783827","0.109885946092924","0.10074969955284","0.111551574924749"
"06-013-1002","Ethylbenzene","38.006311","-121.641918","BETHEL ISLAND","","AGRICULTURAL","","Bethel Island","meanRos_ug_m3","No","No Trend","California","Bethel Island","Rural","Bethel Island","No","Ethylbenzene","0.294049643824642","0.4754625","","","","0.1335825209546","","","","0.127328837747828","","0.130036958489345","0.116593638233525","0.144969406744025"
"06-013-1003","Ethylbenzene","37.9642","-122.3403","SAN PABLO","","COMMERCIAL","","San Pablo - El Portal Center","meanRos_ug_m3","No","Undetermined","California","San Pablo","Urban And Center City","San Pablo - El Portal Center","No","Ethylbenzene","","","","","","","","","","","","","",""
"06-013-1004","Ethylbenzene","37.9604","-122.356811","SAN PABLO","","COMMERCIAL","","SAN PABLO RUMRILL","meanRos_ug_m3","Yes","Decreasing","California","San Pablo","Urban And Center City","San Pablo","No","Ethylbenzene","0.669946202238019","0.656143002106545","0.591620106659714","0.52057989638416","0.58873304703327","0.541234415704788","","","0.28203564211039","0.3136467625","0.3996185625","0.320461725","0.548904111962372","0.4312444875"
"06-013-2001","Ethylbenzene","38.012816","-122.134467","MARTINEZ","","RESIDENTIAL","","Martinez - Jones St.","meanRos_ug_m3","Yes","Decreasing","California","Martinez","Urban And Center City","Martinez - Jones St.","No","Ethylbenzene","0.465407242976363","0.44312206551296","0.46404895487876","0.338560957109279","0.392410615273065","0.351935395657769","0.254561430408124","0.243456765097189","0.204458228522354","0.19531239392709","0.262913693047926","0.200326427063051","0.190941490892329","0.2271125875"
"06-013-3001","Ethylbenzene","38.029258","-121.896866","PITTSBURG","","RESIDENTIAL","","Pittsburg - W 10th St.","meanRos_ug_m3","No","No Trend","California","Pittsburg","Urban And Center City","Pittsburg - W 10th St.","No","Ethylbenzene","0.818522024515271","0.768240878418549","0.714758519853657","0.535486556464662","1.07280334044289","","","","","","","","",""
"06-019-0008","Ethylbenzene","36.781333","-119.77319","Fresno","","RESIDENTIAL","","PM Supersite: Fresno","meanRos_ug_m3","No","Decreasing","California","Fresno","Suburban","3425 N FIRST ST, FRESNO","No","Ethylbenzene","1.1113265922054","0.686447061302434","0.802362655792244","","0.749143146732029","0.703854971221796","0.640268256768732","0.607007125","","","","","",""
"06-019-0011","Ethylbenzene","36.785322","-119.774174","Fresno","","COMMERCIAL","","Fresno - Garland","meanRos_ug_m3","No","Undetermined","California","Fresno","Urban And Center City","Fresno - Garland","No","Ethylbenzene","","","","","","","","","","","","0.5895735","0.537272625","0.5306775"
"06-019-3002","Ethylbenzene","36.607171","-119.540683","PARLIER","","AGRICULTURAL","","PARLIER","meanRos_ug_m3","No","Undetermined","California","Parlier","Urban And Center City","PARLIER","No","Ethylbenzene","","","","","","","","","","","","","",""
"06-025-0005","Ethylbenzene","32.676186","-115.484144","Calexico","","RESIDENTIAL","","CALEXICO HIGH SCHOOL  ARB (#1300698)","meanRos_ug_m3","Yes","Decreasing","California","Calexico","Suburban","Calexico-Ethel Street","No","Ethylbenzene","1.75599501968654","1.5469797575776","1.50948947124467","1.4597157960494","1.42111510656694","0.854564288313057","0.732826903773665","1.05852967105263","0.873897979060572","1.64773938412461","0.843643662429919","1.028583875","0.786098","1.04929655172414"
"06-029-0004","Ethylbenzene","35.374959","-119.022602","BAKERSFIELD","","RESIDENTIAL","","Bakersfield-Chester Ave.","meanRos_ug_m3","No","Undetermined","California","Bakersfield","Urban And Center City","Bakersfield-Chester Ave.","No","Ethylbenzene","","","","","","","","","","","","","",""
"06-029-0009","Ethylbenzene","35.36107","-119.060103","BAKERSFIELD","","COMMERCIAL","","BAKERSFIELD","meanRos_ug_m3","No","Undetermined","California","Bakersfield","Urban And Center City","BAKERSFIELD","No","Ethylbenzene","","","","","","","","","","","","","",""
"06-029-0014","Ethylbenzene","35.356601","-119.063542","Bakersfield","","MOBILE","","Bakersfield-California Avenue","meanRos_ug_m3","No","No Trend","California","Bakersfield","Urban And Center City","Bakersfield-California","No","Ethylbenzene","0.692946613104297","","","","","0.717050058777157","","0.5515365","","","","","0.5428196875","0.52607625"
"06-037-0002","Ethylbenzene","34.1365","-117.92391","Azusa","","RESIDENTIAL","","Azusa","meanRos_ug_m3","Yes","Decreasing","California","Azusa","Suburban","Azusa","No","Ethylbenzene","1.29124010187729","1.2089218647541","1.218478839703","0.864722850914821","0.640218050717213","1.21088800520637","0.690925525105148","0.660459720603814","0.55524347475604","0.606598125","0.507510902372375","0.58075903875","0.5003252265625","0.698929875"
"06-037-1002","Ethylbenzene","34.17605","-118.31712","BURBANK","","COMMERCIAL","","MATES: Burbank","meanRos_ug_m3","No","Decreasing","California","Burbank","Urban And Center City","Burbank","No","Ethylbenzene","1.991574375","1.83082694056605","1.96598589467899","1.46196701481692","0.927435757459651","3.38004486399327","1.56231121360278","1.41644901302083","0.901039230079626","0.770490477967116","0.863613620597755","","",""
"06-037-1302","Ethylbenzene","33.901389","-118.205","COMPTON","","RESIDENTIAL","","MATES: Compton","meanRos_ug_m3","No","Undetermined","California","Compton","Urban And Center City","Compton","No","Ethylbenzene","","1.69740112868417","1.99271168684471","","","","","","","","","","",""
"06-037-1601","Ethylbenzene","34.01407","-118.06056","Pico Rivera","","COMMERCIAL","","MATES: Pico Rivera","meanRos_ug_m3","No","Undetermined","California","Pico Rivera","Suburban","MATES: Pico Rivera","No","Ethylbenzene","1.687891875","1.44426902654504","","","","","","","","","","","",""
"06-037-1602","Ethylbenzene","34.01194","-118.06995","PICO RIVERA","","COMMERCIAL","","Pico Rivera #2","meanRos_ug_m3","No","Decreasing","California","Pico Rivera","Suburban","Pico Rivera #2","No","Ethylbenzene","","","","1.30622515909091","0.668984078947368","0.869149852430556","0.945371442110656","0.805845259486607","0.602461036184211","0.647393136160714","0.6647560078125","0.625908516796875","0.532778950340307",""
"06-037-4002","Ethylbenzene","33.82376","-118.18921","Long Beach","","RESIDENTIAL","","UATMP: LBHCA; MATES: North Long Beach","meanRos_ug_m3","No","Decreasing","California","Long Beach","Suburban","Long Beach (North)","No","Ethylbenzene","1.19491296171819","0.985146032730484","0.998343575081804","","0.655864268149521","0.679027236239551","1.13201612631462","0.656503990384615","0.733655400291512","0.447513968566053","0.46302281258089","","",""
"06-037-5001","Ethylbenzene","33.92288","-118.37026","Hawthorne","","COMMERCIAL","","Hawthorne","meanRos_ug_m3","No","Undetermined","California","Hawthorne","Urban And Center City","Hawthorne","No","Ethylbenzene","1.172839453125","","","","","","","","","","","","",""
"06-037-5005","Ethylbenzene","33.9508","-118.43043","LOS ANGELES","","RESIDENTIAL","","LAX Hastings","meanRos_ug_m3","Yes","Decreasing","California","Los Angeles","Suburban","LAX Hastings","No","Ethylbenzene","","0.660395297965116","0.822779514802632","0.536941360143443","0.252508155302566","0.337236186079545","0.407510984375","0.395066113636364","0.250168116319444","0.2719051171875","","0.310197574013158","0.310386810103666",""
"06-037-6012","Ethylbenzene","34.38344","-118.5284","Santa Clarita","","COMMERCIAL","","Santa Clarita","meanRos_ug_m3","Yes","Decreasing","California","Santa Clarita","Suburban","Santa Clarita","No","Ethylbenzene","0.864110641741071","1.00003014344262","1.18104467927632","0.68990777920082","0.387303828125","0.484155657649254","0.583348164724576","0.468622119693396","0.357743824013158","0.410620132392418","","0.381244891988147","0.321165775240385",""
"06-037-L0HP","Ethylbenzene","33.98325","-118.2307","Huntington Park","","","","MATES: Huntington Park","meanRos_ug_m3","No","Undetermined","California","Huntington Park","","MATES: Huntington Park","No","Ethylbenzene","","1.58462735466124","","","","","","","","","","","",""
"06-037-LWLB","Ethylbenzene","33.79242","-118.2159","Long Beach","","","","MATES: West Long Beach","meanRos_ug_m3","No","Undetermined","California","Long Beach","","MATES: West Long Beach","No","Ethylbenzene","","1.12852423256723","1.18112810284825","","","","","","","","","","",""
"06-041-0001","Ethylbenzene","37.97231","-122.520004","SAN RAFAEL","","COMMERCIAL","","San Rafael","meanRos_ug_m3","Yes","Decreasing","California","San Rafael","Urban And Center City","San Rafael","No","Ethylbenzene","0.52898631419382","0.515963652111258","0.368172011590026","0.425697968156154","0.569358488437248","0.366341521207448","0.358591949757629","0.237218609345503","0.219728396655829","0.2267322175","0.30188699","0.224348357934801","0.212279567617143","0.22053288498835"
"06-041-0004","Ethylbenzene","37.832725","-122.527658","NOT IN A CITY","","FOREST","","FORT CRONKHITE","meanRos_ug_m3","No","No Trend","California","Not in a city","Rural","Ft. Cronkhite","No","Ethylbenzene","","","","","","0.362906039685404","","","","0.0582791984556547","0.0895062688319871","0.113310156565413","0.0534968780123679","0.0483932049675492"
"06-055-0003","Ethylbenzene","38.310942","-122.296189","NAPA","","COMMERCIAL","","Napa - Jefferson St.","meanRos_ug_m3","Yes","Decreasing","California","Napa","Urban And Center City","Napa","No","Ethylbenzene","0.74819835454135","0.722208249645456","0.544492733634078","0.57300843688215","0.75560302069502","0.542942438769257","0.470797373772154","0.403678647693795","0.279508222832131","0.353149771875","0.481626531696429","0.366925887931034","0.335421686428247","0.347579482758621"
"06-059-0001","Ethylbenzene","33.821353","-117.91427","Anaheim","","RESIDENTIAL","","MATES: Anaheim","meanRos_ug_m3","No","Undetermined","California","Anaheim","Suburban","Anaheim (1010 Harbor Blvd)","No","Ethylbenzene","","0.854361995308153","1.011587458793","","","","","","","","","","",""
"06-061-0006","Ethylbenzene","38.745726","-121.266312","Roseville","","MOBILE","","Roseville-N Sunrise Blvd","meanRos_ug_m3","No","Undetermined","California","Roseville","Suburban","Roseville-N Sunrise Ave","No","Ethylbenzene","","","","","","","","0.4754625","","","","0.4754625","0.4754625","0.4754625"
"06-065-0012","Ethylbenzene","33.92086","-116.85841","Banning","","COMMERCIAL","","Banning Airport","meanRos_ug_m3","No","Decreasing","California","Banning","Suburban","Banning Airport","No","Ethylbenzene","0.372416491268382","0.34535910554909","0.300574141905738","0.273129896926283","0.198256882990214","0.143458512931034","","","","","","","",""
"06-065-3011","Ethylbenzene","33.796533","-116.974417","San Jacinto","","RESIDENTIAL","","PILOT CITY: San Jacinto","meanRos_ug_m3","No","Undetermined","California","San Jacinto","Rural","SAN JACINTO TOXICS SITE #1 MOUNTAIN VIEW HIGH SCHOOL","No","Ethylbenzene","","","","","","","","","","","","","",""
"06-071-1004","Ethylbenzene","34.10374","-117.62914","Upland","","RESIDENTIAL","","Upland","meanRos_ug_m3","No","No Trend","California","Upland","Urban And Center City","Upland","No","Ethylbenzene","1.41589935661765","1.39779826778017","1.45571418288934","0.954613933189655","0.623265084528688","0.6395961171875","","","","","","","",""
"06-071-2002","Ethylbenzene","34.10002","-117.49201","Fontana","","INDUSTRIAL","","MATES: Inland Valley San Bernardino","meanRos_ug_m3","No","Undetermined","California","Fontana","Suburban","Fontana","No","Ethylbenzene","","1.13323355016799","1.11619103395911","","","","","","","","","","",""
"06-073-0001","Ethylbenzene","32.631231","-117.059075","Chula Vista","","RESIDENTIAL","","Chula Vista","meanRos_ug_m3","No","No Trend","California","Chula Vista","Suburban","Chula Vista","No","Ethylbenzene","0.893965876993314","","","","","","","0.534102875","","","","0.4754625","0.4754625","0.504973965517241"
"06-073-0003","Ethylbenzene","32.791194","-116.942092","El Cajon","","COMMERCIAL","","El Cajon","meanRos_ug_m3","No","Decreasing","California","El Cajon","Suburban","El Cajon","No","Ethylbenzene","1.02813108439653","0.985606253936522","0.956357560339838","0.674242948585576","0.826189570711875","","0.865546537648925","0.624401128125","0.489669444383382","0.505434593281719","0.497574496894049","","",""
"06-073-1002","Ethylbenzene","33.127711","-117.075325","ESCONDIDO","","COMMERCIAL","","Escondido","meanRos_ug_m3","No","No Trend","California","Escondido","Urban And Center City","Escondido","No","Ethylbenzene","","","","","","","0.747411461065574","0.59182993220339","0.4876660375","0.5046242","0.57328306352459","0.433294432377049","",""
"06-073-1006","Ethylbenzene","32.842242","-116.768225","Alpine","","RESIDENTIAL","","Alpine","meanRos_ug_m3","No","Undetermined","California","Alpine","Suburban","Alpine","No","Ethylbenzene","","","","","","","","","","","","0.124515115649098","",""
"06-073-1008","Ethylbenzene","33.217025","-117.396158","Camp Pendleton","","RESIDENTIAL","","CAMP PENDLETON","meanRos_ug_m3","No","Undetermined","California","Camp Pendleton South","Suburban","Camp Pendleton","No","Ethylbenzene","","","","","","","","","","","","0.194361359797297","",""
"06-073-1010","Ethylbenzene","32.701492","-117.149653","SAN DIEGO","","COMMERCIAL","","Downtown","meanRos_ug_m3","No","Decreasing","California","San Diego","Urban And Center City","San Diego - Beardsley Street","No","Ethylbenzene","","","","","","","0.587961762711864","0.504169669811321","0.477567006147541","0.5122316","0.451125266949153","0.3681664625","0.317803458857294",""
"06-073-1014","Ethylbenzene","32.579361","-116.929486","Otay Mesa","","COMMERCIAL","","Donovan","meanRos_ug_m3","No","Undetermined","California","Otay Mesa","Rural","Donovan","No","Ethylbenzene","","","","","","","","","","","","","0.396795069718768",""
"06-073-1018","Ethylbenzene","32.817978","-116.968133","El Cajon","","COMMERCIAL","","El Cajon - Floyd Smith Drive","meanRos_ug_m3","No","Undetermined","California","El Cajon","Suburban","El Cajon - Floyd Smith Dr.","No","Ethylbenzene","","","","","","","","","","","","","0.480888974184783",""
"06-073-2007","Ethylbenzene","32.552164","-116.937772","SAN DIEGO","","MOBILE","","Otay Mesa","meanRos_ug_m3","No","No Trend","California","San Diego","Rural","Otay Mesa","No","Ethylbenzene","","","","","","","1.16449340163934","0.995669417410714","1.065036","0.975087848360656","1.10751584631148","","",""
"06-075-0005","Ethylbenzene","37.765946","-122.399044","San Francisco","","INDUSTRIAL","","San Francisco - Arkansas St.","meanRos_ug_m3","Yes","Decreasing","California","San Francisco","Urban And Center City","San Francisco","No","Ethylbenzene","0.736258684942568","0.629976220701201","0.447070810545649","0.553388011147306","0.552055981498725","0.395487726560634","0.384759046584418","0.557529764278906","0.339601831817803","0.318579388772706","0.403831138787626","0.418750389583333","0.403218614583333","0.414025286764706"
"06-077-1002","Ethylbenzene","37.950741","-121.268523","Stockton","","RESIDENTIAL","","HAZELTON-HD, STOCKTON","meanRos_ug_m3","No","No Trend","California","Stockton","Urban And Center City","Stockton-Hazelton","No","Ethylbenzene","0.909628090424738","0.605275449430601","","","","","","0.521423875","","","0.680926028189105","0.52300875","0.5895735","0.4754625"
"06-081-1001","Ethylbenzene","37.482934","-122.20337","REDWOOD CITY","","INDUSTRIAL","","Redwood City","meanRos_ug_m3","Yes","No Trend","California","Redwood City","Suburban","Redwood City","No","Ethylbenzene","1.086970315847","0.787362602637425","0.704131922163586","0.738268884654032","0.83282054730887","0.747017220098007","0.645238546957283","0.862740708256348","0.885440141250078","0.885343965517241","0.98916803375","0.921718017857143","0.570227094827586","0.5561326375"
"06-083-0010","Ethylbenzene","34.421386","-119.702079","SANTA BARBARA","","MOBILE","","Santa Barbara-W. Carrillo St.","meanRos_ug_m3","No","Undetermined","California","Santa Barbara","Urban And Center City","Santa Barbara-W. Carrillo St.","No","Ethylbenzene","","","","","","","","","","","","","",""
"06-085-0004","Ethylbenzene","37.339666","-121.888575","San Jose","","RESIDENTIAL","","San Jose - 4th St.","meanRos_ug_m3","No","Undetermined","California","San Jose","Urban And Center City","San Jose - 4th St.","No","Ethylbenzene","","","","","","","","","","","","","",""
"06-085-0006","Ethylbenzene","37.338135","-121.849783","San Jose","","MOBILE","","San Jose Knox Ave.","meanRos_ug_m3","No","Undetermined","California","San Jose","Urban And Center City","San Jose - Knox Avenue","No","Ethylbenzene","","","","","","","","","","","","","0.603309083333333","0.741568125"
"06-085-2007","Ethylbenzene","37.355475","-122.050845","SUNNYVALE","","RESIDENTIAL","","LOCATED NEAR TICONDEROGA & MARY STREETS IN SUNNAYVALE.","meanRos_ug_m3","No","Decreasing","California","Sunnyvale","Urban And Center City","Sunnyvale - Ticonderoga","No","Ethylbenzene","0.565007244888554","0.48129039485892","0.394497097984302","0.400259034518949","0.321907892599279","0.303299191515929","","","","","","","",""
"06-085-2008","Ethylbenzene","37.402244","-122.066597","MOUNTAIN VIEW","","RESIDENTIAL","","MT VIEW-WHISMAN PARK","meanRos_ug_m3","No","Undetermined","California","Mountain View","Suburban","MT VIEW-WHISMAN PARK","No","Ethylbenzene","","","0.54309934495138","","","","","","","","","","",""
"06-085-2009","Ethylbenzene","37.318435","-122.069705","CUPERTINO","","RESIDENTIAL","","Cupertino Monta Vista","meanRos_ug_m3","No","Undetermined","California","Cupertino","Suburban","Cupertino Monta Vista","No","Ethylbenzene","","","","","","","","","0.16384453217582","0.183419200854655","0.19792141537145","","",""
"06-095-0004","Ethylbenzene","38.102507","-122.237976","VALLEJO","","COMMERCIAL","","Vallejo - Tuolumne St.","meanRos_ug_m3","Yes","Decreasing","California","Vallejo","Urban And Center City","Vallejo","No","Ethylbenzene","0.825646577058844","0.681403466071392","0.48567161609443","0.487291203375206","0.859236463184389","0.389488087867717","0.293854508076865","0.365452421275691","0.354987878005841","0.279419230876875","0.51501079259464","0.282263739087558","0.290090740427342","0.355063125"
"06-095-0006","Ethylbenzene","38.0656","-122.1507","Benicia","","RESIDENTIAL","","Benicia - VIP","meanRos_ug_m3","No","Undetermined","California","Benicia","Suburban","Benicia - VIP","No","Ethylbenzene","","","","","","0.166981151659224","","","","","","","",""
"06-097-0003","Ethylbenzene","38.443503","-122.710169","SANTA ROSA","","COMMERCIAL","","Santa Rosa - 5th St","meanRos_ug_m3","No","Decreasing","California","Santa Rosa","Urban And Center City","Santa Rosa - 5th St","No","Ethylbenzene","0.524190412665119","0.52898631419382","0.368172011590026","0.359947217324865","0.375116429904979","0.348484943856331","0.312595229326529","0.28474417002655","0.280796981214299","0.28992685015286","0.313907134821429","","",""
"06-097-0004","Ethylbenzene","38.403765","-122.818294","Sebastopol","","COMMERCIAL","","Sebastopol","meanRos_ug_m3","No","Undetermined","California","Sebastopol","Urban And Center City","Sebastopol","No","Ethylbenzene","","","","","","","","","","","","0.238478020664373","0.172454736905644","0.331443375"
"06-099-0005","Ethylbenzene","37.641583","-120.994622","MODESTO","","COMMERCIAL","","Modesto-14th Street","meanRos_ug_m3","No","Undetermined","California","Modesto","Urban And Center City","Modesto-14th Street","No","Ethylbenzene","","","","","","","","","","","","","",""
"06-111-2002","Ethylbenzene","34.276362","-118.683757","Simi Valley","","RESIDENTIAL","","SIMI VALLEY","meanRos_ug_m3","No","Undetermined","California","Simi Valley","Suburban","Simi Valley-Cochran Street","No","Ethylbenzene","","","","","","","","0.4754625","","","","0.4754625","0.4754625","0.4754625"
"08-013-7001","Ethylbenzene","40.013783","-105.25405","Boulder","","COMMERCIAL","","Boulder Fire Station","meanRos_ug_m3","No","Undetermined","Colorado","Boulder","Rural","Boulder Fire Station","No","Ethylbenzene","","","","","1.01456410387686","","","","","","","","",""
"08-013-7002","Ethylbenzene","40.1489","-105.059233","NOT IN A CITY","","RESIDENTIAL","","Longmont","meanRos_ug_m3","No","Undetermined","Colorado","Not in a city","Suburban","Longmont","No","Ethylbenzene","","","","","0.404508286574115","","","","","","","","",""
"08-013-7003","Ethylbenzene","40.204183","-105.248233","NOT IN A CITY","","RESIDENTIAL","","Lyons","meanRos_ug_m3","No","Undetermined","Colorado","Not in a city","Suburban","Lyons","No","Ethylbenzene","","","","","0.320684281914894","","","","","","","","",""
"08-013-7004","Ethylbenzene","40.03625","-105.543383","NOT IN A CITY","","FOREST","","Niwot Ridge; NADP: CO90","meanRos_ug_m3","No","Undetermined","Colorado","Not in a city","Rural","Niwot Ridge","No","Ethylbenzene","","","","","0.25912870557993","","","","","","","","",""
"08-013-7005","Ethylbenzene","39.9572","-105.23847","NOT IN A CITY","","AGRICULTURAL","","ALONG SOUTH BOULDER CREEK NEXT TO LAFAYETTE WATER TREATMENT PLANT","meanRos_ug_m3","No","Undetermined","Colorado","Not in a city","Rural","ALONG SOUTH BOULDER CREEK NEXT TO LAFAYETTE WATER TREATMENT PLANT","No","Ethylbenzene","","","","","0.314654724711111","","","","","","","","",""
"08-031-0002","Ethylbenzene","39.751184","-104.987625","Denver","","COMMERCIAL","","UATMP: DECO","meanRos_ug_m3","No","Undetermined","Colorado","Denver","Urban And Center City","DENVER - CAMP","No","Ethylbenzene","","","","","","","","","","","","","",""
"08-045-0005","Ethylbenzene","39.453654","-108.053259","PARACHUTE","","RESIDENTIAL","","UATMP: PACO; PARACHUTE - HIGH SCHOOL","meanRos_ug_m3","No","Decreasing","Colorado","Parachute","Urban And Center City","PARACHUTE - HIGH SCHOOL","No","Ethylbenzene","","","","","","0.643803423066737","0.486198305083583","1.07523692497306","0.345702728331368","0.181112897412503","0.251343649939904","0.202519243023721","0.173331685276755","0.188556100694444"
"08-045-0007","Ethylbenzene","39.531813","-107.782298","RIFLE","","COMMERCIAL","","UATMP: RICO; RIFLE - HENRY BLDG","meanRos_ug_m3","No","No Trend","Colorado","Rifle","Urban And Center City","RIFLE - HENRY BLDG","No","Ethylbenzene","","","","","","0.523330677734375","0.608465339907787","1.04444253046875","0.381956743956368","0.28675341484375","0.384394748355263","0.348298743641923","","0.31798471875"
"08-045-0009","Ethylbenzene","39.487755","-107.659685","SILT","","AGRICULTURAL","","UATMP: BRCO","meanRos_ug_m3","No","Decreasing","Colorado","Silt","Rural","UATMP: BRCO","No","Ethylbenzene","","","","","","0.286638106508254","0.26427790625","0.505768362832992","0.172112868375273","0.0874929291534103","0.130080889047519","0.0835398785833858","0.0622229550137122","0.0628518236306377"
"08-045-0018","Ethylbenzene","39.412278","-107.230397","NOT IN A CITY","","RESIDENTIAL","","UATMP: RFCO; CMC Boat House","meanRos_ug_m3","No","Undetermined","Colorado","Carbondale","Rural","Carbondale Rocky Mountain School (Boathouse)","No","Ethylbenzene","","","","","","","","","","","0.135934692255275","0.121424230051112","0.130923628305288","0.109586380055193"
"08-045-0019","Ethylbenzene","39.43806","-108.02611","Battlement Mesa","","COMMERCIAL","","Battlement Mesa","meanRos_ug_m3","No","Decreasing","Colorado","Battlement Mesa","Suburban","Battlement Mesa","No","Ethylbenzene","","","","","","","","","0.400035268841912","0.210162274616745","0.15401983375627","0.118565929281839","","0.104444342415931"
"08-045-0020","Ethylbenzene","39.5464","-107.3286","Glenwood Springs","","COMMERCIAL","","Vogelaar Park, Glenwood Springs","meanRos_ug_m3","No","Undetermined","Colorado","Glenwood Springs","Suburban","Vogelaar Park, Glenwood Springs","No","Ethylbenzene","","","","","","","","","","","","","0.176357263777465",""
"10-001-0002","Ethylbenzene","38.986672","-75.5568","NOT IN A CITY","","AGRICULTURAL","","PROPERTY OF KILLENS POND STATE PARK; BEHIND FARM BUILDINGS","meanRos_ug_m3","No","Undetermined","Delaware","Not in a city","Rural","PROPERTY OF KILLENS POND STATE PARK; BEHIND FARM BUILDINGS","No","Ethylbenzene","0.107180529661017","0.102023038747761","0.0879399309757822","","","","","","","","","","",""
"10-003-1007","Ethylbenzene","39.5513","-75.732","NOT IN A CITY","","AGRICULTURAL","","PAMS: Lums Pond; NADP: DE99","meanRos_ug_m3","No","Undetermined","Delaware","Not in a city","Rural","Lums Pond","No","Ethylbenzene","0.15001661637931","0.156574719827586","0.155605909090909","","","","","","","","","","",""
"10-003-1008","Ethylbenzene","39.57768","-75.6036","DELAWARE CITY","","AGRICULTURAL","","","meanRos_ug_m3","Yes","Decreasing","Delaware","Delaware City","Rural","Route 9 Delaware City","No","Ethylbenzene","0.291440902777778","0.190185","0.180078707802209","0.188625215444869","0.149953557692308","0.218203325892857","0.160792772727273","","0.091613506097561","0.131703023230581","0.13503135","0.135323942307692","",""
"10-003-2004","Ethylbenzene","39.739444","-75.558056","Wilmington","","COMMERCIAL","","CORNER OF MLK BLVD AND JUSTISON ST, NO TRAFFIC DATA AVAILABLE","meanRos_ug_m3","Yes","No Trend","Delaware","Wilmington","Urban And Center City","MLK  CORNER OF MLK BLVD AND JUSTISON ST","No","Ethylbenzene","0.722211142241379","0.41523725","0.415445102459016","0.631217456896552","0.43959427631579","0.347004210526316","0.260295572033898","0.225369225","0.239460204545455","0.351313958333333","","0.279438486842105","0.619862222222222",""
"10-005-1002","Ethylbenzene","38.6539","-75.6106","Seaford","","RESIDENTIAL","","Seaford Shipley State Service Center","meanRos_ug_m3","No","Undetermined","Delaware","Seaford","Suburban","Seaford Shipley State Service Center","No","Ethylbenzene","0.164326513157895","0.166022151639344","0.122735668604651","","","","","","","","","","",""
"11-001-0025","Ethylbenzene","38.583226","-77.1219","Washington","","COMMERCIAL","","UATMP: W1DC","meanRos_ug_m3","No","Undetermined","District Of Columbia","Washington","Urban And Center City","TAKOMA SCHOOL","No","Ethylbenzene","","","","","","","","","","","","","",""
"11-001-0039","Ethylbenzene","38.864279","-76.991642","Washington","","COMMERCIAL","","UATMP: W2DC","meanRos_ug_m3","No","Undetermined","District Of Columbia","Washington","Urban And Center City","UATMP: W2DC","No","Ethylbenzene","","","","","","","","","","","","","",""
"12-011-0010","Ethylbenzene","26.128611","-80.167222","FORT LAUDERDALE","","RESIDENTIAL","","SITE # 28","meanRos_ug_m3","No","No Trend","Florida","Fort Lauderdale","Suburban","SITE # 28","No","Ethylbenzene","","","","","","","","0.747894022098214","0.747090947198276","0.465699292423427","0.585342689618644","","0.375668204166667",""
"12-011-1002","Ethylbenzene","26.083143","-80.237586","Davie","","COMMERCIAL","","UATMP: FLFL","meanRos_ug_m3","No","No Trend","Florida","Davie","Suburban","U of F Ag Research Center","No","Ethylbenzene","","0.287556171452272","0.421475894318182","0.359684963644068","0.41539480846316","0.424162598684211","0.418743458366869","0.371897414139344","0.4947662775","0.302560561875","0.311400720975995","","",""
"12-011-2004","Ethylbenzene","26.217582","-80.127545","Pompano Beach","","COMMERCIAL","","UATMP: FLFL(2)","meanRos_ug_m3","No","Undetermined","Florida","Pompano Beach","Suburban","UATMP: FLFL(2)","No","Ethylbenzene","","","","0.463246085390625","0.477863034201346","","","","","","","","",""
"12-011-3002","Ethylbenzene","26.001202","-80.160324","Holleywood","","COMMERCIAL","","SITE #18","meanRos_ug_m3","No","Undetermined","Florida","Hollywood","Suburban","SITE #18","No","Ethylbenzene","","0.479939060291131","","0.441293429144737","0.624341178254759","","","","","","","","",""
"12-011-5005","Ethylbenzene","26.294167","-80.176389","Coconut Creek","","RESIDENTIAL","","UATMP: CCFL; SITE #30","meanRos_ug_m3","No","Increasing","Florida","Coconut Creek","Suburban","Coconut Creek","No","Ethylbenzene","0.330120409315504","0.319678926070717","0.441103606132075","0.352168515646552","0.377376368102206","0.463742766447368","0.400935914318182","0.478342705528846","0.644896382415254","","","","",""
"12-011-8002","Ethylbenzene","26.088421","-80.111193","J.U.Lloyd State Park","","RESIDENTIAL","","SITE # 25","meanRos_ug_m3","No","Undetermined","Florida","Dania","Suburban","Dr. Von Mizell-Eula Johnson State Park (prev. John U Lloyd State Park)","No","Ethylbenzene","","","","","","","","1.11016905353774","13.7927583940789","18.4348239032895","0.556457259351095","","",""
"12-031-0032","Ethylbenzene","30.356339","-81.635396","Jacksonville","","COMMERCIAL","","UATMP: JAFL","meanRos_ug_m3","No","Undetermined","Florida","Jacksonville","Suburban","Kooker Park","No","Ethylbenzene","","","4.86234387328714","5.16080582142857","","","","","","","","","",""
"12-031-0084","Ethylbenzene","30.320507","-81.68762","Jacksonville","","MOBILE","","","meanRos_ug_m3","No","Undetermined","Florida","Jacksonville","Suburban","Rosselle","No","Ethylbenzene","","","5.21720533681963","","","","","","","","","","",""
"12-057-0081","Ethylbenzene","27.740033","-82.465146","Tampa","","FOREST","","UATMP: SMFL; PILOT CITY:  Simmons Park","meanRos_ug_m3","No","Undetermined","Florida","Ruskin","Rural","Simmons Park","No","Ethylbenzene","","","","","","","","","","","","","",""
"12-057-1065","Ethylbenzene","27.892523","-82.538429","Tampa","","COMMERCIAL","","UATMP: GAFL; NADP: FL18; PILOT CITY: Gandy","meanRos_ug_m3","No","No Trend","Florida","Tampa","Suburban","USMC Reserve Center (Gandy)","No","Ethylbenzene","0.336047224576271","","0.242566461864407","0.285875466617396","0.253246342105263","0.324672964285714","","","","","","","",""
"12-057-1075","Ethylbenzene","28.050296","-82.377871","Tampa","","RESIDENTIAL","","UATMP: LEFL; PILOT CITY: Lewis","meanRos_ug_m3","No","Undetermined","Florida","Tampa","Urban And Center City","WHITEWAY DRIVE TAMPA","No","Ethylbenzene","0.343861272321429","","","","","","","","","","","","",""
"12-073-0012","Ethylbenzene","30.439722","-84.346389","TALLAHASSEE","","COMMERCIAL","","Tallahassee Community College","meanRos_ug_m3","No","No Trend","Florida","Tallahassee","Suburban","Tallahassee Community College","No","Ethylbenzene","","","","","0.37883625","0.39237961018183","0.273035790367654","0.255654248034566","0.14570625","","","","",""
"12-086-0029","Ethylbenzene","25.587327","-80.325922","CUTLER BAY","","FOREST","","","meanRos_ug_m3","No","Undetermined","Florida","Cutler Ridge","Rural","Perdue","No","Ethylbenzene","0.420680575227273","0.45265893949576","","","","","","","","","","","",""
"12-095-2002","Ethylbenzene","28.596389","-81.3625","Winter Park","","COMMERCIAL","","UATMP: ORFL","meanRos_ug_m3","Yes","No Trend","Florida","Winter Park","Urban And Center City","WINTER PARK","No","Ethylbenzene","","","0.2725985","0.29245429245283","0.308422655660377","0.255314391509434","","0.194082233606557","0.167503100409836","0.174631735169492","0.160823105263158","0.300125276315789","","0.193566066666667"
"12-103-0004","Ethylbenzene","27.946688","-82.731767","Clearwater","","COMMERCIAL","","UATMP: CWFL","meanRos_ug_m3","No","Undetermined","Florida","Clearwater","Suburban","St. Petersburg College","No","Ethylbenzene","0.421469300847458","","","","","","","","","","","","",""
"12-103-0018","Ethylbenzene","27.785866","-82.739875","SAINT PETERSBURG","","RESIDENTIAL","","UATMP: AZFL; PILOT CITY: Azalea Park","meanRos_ug_m3","Yes","Decreasing","Florida","Saint Petersburg","Suburban","Azalea Park","No","Ethylbenzene","0.4810095625","0.268904381885913","0.3486725","0.3748229375","0.322002879310345","0.308427067622951","0.231807454918033","0.250786322033898","0.213802235655738","0.695009394736842","0.204621770454545","0.204865947368421","0.165525419491525","0.20374737295082"
"12-103-1008","Ethylbenzene","28.000297","-82.776213","Dunedin","","RESIDENTIAL","","UATMP: DNFL; PILOT CITY: Dunedin","meanRos_ug_m3","No","Undetermined","Florida","Dunedin","Suburban","DUNEDIN HIGHLAND MIDDLE SCHOOL","No","Ethylbenzene","","","","","","","","","","","","","",""
"12-103-2008","Ethylbenzene","27.892801","-82.680378","SAINT PETERSBURG","","COMMERCIAL","","Gateway","meanRos_ug_m3","No","Undetermined","Florida","Clearwater","Suburban","Gateway","No","Ethylbenzene","","","","","","","","","","","","","",""
"12-103-5002","Ethylbenzene","28.090299","-82.700707","Tarpon Springs","","RESIDENTIAL","","UATMP: ELFL; PILOT CITY: East Lake","meanRos_ug_m3","No","Undetermined","Florida","Tarpon Springs","Rural","John Chesnut Sr. Park - East Lake","No","Ethylbenzene","","","","","","","","","","","","","",""
"13-009-0001","Ethylbenzene","33.153413","-83.23569","Milledgeville","","RESIDENTIAL","","","meanRos_ug_m3","No","Undetermined","Georgia","Milledgeville","Rural","","No","Ethylbenzene","","","","0.136722834542261","","0.0950925","","","","","","","",""
"13-021-0012","Ethylbenzene","32.805361","-83.543515","Macon","","INDUSTRIAL","","Macon SE","meanRos_ug_m3","No","No Trend","Georgia","Macon","Rural","Macon-Forestry","No","Ethylbenzene","","","","","","","0.040494877544217","0.0342206090605644","","","","0.0749737602630362","0.116064137945931","0.113621828329448"
"13-051-0021","Ethylbenzene","32.069183","-81.048747","Savannah","","COMMERCIAL","","Savannah-E. President Street","meanRos_ug_m3","No","No Trend","Georgia","Savannah","Suburban","Savannah-E. President","No","Ethylbenzene","","","0.127559738893071","0.177668754199945","0.0587084455024917","0.0621322271586475","0.0594074903805981","","","","0.10780386338212","0.125469347726057","0.129448483423383","0.0679476157128223"
"13-069-0002","Ethylbenzene","31.513127","-82.750011","Douglas","","AGRICULTURAL","","General Coffee","meanRos_ug_m3","No","Undetermined","Georgia","Not in a city","Rural","General Coffee","No","Ethylbenzene","","","","","","","","","","","","","",""
"13-085-0001","Ethylbenzene","34.376307","-84.059556","DAWSONVILLE","","UNKNOWN","","Dawsonville, Georgia Forestry Commission","meanRos_ug_m3","No","Undetermined","Georgia","Not in a city","Rural","Dawsonville","No","Ethylbenzene","","","","","","","0.0490462298729436","0.037942495675866","","","","","0.0773793705596613",""
"13-089-0003","Ethylbenzene","33.698553","-84.272664","ATLANTA","","COMMERCIAL","","DMRC","meanRos_ug_m3","No","Undetermined","Georgia","Atlanta","Suburban","NR-285","No","Ethylbenzene","","","","","","","","","","","","","0.245651381933352","0.132834530959455"
"13-089-3001","Ethylbenzene","33.845741","-84.213398","Tucker","","RESIDENTIAL","","PAMS: Tucker","meanRos_ug_m3","No","Undetermined","Georgia","Tucker","Rural","Tucker-Idlewood Road","No","Ethylbenzene","","0.333017918440513","0.515245442203079","0.469672933811665","","","","","","","","","",""
"13-115-0004","Ethylbenzene","34.263312","-85.178723","Rome","","COMMERCIAL","","","meanRos_ug_m3","No","Undetermined","Georgia","Rome","Urban And Center City","","No","Ethylbenzene","","","0.185562355839683","0.241037694356284","0.131699530069056","0.122536670140821","","","","","","","",""
"13-121-0020","Ethylbenzene","33.741253","-84.5527","Utoy Creek","","INDUSTRIAL","","Utoy Creek","meanRos_ug_m3","No","Undetermined","Georgia","Not in a city","Suburban","Utoy Creek","No","Ethylbenzene","","","0.191992892334526","0.254446388476385","0.103997950371735","0.091197937175149","","","","","","","",""
"13-127-3001","Ethylbenzene","31.185187","-81.485166","Brunswick","","RESIDENTIAL","","","meanRos_ug_m3","No","Undetermined","Georgia","Brunswick","Suburban","","No","Ethylbenzene","","","","0.0997161482847666","0.0938758818480285","","","","","","","","",""
"13-139-0003","Ethylbenzene","34.29933","-83.81341","GAINESVILLE","","RESIDENTIAL","","MONITOR LOCATED ON TOP OF SCHOOL","meanRos_ug_m3","No","Undetermined","Georgia","Gainesville","Suburban","Gainesville","No","Ethylbenzene","","","0.182768816351566","0.196916148700833","0.0626644151123078","0.073503452686715","","","","","","","",""
"13-153-0001","Ethylbenzene","32.605556","-83.598056","WARNER ROBINS","","COMMERCIAL","","LOCATED NEAR ROBBINS AIR FORCE BASE","meanRos_ug_m3","No","Undetermined","Georgia","Warner Robins","Suburban","Warner Robins","No","Ethylbenzene","","","","","","","","","","","","","",""
"13-185-0003","Ethylbenzene","30.848056","-83.294444","VALDOSTA","","COMMERCIAL","","S.L. MASON ELEMENTARY SCHOOL","meanRos_ug_m3","No","Undetermined","Georgia","Valdosta","Suburban","Valdosta","No","Ethylbenzene","","","","0.133214075685522","0.0656176144532631","0.065650781294518","","","","","","","",""
"13-215-5000","Ethylbenzene","32.503272","-84.942035","Columbus","","COMMERCIAL","","","meanRos_ug_m3","No","Undetermined","Georgia","Columbus (Remainder)","Suburban","","No","Ethylbenzene","","","0.146612755439112","0.251602113090436","0.135476940447405","0.0858695804107929","","","","","","","",""
"13-223-0003","Ethylbenzene","33.9285","-85.04534","Yorkville","","AGRICULTURAL","","PAMS: Yorkville (Near Rockmart)","meanRos_ug_m3","No","Undetermined","Georgia","Not in a city","Rural","Yorkville, King Farm","No","Ethylbenzene","0.231777736446971","0.202509374874691","","","","","0.032363457449415","","","","","","","0.0462491526446241"
"13-245-0092","Ethylbenzene","33.432353","-81.991372","Augusta","","INDUSTRIAL","","","meanRos_ug_m3","No","Undetermined","Georgia","Augusta-Richmond County (Remainder)","Suburban","","No","Ethylbenzene","","","0.223260774609509","0.372395844030236","0.289070385002187","","","","","","","","",""
"13-247-0001","Ethylbenzene","33.591077","-84.065294","Conyers","","AGRICULTURAL","","PAMS: Conyers","meanRos_ug_m3","No","No Trend","Georgia","Conyers","Rural","Conyers","No","Ethylbenzene","0.222443027558688","0.12771071901907","0.1698816566507","0.1468659512426","0.0963906337059364","","","0.164433235470234","","","","","",""
"16-001-0100","Ethylbenzene","43.6013","-116.3473","Meridian","","COMMERCIAL","","","meanRos_ug_m3","No","Undetermined","Idaho","Not in a city","Suburban","","No","Ethylbenzene","","","","","0.369484466714762","","","","","","","","",""
"16-001-0200","Ethylbenzene","43.5776","-116.1777","Boise","","RESIDENTIAL","","White Pine Elementary School","meanRos_ug_m3","No","Undetermined","Idaho","Boise City (corporate name for Boise)","Urban And Center City","White Pine Elementary School","No","Ethylbenzene","","","","","0.527273095434531","","","","","","","","",""
"16-027-0004","Ethylbenzene","43.562401","-116.563232","Nampa","","RESIDENTIAL","","NORTHWEST NAZARENE COLLEGE SAMPLER ON ARTS BUILDING IN SUB. SETTING","meanRos_ug_m3","No","Undetermined","Idaho","Nampa","Suburban","NORTHWEST NAZARENE COLLEGE SAMPLER ON ARTS BUILDING IN SUB. SETTING","No","Ethylbenzene","0.587702827868852","0.471109413556744","","","0.429615185695082","","","","","","","","",""
"16-027-0400","Ethylbenzene","43.7872","-116.9596","Parma","","AGRICULTURAL","","Parma","meanRos_ug_m3","No","Undetermined","Idaho","Not in a city","Rural","Parma","No","Ethylbenzene","","","","","","","","","","","","","",""
"17-031-0060","Ethylbenzene","41.656518","-87.589574","CHICAGO","","RESIDENTIAL","","UATMP: CARV","meanRos_ug_m3","No","Undetermined","Illinois","Chicago","Suburban","CARVER HS","No","Ethylbenzene","","","","","","","","","","","","","",""
"17-031-0072","Ethylbenzene","41.895812","-87.607683","Chicago","","COMMERCIAL","","JARDINE","meanRos_ug_m3","No","Undetermined","Illinois","Chicago","Urban And Center City","JARDINE WATER PLANT","No","Ethylbenzene","","","","","","","","","","","","","",""
"17-031-3103","Ethylbenzene","41.965193","-87.876265","Schiller Park","","MOBILE","","UATMP: SPIL","meanRos_ug_m3","Yes","Decreasing","Illinois","Schiller Park","Suburban","IEPA TRAILER","No","Ethylbenzene","0.489651835423046","0.639164042991357","0.52803953274798","0.294708805327869","0.285154535560345","0.229973703947368","0.160408153601695","0.297045196875","0.301806133817451","0.3107939875","0.26205908125","0.281906038636364","0.22544846875","0.229943502155172"
"17-119-9010","Ethylbenzene","38.848382","-90.076413","Roxana","","INDUSTRIAL","","UATMP: ROIL; Phillips 66 Wood River Refinery","meanRos_ug_m3","No","Undetermined","Illinois","Roxana","Suburban","Phillips 66 Wood River Refinery","No","Ethylbenzene","","","","","","","","","","","0.334113139830508","0.351924226293103","",""
"17-163-1010","Ethylbenzene","38.592192","-90.165081","NOT IN A CITY","","INDUSTRIAL","","UATMP: SAIL","meanRos_ug_m3","No","Undetermined","Illinois","Sauget (Monsanto)","Suburban","IEPA TRAILER","No","Ethylbenzene","","","","","","","","","","","","","",""
"18-003-0004","Ethylbenzene","41.094965","-85.101816","Fort Wayne","","COMMERCIAL","","Ft. Wayne- Beacon St.","meanRos_ug_m3","No","Undetermined","Indiana","Fort Wayne","Suburban","Ft. Wayne- Beacon St.","No","Ethylbenzene","","0.207072678426547","0.246806516952611","0.263192060105254","0.19602190710639","","","","","","","","",""
"18-019-0009","Ethylbenzene","38.276683","-85.763767","CLARKSVILLE","","RESIDENTIAL","","Clarksville","meanRos_ug_m3","No","No Trend","Indiana","Clarksville","Urban And Center City","Clarksville","No","Ethylbenzene","","","","","","0.383102688208695","0.274178927667365","0.488026277132782","0.745930512295082","0.498818552631579","0.240242356148068","0.166224391236039","1.8027953125","0.251921914983203"
"18-039-0003","Ethylbenzene","41.667827","-85.969444","Elkhart","","COMMERCIAL","","SAMPLERS ARE ON THE ROOF ON THE WEST SIDE OF THE SCHOOL","meanRos_ug_m3","No","No Trend","Indiana","Elkhart","Urban And Center City","SAMPLERS ARE ON THE ROOF ON THE WEST SIDE OF THE SCHOOL","No","Ethylbenzene","0.378135275291505","0.314005400837869","0.35873931334108","0.420441613316797","0.292367129335203","","","","","","","","",""
"18-089-0022","Ethylbenzene","41.60668","-87.304729","Gary","","INDUSTRIAL","","UATMP: INDEM","meanRos_ug_m3","Yes","No Trend","Indiana","Gary","Urban And Center City","Gary-IITRI/ 1219.5 meters east of Tennessee St.- old ammuntion bunker","No","Ethylbenzene","0.175826556541092","0.11724164690079","0.192133440611394","0.260305291940789","0.463350318388619","0.130855480302707","0.0753568271099449","0.10708635346395","0.145957273084171","0.148317885416667","0.1402614375","0.135020544034091","0.149939739897176","0.180621720170455"
"18-089-0023","Ethylbenzene","41.65274","-87.439551","East Chicago","","INDUSTRIAL","","East Chicago Water Flitration Plant","meanRos_ug_m3","No","Decreasing","Indiana","East Chicago","Urban And Center City","SITE MOVED FROM EAST CHICAGO FIELD SCHOOL","No","Ethylbenzene","0.207840236709005","0.351408490260322","0.224300035741045","0.28540064870261","0.179433568556326","0.137802909711757","0.140542506418298","0.163724851238898","0.177624557418464","0.0993877986855637","","","",""
"18-089-0030","Ethylbenzene","41.6814","-87.494734","WHITING","","RESIDENTIAL","","Whiting- Whiting HS","meanRos_ug_m3","Yes","Decreasing","Indiana","Whiting","Urban And Center City","Whiting- Whiting HS","No","Ethylbenzene","","0.221730926861257","0.286016733134872","0.282289805190388","0.218710450299348","0.197536589952721","0.0802045508229814","0.11893322122773","0.185649353328187","0.112247925910604","0.275963839180971","0.177634675108095","0.101097750305262",""
"18-089-0034","Ethylbenzene","41.65348","-87.435584","East Chicago","","COMMERCIAL","","East Chicago-Marina","meanRos_ug_m3","No","Undetermined","Indiana","East Chicago","Urban And Center City","East Chicago-Marina","No","Ethylbenzene","","","","","","","","","","","0.192669535289373","0.10003077294548","0.192295575233615","0.161596081397286"
"18-089-0035","Ethylbenzene","41.681393","-87.490233","Whiting","","RESIDENTIAL","","Whiting- Center St.","meanRos_ug_m3","No","Undetermined","Indiana","Whiting","Urban And Center City","Whiting- Center St.","No","Ethylbenzene","","","","","","","","","","","","","","0.70928017587674"
"18-089-1003","Ethylbenzene","41.588925","-87.407817","Gary","","RESIDENTIAL","","","meanRos_ug_m3","No","Undetermined","Indiana","Gary","Suburban","","No","Ethylbenzene","","","","","","","","","","","","","",""
"18-089-2008","Ethylbenzene","41.63946","-87.493623","Hammond","","COMMERCIAL","","HAMMOND CAAP- Hammond- 141st St.","meanRos_ug_m3","Yes","Decreasing","Indiana","Hammond","Suburban","HAMMOND CAAP- Hammond- 141st St.","No","Ethylbenzene","0.338316138474516","0.265947211685857","0.374507611085887","0.37085130627142","0.354745084561193","0.332516104643338","0.233247131704682","0.30229148815461","0.2860699375","0.148884453445847","0.302425327868852","0.179655166164192","0.204020561326983","0.199603688856195"
"18-097-0057","Ethylbenzene","39.749019","-86.186314","INDIANAPOLIS","","RESIDENTIAL","","UATMP: ININ","meanRos_ug_m3","No","Undetermined","Indiana","Indianapolis (Remainder)","Urban And Center City","Indpls- Harding St.","No","Ethylbenzene","","","","","0.319513848191271","0.340471489273276","","","","","","","",""
"18-097-0078","Ethylbenzene","39.811097","-86.114469","Indianapolis","","RESIDENTIAL","","UATMP: WPIN","meanRos_ug_m3","Yes","Decreasing","Indiana","Indianapolis (Remainder)","Suburban","Indpls- Washington Park/  in parking lot next to police station","No","Ethylbenzene","0.511580685341602","0.406305018727858","0.503386371760625","0.531891988303723","0.415012175815111","0.387566524797006","0.250976737628551","0.459474520679253","0.497333775","0.257060180645932","0.273277369054478","0.214352632867854","0.27020810429212","0.281907100509381"
"18-097-0084","Ethylbenzene","39.758855","-86.115415","Indianapolis","","RESIDENTIAL","","Indpls-  School 21/ Florence Fay School 21","meanRos_ug_m3","No","Decreasing","Indiana","Indianapolis (Remainder)","Urban And Center City","Indpls-  School 21/ Florence Fay School 21","No","Ethylbenzene","","0.18218144060519","0.0734279392049447","0.0842012334300674","0.0686027925422203","0.0483008194849071","0.0390955371290707","0.038154486191094","","","","","",""
"18-097-0085","Ethylbenzene","39.740383","-86.22595","INDIANAPOLIS","","MILITARY RESERVATION","","UATMP: IDIN","meanRos_ug_m3","No","Undetermined","Indiana","Indianapolis (Remainder)","Urban And Center City","Stout Field 2","No","Ethylbenzene","","","","","0.492876654236519","0.327640225043342","","","","","","","",""
"18-097-0087","Ethylbenzene","39.787933","-86.13088","Indianapolis (Remainder)","","RESIDENTIAL","","Indpls.- I 70","meanRos_ug_m3","No","Undetermined","Indiana","Indianapolis (Remainder)","Urban And Center City","Indpls.- I 70","No","Ethylbenzene","","","","","","","","","","","","","","0.316304968854274"
"18-127-0024","Ethylbenzene","41.617558","-87.199248","NOT IN A CITY","","RESIDENTIAL","","Ogden Dunes- Water Treatment Plant","meanRos_ug_m3","Yes","Decreasing","Indiana","Ogden Dunes (Wickliffe)","Suburban","Ogden Dunes- Water Treatment Plant","No","Ethylbenzene","0.0680313087434212","0.0589666063463947","0.0908991615459793","0.121277563664137","0.10156012246133","0.0436051584143392","0.0435863282496185","0.0599023025885898","0.0916959066559608","0.0408029643188971","0.0730557121647801","0.0418572139464368","0.0398442372183794","0.0373431484213178"
"18-157-0008","Ethylbenzene","40.431639","-86.8525","LAFAYETTE","","INDUSTRIAL","","Lafayette- Greenbush St./ Cinergy Substation","meanRos_ug_m3","No","No Trend","Indiana","Lafayette","Suburban","Lafayette- Greenbush St./ Cinergy Substation","No","Ethylbenzene","","","","","","0.124026907090757","0.0475477731659552","0.0843687637877042","0.102481647892463","0.0932031248290412","","","",""
"18-163-0016","Ethylbenzene","37.974436","-87.532289","Evansville","","COMMERCIAL","","Evansville- U of E/  University of Evansville-Carson Center","meanRos_ug_m3","Yes","Decreasing","Indiana","Evansville","Urban And Center City","Evansville- U of E/  University of Evansville-Carson Center","No","Ethylbenzene","0.232997283481682","0.192091991630734","0.331267749448806","0.394575838391206","0.305173240353989","0.295065757306467","0.161001978888723","0.225272635541027","0.225339123336342","0.143262254929512","0.108756478453788","0.180072846926405","0.110368512393015","0.159604979675881"
"18-167-0025","Ethylbenzene","39.507688","-87.37444","Terre Haute","","COMMERCIAL","","Terre Haute-Fort Harrison Rd.","meanRos_ug_m3","No","Undetermined","Indiana","Terre Haute","Urban And Center City","Terre Haute-Fort Harrison Rd.","No","Ethylbenzene","","","","","","","","","","","","0.0815718907024979","0.0838631017287541","0.144353856673942"
"19-045-0021","Ethylbenzene","41.874999","-90.177574","Clinton","","RESIDENTIAL","","UATMP: CLIA","meanRos_ug_m3","No","Undetermined","Iowa","Clinton","Suburban","CLINTON, RAINBOW PARK","No","Ethylbenzene","","","","","","","","","","","","","",""
"19-113-0037","Ethylbenzene","42.00508","-91.6793","Cedar Rapids","","RESIDENTIAL","","UATMP: C2IA; PILOT CITY: Army Reserve","meanRos_ug_m3","No","Undetermined","Iowa","Cedar Rapids","Urban And Center City","ARMY RESERVE CENTER ROOF- CORE MONITORING SITE","No","Ethylbenzene","","0.201388023935961","0.705493212568038","0.332659361065194","0.343567373798077","","","","","","","","",""
"19-113-0039","Ethylbenzene","41.93417","-91.682679","Cedar Rapids","","INDUSTRIAL","","UATMP: CRIA; PILOT CITY: Hawkeye Downs","meanRos_ug_m3","No","Undetermined","Iowa","Cedar Rapids","Urban And Center City","HAWKEYE DOWNS SOUTHWEST CORNER","No","Ethylbenzene","","","","","","","","","","","","","",""
"19-113-0040","Ethylbenzene","41.97677","-91.68766","CEDAR RAPIDS","","RESIDENTIAL","","Public Health","meanRos_ug_m3","No","Decreasing","Iowa","Cedar Rapids","Urban And Center City","Public Health","No","Ethylbenzene","","","","","","0.348745754870264","0.276352723110251","","0.254114887665149","0.24168582098176","0.18232453125","0.231441440964318","0.211469346775155",""
"19-139-0020","Ethylbenzene","41.4069","-91.0616","Muscatine","","INDUSTRIAL","","UATMP: MUIA","meanRos_ug_m3","No","Undetermined","Iowa","Muscatine","Suburban","MUSCATINE, MUSSER PARK","No","Ethylbenzene","","","","","","","","","","","","","",""
"19-153-0030","Ethylbenzene","41.603159","-93.643118","Des Moines","","COMMERCIAL","","UATMP: DMIA","meanRos_ug_m3","Yes","No Trend","Iowa","Des Moines","Urban And Center City","CARPENTER","No","Ethylbenzene","0.237445536786401","0.155151561993148","0.173197488203764","0.348068919905252","0.402338914620536","0.261147778125","0.276758796875","0.410598758081897","0.202257290039062","0.19137365625","0.26649673125","0.25801765","0.214910350482164",""
"19-153-2510","Ethylbenzene","41.603517","-93.7479","CLIVE","","RESIDENTIAL","","INDIAN HILLS JR HIGH, CLIVE IA, FRM R&P SEQ. SAMPLER (1),ROOF","meanRos_ug_m3","No","Undetermined","Iowa","Clive","Suburban","INDIAN HILLS JR HIGH, CLIVE IA, FRM R&P SEQ. SAMPLER (1),ROOF","No","Ethylbenzene","0.164947416934692","","","","","","","","","","","","",""
"19-163-0015","Ethylbenzene","41.530011","-90.587611","Davenport","","RESIDENTIAL","","UATMP: DAIA","meanRos_ug_m3","Yes","No Trend","Iowa","Davenport","Urban And Center City","DAVENPORT, JEFFERSON SCH.","No","Ethylbenzene","0.168210427980223","0.150985100731009","0.14581277546681","0.258104972139914","0.436523760775862","0.3935442734375","0.308738799022907","0.343059401041667","","0.1916708203125","0.14513109375","0.253798426431993","0.182898184980151",""
"20-173-0010","Ethylbenzene","37.702066","-97.314847","WICHITA","","RESIDENTIAL","","UATMP: W1KS","meanRos_ug_m3","No","Undetermined","Kansas","Wichita","Urban And Center City","WICHITA HD","No","Ethylbenzene","","","","","","","","","","","","","",""
"21-019-0017","Ethylbenzene","38.45934","-82.64041","ASHLAND","","RESIDENTIAL","","UATMP: ASKY","meanRos_ug_m3","No","Undetermined","Kentucky","Ashland","Suburban","ASHLAND PRIMARY (FIVCO)","No","Ethylbenzene","","","","","","","","","","","0.274053467213115","0.205306266393443","0.2404255375","0.23020309375"
"21-067-0012","Ethylbenzene","38.06503","-84.49761","LEXINGTON-FAYETTE","","RESIDENTIAL","","UATMP: LEKY","meanRos_ug_m3","No","Undetermined","Kentucky","Lexington-Fayette (corporate name for Lexington)","Suburban","LEXINGTON PRIMARY","No","Ethylbenzene","","","","","","","","","","","","0.194857648706897","0.177356483490566",""
"21-139-0004","Ethylbenzene","37.07151","-88.33389","NOT IN A CITY","","AGRICULTURAL","","UATMP: BLKY","meanRos_ug_m3","No","Undetermined","Kentucky","Smithland","Rural","BLOODWORTH","No","Ethylbenzene","","","","","","","","","","","0.109195201271186","0.085900225","0.0878396822033898","0.08645493125"
"21-157-0014","Ethylbenzene","37.0452","-88.33087","GRAND RIVERS","","INDUSTRIAL","","UATMP: TVKY; TVA SUBSTATION","meanRos_ug_m3","No","Undetermined","Kentucky","Calvert City (RR name Calvert)","Suburban","TVA SUBSTATION","No","Ethylbenzene","","","","","","","","","","","0.128141040983607","0.114305861680328","0.08531484375","0.0902599303278688"
"21-157-0016","Ethylbenzene","37.04176","-88.35407","GRAND RIVERS","","INDUSTRIAL","","UATMP: ATKY; ATMOS ENERGY","meanRos_ug_m3","No","Undetermined","Kentucky","Calvert City (RR name Calvert)","Suburban","ATMOS ENERGY","No","Ethylbenzene","","","","","","","","","","","0.14193724795082","0.121905467213115","0.178258144067797","0.115747838114754"
"21-157-0018","Ethylbenzene","37.02702","-88.34387","CALVERT CITY","","RESIDENTIAL","","UATMP: CCKY; CALVERT CITY ELEMENTARY","meanRos_ug_m3","No","Undetermined","Kentucky","Calvert City (RR name Calvert)","Suburban","CALVERT CITY ELEMENTARY","No","Ethylbenzene","","","","","","","","","","","0.157760016393443","0.146773206521739","",""
"21-157-0019","Ethylbenzene","37.03718","-88.33411","Calvert City","","RESIDENTIAL","","UATMP: LAKY; Lazy Daz","meanRos_ug_m3","No","Undetermined","Kentucky","Not in a city","Suburban","LAZY DAZ","No","Ethylbenzene","","","","","","","","","","","0.17314759375","0.159364841517857","",""
"22-005-0004","Ethylbenzene","30.229653","-90.965628","NOT IN A CITY","","AGRICULTURAL","","Dutchtown","meanRos_ug_m3","No","No Trend","Louisiana","Not in a city","Rural","Dutchtown","No","Ethylbenzene","","","","","","","","0.224755464105149","0.205384211065574","0.200924613486842","0.187520770474138","0.213860694159836","0.204287701271186","0.170100808189655"
"22-015-0008","Ethylbenzene","32.536273","-93.74894","Shreveport","","COMMERCIAL","","Shreveport / Airport","meanRos_ug_m3","No","Undetermined","Louisiana","Shreveport","Urban And Center City","Shreveport / Airport","No","Ethylbenzene","","","","","","","","","","","","","",""
"22-019-0008","Ethylbenzene","30.262604","-93.285084","Westlake","","INDUSTRIAL","","Westlake","meanRos_ug_m3","No","Undetermined","Louisiana","Westlake (RR name West Lake)","Rural","Westlake","No","Ethylbenzene","","","","","","","","","","","","","",""
"22-033-0008","Ethylbenzene","30.700184","-91.100106","PRIDE","","AGRICULTURAL","","","meanRos_ug_m3","No","Undetermined","Louisiana","Not in a city","Rural","","No","Ethylbenzene","","","","","","","","","","","","","",""
"22-033-0009","Ethylbenzene","30.461981","-91.179219","Baton Rouge","","COMMERCIAL","","UATMP: B2LA","meanRos_ug_m3","Yes","Decreasing","Louisiana","Baton Rouge","Urban And Center City","Capitol","No","Ethylbenzene","0.615683714554236","0.548479955357143","0.631864638157895","0.620792390149891","0.557698608521524","0.430992283938091","0.338465075521526","0.31019013282081","0.301727653459821","0.300297792613636","0.333374053819444","0.430887890625","0.29914515625","0.302770931603774"
"22-033-0013","Ethylbenzene","30.700895","-91.056068","ZACHARY","","AGRICULTURAL","","Pride","meanRos_ug_m3","Yes","Decreasing","Louisiana","Not in a city","Rural","Pride","No","Ethylbenzene","0.166952371083","0.12557024355946","0.206966839294998","0.205570783533586","0.193716068385346","0.118907055215823","0.104109805575067","0.131825338919681","0.108537955942623","0.108189730902778","0.0987418832236842","0.105446190543069","0.0810447443181818",""
"22-047-0009","Ethylbenzene","30.221255","-91.315418","NOT IN A CITY","","AGRICULTURAL","","Bayou Plaquemine","meanRos_ug_m3","Yes","No Trend","Louisiana","Not in a city","Rural","Bayou Plaquemine","No","Ethylbenzene","0.213142144326892","0.231971565219746","0.325564755464085","0.443628022868686","0.324421988807417","0.207501135445685","0.235770144459289","0.27863864117981","0.27779716325431","0.195513459051724","0.289369595286885","0.185368892780172","0.194005680803571",""
"22-073-0004","Ethylbenzene","32.509959","-92.046196","Monroe","","INDUSTRIAL","","Monroe / Airport","meanRos_ug_m3","No","Undetermined","Louisiana","Monroe","Urban And Center City","Monroe / Airport","No","Ethylbenzene","","","","","","","","","","","","","",""
"22-089-0003","Ethylbenzene","29.984371","-90.410638","HAHNVILLE","","INDUSTRIAL","","UATMP: HALA","meanRos_ug_m3","No","Undetermined","Louisiana","Hahnville","Rural","Hahnville","No","Ethylbenzene","","","","","","","","","","","","","",""
"22-095-0002","Ethylbenzene","30.057515","-90.619286","NOT IN A CITY","","INDUSTRIAL","","UATMP: GALA","meanRos_ug_m3","No","Undetermined","Louisiana","Garyville","Rural","Garyville","No","Ethylbenzene","","","","","","","","","","","","","",""
"23-001-0011","Ethylbenzene","44.089406","-70.214219","LEWISTON","","COMMERCIAL","","LEWISTON","meanRos_ug_m3","No","Decreasing","Maine","Lewiston","Urban And Center City","COUNTRY KITCHEN BAKERY PARKING LOT","No","Ethylbenzene","","","","","0.326396201388889","0.372278796052632","0.32014475","0.267283703663793","","0.21846682112069","0.213687463046217","0.190535883620331","0.18865940674869","0.156478360654103"
"23-003-1011","Ethylbenzene","46.682299","-68.016195","PRESQUE ISLE","","COMMERCIAL","","RIVERSIDE STREET MONITORING SHELTER","meanRos_ug_m3","No","Decreasing","Maine","Presque Isle","Urban And Center City","RIVERSIDE","No","Ethylbenzene","","","","","0.297273929538447","0.285104604545455","0.238787833333333","0.163791979591837","","0.194842591836735","0.17935523230908","","","0.149590410365436"
"23-005-0029","Ethylbenzene","43.660246","-70.268965","PORTLAND","","COMMERCIAL","","PDO - Portland Deering Oaks","meanRos_ug_m3","No","No Trend","Maine","Portland","Urban And Center City","PDO - Portland Deering Oaks","No","Ethylbenzene","","","","","","","0.267978757978723","0.247322476293103","","0.210645476434426","0.194190560229298","0.191054518273644","0.196170848841165","0.238732672524421"
"23-005-2003","Ethylbenzene","43.561043","-70.207324","Cape Elizabeth","","RESIDENTIAL","","CETL - Cape Elizabeth Two Lights (State Park)","meanRos_ug_m3","No","Undetermined","Maine","Not in a city","Rural","CETL - Cape Elizabeth Two Lights (State Park)","No","Ethylbenzene","","","","","","","","","","","","0.0870171856714344","0.0893171992714677","0.158122176816975"
"23-017-0008","Ethylbenzene","44.548386","-70.530987","MEXICO","","INDUSTRIAL","","","meanRos_ug_m3","No","Undetermined","Maine","Mexico (census name for Mexico Center)","Suburban","","No","Ethylbenzene","","","","","","","","","","","","","",""
"23-017-0009","Ethylbenzene","44.555341","-70.545621","MEXICO","","INDUSTRIAL","","","meanRos_ug_m3","No","Undetermined","Maine","Mexico (census name for Mexico Center)","Suburban","","No","Ethylbenzene","","","","","","","","","","","","","",""
"23-017-2011","Ethylbenzene","44.551419","-70.546319","RUMFORD","","INDUSTRIAL","","IN 8 X 8 ECTO SHELTER LOCATED IN PARKING LOT EAST OF RUMFORD AVENUE.","meanRos_ug_m3","No","Decreasing","Maine","Rumford (census name for Rumford Compact)","Rural","Rumford Avenue Parking Lot (RAP)","No","Ethylbenzene","","","","","0.31147279245283","0.358692133474576","0.302328568965517","0.232127584821429","","0.16617011440678","0.182508152461975","0.200972865050174","0.170869190993792","0.137054333618671"
"23-019-0002","Ethylbenzene","44.79886","-68.769675","BANGOR","","COMMERCIAL","","BANGOR","meanRos_ug_m3","No","No Trend","Maine","Bangor","Urban And Center City","KENDUSKEAG PUMP STATION (BUILDING ROOF)","No","Ethylbenzene","","","","","0.336572588942308","0.276805622727273","","0.216929765625","","0.200695223684211","0.34079944885429","0.163279893365631","0.217336100315291","0.138846958748537"
"24-003-0019","Ethylbenzene","39.101111","-76.729444","Fort Meade","","COMMERCIAL","","PAMS: Fort Meade","meanRos_ug_m3","No","Undetermined","Maryland","Fort Meade (U.S. Army)","Suburban","FT MEADE LAT/LONG POINT IS OF THE SAMPLING INLET","No","Ethylbenzene","0.319810013469828","0.246376022727273","","","","","","","","","","","",""
"24-003-1003","Ethylbenzene","39.169533","-76.627933","GLEN BURNIE","","RESIDENTIAL","","GLEN BURNIE","meanRos_ug_m3","No","Undetermined","Maryland","Glen Burnie","Suburban","GLEN BURNIE","No","Ethylbenzene","","","","","","","","","","","","","",""
"24-005-3001","Ethylbenzene","39.310833","-76.474444","Essex","","RESIDENTIAL","","PAMS: Essex","meanRos_ug_m3","Yes","Decreasing","Maryland","Essex","Suburban","Essex","No","Ethylbenzene","0.623846421875","0.486378730867347","0.731413317110656","0.6997223125","0.538874288930085","0.544322586206897","0.464550245901639","0.417413037446121","0.308612186219262","0.312460704405738","0.280694122086864","0.249114144597458","0.406384034323771","0.416614272540984"
"24-025-9001","Ethylbenzene","39.563333","-76.203889","NOT IN A CITY","","COMMERCIAL","","PAMS: Aldino","meanRos_ug_m3","No","Undetermined","Maryland","Not in a city","Suburban","Aldino","No","Ethylbenzene","","","","","","","","","","","","","",""
"24-027-0006","Ethylbenzene","39.14313","-76.84611","North Laurel","","RESIDENTIAL","","Howard County Near Road","meanRos_ug_m3","No","Undetermined","Maryland","North Laurel","Suburban","Howard County Near Road","No","Ethylbenzene","","","","","","","","","","","","0.177743085736056","0.207794722222222","0.236882209821429"
"24-033-0030","Ethylbenzene","39.055277","-76.878333","BELTSVILLE","","RESIDENTIAL","","HU-Beltsville","meanRos_ug_m3","No","No Trend","Maryland","Beltsville","Suburban","HU-Beltsville","No","Ethylbenzene","","","","0.370584080010776","0.2877538671875","0.21752409375","0.163652494419643","0.164395404575893","0.114705328125","0.16646140234375","0.1434311875","0.132055538651316","0.290364545815678","0.2370378671875"
"24-510-0006","Ethylbenzene","39.340556","-76.582222","Baltimore","","RESIDENTIAL","","Northeast Police","meanRos_ug_m3","No","Decreasing","Maryland","Baltimore","Suburban","Northeast Police","No","Ethylbenzene","0.426331375","0.3573893125","0.416439568965517","0.466109139344262","0.3447103125","0.324749858490566","0.253879033018868","0.190990868644068","0.177625613207547","","","","",""
"24-510-0011","Ethylbenzene","39.236775","-76.584132","Baltimore","","INDUSTRIAL","","","meanRos_ug_m3","No","Undetermined","Maryland","Baltimore","Suburban","","No","Ethylbenzene","","","","","","","","","","","","","",""
"24-510-0035","Ethylbenzene","39.232778","-76.579722","BALTIMORE","","INDUSTRIAL","","FMC-Fairfield","meanRos_ug_m3","No","Undetermined","Maryland","Baltimore","Urban And Center City","FMC-Fairfield","No","Ethylbenzene","","","","","","","","","","","","","",""
"24-510-0040","Ethylbenzene","39.297733","-76.604603","Baltimore","","RESIDENTIAL","","Oldtown","meanRos_ug_m3","Yes","Decreasing","Maryland","Baltimore","Urban And Center City","Oldtown","No","Ethylbenzene","0.606624568965517","0.541543728813559","0.5158768125","0.637629174107143","0.495198679245283","0.482477520491803","0.319123983050847","0.284471631355932","0.194283814655172","0.26888224137931","0.196710955882353","0.185862613636364","0.320264363207547","0.288130275"
"24-510-0043","Ethylbenzene","39.264274","-76.580244","Baltimore","","INDUSTRIAL","","","meanRos_ug_m3","No","Undetermined","Maryland","Baltimore","Urban And Center City","","No","Ethylbenzene","","","","","","","","","","","","","",""
"24-510-0050","Ethylbenzene","39.318611","-76.5825","BALTIMORE","","RESIDENTIAL","","LAT/LONG POINT IS OF SAMPLING INLET.................................","meanRos_ug_m3","No","Undetermined","Maryland","Baltimore","Urban And Center City","LAT/LONG POINT IS OF SAMPLING INLET.................................","No","Ethylbenzene","","","","","","","","","","","","","",""
"24-510-0051","Ethylbenzene","39.281496","-76.598578","BALTIMORE","","COMMERCIAL","","PAMS: Living Classroom","meanRos_ug_m3","No","Undetermined","Maryland","Baltimore","Urban And Center City","PAMS-OZONE-NOX ANALYZERS ARE LOCATED AT SOUTH CAROLINE STREET.","No","Ethylbenzene","","","","","","","","","","","","","",""
"25-009-2006","Ethylbenzene","42.474642","-70.970816","Lynn","","COMMERCIAL","","LYNN WATER TREATMENT PLANT","meanRos_ug_m3","Yes","Decreasing","Massachusetts","Lynn","Urban And Center City","LYNN WATER TREATMENT PLANT","No","Ethylbenzene","0.311174048969006","0.273860413894554","0.232385131861414","0.243667845058594","0.211821432845052","0.212105382620498","0.200890051178279","0.149418475012807","0.137122215829918","0.189790019433594","0.147257504986979","0.123475877792969","0.134044496689619","0.129310211065574"
"25-013-0008","Ethylbenzene","42.19438","-72.555112","Chicopee","","COMMERCIAL","","WESTOVER AFB","meanRos_ug_m3","Yes","Decreasing","Massachusetts","Chicopee","Suburban","WESTOVER AFB","No","Ethylbenzene","0.347138999126059","","0.24281455093843","0.364046040285432","0.282286525242853","0.238013295189145","0.222689661041572","0.214080075006041","0.20033657694406","0.218187881733056","0.158453334383957","0.115146914913982","",""
"25-017-1801","Ethylbenzene","42.385095","-71.388394","SUDBURY","","AGRICULTURAL","","SUDBURY","meanRos_ug_m3","No","Undetermined","Massachusetts","Sudbury (RR name South Sudbury)","Rural","SUDBURY","No","Ethylbenzene","","","","","","","","","","","","","",""
"25-025-0041","Ethylbenzene","42.317372","-70.968359","Boston","","COMMERCIAL","","BOSTON LONG ISLAND","meanRos_ug_m3","No","Undetermined","Massachusetts","Boston","Rural","BOSTON LONG ISLAND","No","Ethylbenzene","","","","","","","","","","","","","",""
"26-007-0901","Ethylbenzene","45.083624","-83.450254","ALPENA","","RESIDENTIAL","","375 WILSON, ALPENA CO.","meanRos_ug_m3","No","Undetermined","Michigan","Alpena","Rural","375 WILSON, ALPENA CO.","No","Ethylbenzene","","","","","","","","","","","","","",""
"26-007-0902","Ethylbenzene","45.068069","-83.426642","Alpena","","RESIDENTIAL","","ALPENA","meanRos_ug_m3","No","Undetermined","Michigan","Alpena","Urban And Center City","309 W LAKE ST, 17.5 FEET NORTH OF TAYLOR STREET","No","Ethylbenzene","","","","","","","","","","","","","",""
"26-033-0901","Ethylbenzene","46.493633","-84.364207","SAULT STE MARIE","","RESIDENTIAL","","UATMP: ITCMI","meanRos_ug_m3","No","Undetermined","Michigan","Sault Ste. Marie","Rural","NORTH OF EASTERDAY AVENUE","No","Ethylbenzene","","0.284006724898853","","","","","","","","","","","",""
"26-065-0921","Ethylbenzene","42.741979","-84.573591","LANSING","","COMMERCIAL","","LANSING","meanRos_ug_m3","No","Undetermined","Michigan","Lansing","Urban And Center City","LANSING","No","Ethylbenzene","","","","","","","","","","","","","",""
"26-065-0922","Ethylbenzene","42.735591","-84.576924","LANSING","","INDUSTRIAL","","LANSING","meanRos_ug_m3","No","Undetermined","Michigan","Lansing","Urban And Center City","LANSING","No","Ethylbenzene","","","","","","","","","","","","","",""
"26-065-0923","Ethylbenzene","42.732813","-84.563035","LANSING","","INDUSTRIAL","","LANSING","meanRos_ug_m3","No","Undetermined","Michigan","Lansing","Urban And Center City","LANSING","No","Ethylbenzene","","","","","","","","","","","","","",""
"26-065-0924","Ethylbenzene","42.733924","-84.593592","LANSING","","INDUSTRIAL","","LANSING","meanRos_ug_m3","No","Undetermined","Michigan","Lansing","Urban And Center City","LANSING","No","Ethylbenzene","","","","","","","","","","","","","",""
"26-077-0901","Ethylbenzene","42.216432","-85.552502","Kalamazoo","","INDUSTRIAL","","","meanRos_ug_m3","No","Undetermined","Michigan","Kalamazoo","Suburban","","No","Ethylbenzene","0.145055099058859","0.106642277427869","0.164862529415094","","","","","","","","","","",""
"26-077-0902","Ethylbenzene","42.214487","-85.543335","KALAMAZOO","","INDUSTRIAL","","KALAMAZOO","meanRos_ug_m3","No","Undetermined","Michigan","Kalamazoo","Suburban","KALAMAZOO","No","Ethylbenzene","","","","","","","","","","","","","",""
"26-077-0903","Ethylbenzene","42.18921","-85.558612","KALAMAZOO","","INDUSTRIAL","","KALAMAZOO","meanRos_ug_m3","No","Undetermined","Michigan","Kalamazoo","Suburban","KALAMAZOO","No","Ethylbenzene","","","","","","","","","","","","","",""
"26-077-0905","Ethylbenzene","42.278097","-85.541949","KALAMAZOO","","COMMERCIAL","","KALAMAZOO","meanRos_ug_m3","No","Undetermined","Michigan","Kalamazoo","Urban And Center City","KALAMAZOO","No","Ethylbenzene","","","","","","","","","","","","","",""
"26-081-0020","Ethylbenzene","42.984173","-85.671339","Grand Rapids","","INDUSTRIAL","","Grand Rapids","meanRos_ug_m3","No","Undetermined","Michigan","Grand Rapids","Urban And Center City","GR-Monroe","No","Ethylbenzene","","","","0.374701207644713","","","","","","","","","",""
"26-081-0021","Ethylbenzene","42.938638","-85.671141","Grand Rapids","","INDUSTRIAL","","1270 RANDOLPH, GRAND RAPIDS","meanRos_ug_m3","No","Undetermined","Michigan","Grand Rapids","Urban And Center City","1270 RANDOLPH, GRAND RAPIDS","No","Ethylbenzene","0.669095594376232","0.649463295393951","","","","","","","","","","","",""
"26-111-0951","Ethylbenzene","43.609194","-84.210544","Midland","","COMMERCIAL","","WOOD PLATFORM","meanRos_ug_m3","No","Undetermined","Michigan","Midland","Rural","WOOD PLATFORM","No","Ethylbenzene","","","","","","","","","","","","","",""
"26-111-0952","Ethylbenzene","43.610027","-84.221377","MIDLAND","","COMMERCIAL","","MIDLAND","meanRos_ug_m3","No","Undetermined","Michigan","Midland","Rural","WOOD PLATFORM","No","Ethylbenzene","","","","","","","","","","","","","",""
"26-111-0953","Ethylbenzene","43.591416","-84.209431","Midland","","INDUSTRIAL","","WOOD PLATFORM","meanRos_ug_m3","No","Undetermined","Michigan","Midland","Rural","WOOD PLATFORM","No","Ethylbenzene","","","","","","","","","","","","","",""
"26-111-0954","Ethylbenzene","43.601416","-84.298881","Midland","","AGRICULTURAL","","WOOD PLATFORM","meanRos_ug_m3","No","Undetermined","Michigan","Midland","Rural","WOOD PLATFORM","No","Ethylbenzene","","","","","","","","","","","","","",""
"26-111-0955","Ethylbenzene","43.589471","-84.221099","Midland","","INDUSTRIAL","","WOOD PLATFORM","meanRos_ug_m3","No","Undetermined","Michigan","Midland","Rural","WOOD PLATFORM","No","Ethylbenzene","","","","","","","","","","","","","",""
"26-111-0956","Ethylbenzene","43.618083","-84.2286","MIDLAND","","RESIDENTIAL","","MIDLAND","meanRos_ug_m3","No","Undetermined","Michigan","Midland","Suburban","WOOD PLATFORM","No","Ethylbenzene","","","","","","","","","","","","","",""
"26-111-0957","Ethylbenzene","43.606693","-84.176931","MIDLAND","","RESIDENTIAL","","MIDLAND","meanRos_ug_m3","No","Undetermined","Michigan","Midland","Rural","WOOD PLATFORM","No","Ethylbenzene","","","","","","","","","","","","","",""
"26-113-0001","Ethylbenzene","44.310555","-84.891865","NOT IN A CITY","","FOREST","","UATMP: HOMI; PILOT CITY: Houghton Lake","meanRos_ug_m3","No","Undetermined","Michigan","Not in a city","Rural","LOCATED ABOUT 1/4 MILE WEST OF SITE","No","Ethylbenzene","","","","","","","","","","","","","",""
"26-125-0010","Ethylbenzene","42.490313","-83.279931","Southfield","","MOBILE","","UATMP: LOMI; PILOT CITY: 696 Lodge","meanRos_ug_m3","No","Undetermined","Michigan","Southfield","Urban And Center City","338 FEET NORTH TO I-696 FREEWAY","No","Ethylbenzene","","","","","","","","","","","","","",""
"26-159-0901","Ethylbenzene","42.16893","-85.827787","LAWTON","","AGRICULTURAL","","LAWTON","meanRos_ug_m3","No","Undetermined","Michigan","Lawton","Rural","LAWTON","No","Ethylbenzene","","","","","","","","","","","","","",""
"26-161-0008","Ethylbenzene","42.240565","-83.599602","Ypsilanti","","COMMERCIAL","","PILOT CITY: Ypsilanti","meanRos_ug_m3","No","Undetermined","Michigan","Ypsilanti","Urban And Center City","TOWNER ST, SOUTH; 2 LANE RESIDENIAL - HOSPITAL","No","Ethylbenzene","","","","0.290352282966573","","","","","","","","","",""
"26-163-0001","Ethylbenzene","42.22862","-83.2082","Allen Park","","COMMERCIAL","","UATMP: APMI; IMPROVE: DETR1; PILOT CITY: Allen Park","meanRos_ug_m3","No","Undetermined","Michigan","Allen Park","Suburban","Allen Park","No","Ethylbenzene","","","","","","","","","","","","","",""
"26-163-0005","Ethylbenzene","42.267231","-83.132086","River Rouge","","INDUSTRIAL","","UATMP: RRMI; PILOT CITY: River Rouge","meanRos_ug_m3","No","Undetermined","Michigan","River Rouge","Suburban","River Rouge","No","Ethylbenzene","","","","","","","","","","","","","",""
"26-163-0015","Ethylbenzene","42.302786","-83.10653","Detroit","","COMMERCIAL","","UATMP: SWMI; PILOT CITY: Southwest HS","meanRos_ug_m3","No","No Trend","Michigan","Detroit","Urban And Center City","Southwestern H.S.","No","Ethylbenzene","0.397882738787356","0.380412800569882","0.292878900910068","0.512002032413312","0.476351334687925","","","","","","","","",""
"26-163-0027","Ethylbenzene","42.292231","-83.106807","Detroit","","INDUSTRIAL","","UATMP: YFMI; PILOT CITY: Yellow Freight","meanRos_ug_m3","No","Undetermined","Michigan","Detroit","Urban And Center City","UATMP: YFMI; PILOT CITY: Yellow Freight","No","Ethylbenzene","","","0.732254908573357","","","","","","","","","","",""
"26-163-1005","Ethylbenzene","42.289449","-83.153435","Detroit","","INDUSTRIAL","","","meanRos_ug_m3","No","Increasing","Michigan","Detroit","Urban And Center City","","No","Ethylbenzene","","","","","","","","","","0.399049917892902","0.480278138037783","0.506543971284738","1.48874784905494","1.92856696041171"
"26-163-1006","Ethylbenzene","42.283069","-83.161145","Detroit","","INDUSTRIAL","","","meanRos_ug_m3","No","No Trend","Michigan","Detroit","Urban And Center City","","No","Ethylbenzene","","","","","","","","","","0.548702861362803","0.387018545306687","0.427329952890571","0.422790675830028","0.428272319994435"
"26-163-1008","Ethylbenzene","42.281869","-83.151415","Detroit","","INDUSTRIAL","","","meanRos_ug_m3","No","No Trend","Michigan","Detroit","Urban And Center City","","No","Ethylbenzene","","","","","","","","","","0.964791327803033","0.688534238655624","0.568881979287649","0.652362812108383","0.482144453174337"
"26-163-1009","Ethylbenzene","42.270009","-83.162585","Detroit","","INDUSTRIAL","","","meanRos_ug_m3","No","No Trend","Michigan","Detroit","Urban And Center City","","No","Ethylbenzene","","","","","","","","","","0.504818305951089","0.402478639204037","0.396057409226069","0.427592373783038","0.382064415798557"
"27-003-1002","Ethylbenzene","45.13768","-93.207615","Blaine","","COMMERCIAL","","Anoka Airport6010","meanRos_ug_m3","No","No Trend","Minnesota","Blaine","Suburban","Anoka County Airport","No","Ethylbenzene","","","","","","","","","","0.141030171595481","0.133038380218643","0.109736560983454","0.107070814361094","0.17387516411451"
"27-007-2302","Ethylbenzene","47.473285","-94.884721","BEMIDJI","","COMMERCIAL","","BEMIDJI","meanRos_ug_m3","No","Undetermined","Minnesota","Bemidji","Urban And Center City","KITCHAGAMI REGIONAL LIBRARY, 1 STORY BUILDING","No","Ethylbenzene","","","","","","","","","","","","","",""
"27-007-2303","Ethylbenzene","47.877222","-95.01222","Red Lake","","RESIDENTIAL","","Red Lake","meanRos_ug_m3","No","Undetermined","Minnesota","Red Lake","Rural","Red Lake District","No","Ethylbenzene","","","","","","","","","0.0666681114130435","","","","",""
"27-017-7416","Ethylbenzene","46.70527","-92.52377","CLOQUET","","FOREST","","Cloquet","meanRos_ug_m3","No","Undetermined","Minnesota","Cloquet","Rural","Fond du Lac Band 7416","No","Ethylbenzene","","","","","","","","0.0533000204034309","","","","","",""
"27-019-0052","Ethylbenzene","44.850655","-93.591809","Chaska","","RESIDENTIAL","","CHASKA","meanRos_ug_m3","No","No Trend","Minnesota","Chaska","Rural","Chaska","No","Ethylbenzene","0.149226125821528","0.227812118534483","0.168133377155172","0.12871330388682","0.076074","","","","","","","","",""
"27-021-0001","Ethylbenzene","47.159942","-94.150987","NOT IN A CITY","","RESIDENTIAL","","Leech Lake","meanRos_ug_m3","No","Undetermined","Minnesota","Not in a city","Rural","Leech Lake Nation: Chatfield","No","Ethylbenzene","","","","","","","","","0.0312709691720642","","","","",""
"27-035-3202","Ethylbenzene","46.164666","-94.359379","FORT RIPLEY","","AGRICULTURAL","","HIGHWAY 371.  FT. RIPLEY","meanRos_ug_m3","No","Undetermined","Minnesota","Not in a city","Rural","Fort Ripley","No","Ethylbenzene","","","","","","","","","","","","","",""
"27-037-0020","Ethylbenzene","44.76323","-93.03255","NOT IN A CITY","","INDUSTRIAL","","FHR 420","meanRos_ug_m3","Yes","Decreasing","Minnesota","Rosemount","Rural","Flint Hills Refinery 420","No","Ethylbenzene","0.201337817094364","0.211970535860656","0.197039584375","0.181688309027778","0.130711894067797","0.0849680507129708","0.143063270089286","0.184391564908307","0.228222","0.129904175232515","0.122408286764706","0.0716819420333261","0.0940008590730128","0.085840514234332"
"27-037-0423","Ethylbenzene","44.77553","-93.06299","Rosemount","","INDUSTRIAL","","FHR 423","meanRos_ug_m3","Yes","No Trend","Minnesota","Inver Grove Heights (RR name Inver Grove)","Rural","Flint Hills Refinery 423","No","Ethylbenzene","0.130146200769338","0.124829052966102","0.1250466375","","0.0763199288793103","0.0647157291666667","0.077117726907619","0.100767241468512","0.0860317995283019","0.0692279897905729","0.059147535","0.0448032864107931","","0.148318211634162"
"27-037-0424","Ethylbenzene","44.779688","-93.062437","Toneyan","","AGRICULTURAL","","","meanRos_ug_m3","No","Undetermined","Minnesota","Inver Grove Heights (RR name Inver Grove)","Rural","","No","Ethylbenzene","","","","","","","","","","","","","",""
"27-037-0425","Ethylbenzene","44.79958","-93.072866","Inver Grove Heights","","AGRICULTURAL","","","meanRos_ug_m3","No","Undetermined","Minnesota","Inver Grove Heights (RR name Inver Grove)","Rural","","No","Ethylbenzene","","","","","","","","","","","","","",""
"27-037-0426","Ethylbenzene","44.773003","-93.033072","NOT IN A CITY","","INDUSTRIAL","","Cemetary","meanRos_ug_m3","No","Undetermined","Minnesota","Not in a city","Rural","Cemetary","No","Ethylbenzene","","","","","","","","","","","","","",""
"27-037-0439","Ethylbenzene","44.748006","-93.04348","ROSEMOUNT","","INDUSTRIAL","","ROSEMOUNT","meanRos_ug_m3","No","Undetermined","Minnesota","Rosemount","Rural","Flint Hills Refinery 439","No","Ethylbenzene","","","","","","","","","","","","","",""
"27-037-0441","Ethylbenzene","44.7468","-93.02611","Rosemount","","INDUSTRIAL","","FHR 441","meanRos_ug_m3","No","No Trend","Minnesota","Rosemount","Rural","Flint Hills Refinery 441","No","Ethylbenzene","0.134025510213708","0.15144649795082","0.12544285625","0.116980170258621","0.0625881545454545","","","","","","","","",""
"27-037-0442","Ethylbenzene","44.73857","-93.00496","Rosemount","","AGRICULTURAL","","FHR 442","meanRos_ug_m3","No","Decreasing","Minnesota","Rosemount","Rural","Flint Hills Refinery 442","No","Ethylbenzene","0.113811834130749","0.122250273305085","0.122554558189655","0.101814556034483","0.0722703","0.0518090172413793","0.0807480381355932","0.106107537364106","0.075123075","0.0731306229178864","0.0633066476183826","","",""
"27-037-0443","Ethylbenzene","44.745662","-93.05541","ROSEMOUNT","","INDUSTRIAL","","FHR 443","meanRos_ug_m3","No","No Trend","Minnesota","Rosemount","Rural","Flint Hills Refinery 443","No","Ethylbenzene","","","","","","0.0541687633928571","0.0800227563559322","0.110728179786247","0.0906289744897959","0.0877362877358491","0.0573246297169811","0.0525809197841295","0.0585699732389102","0.157288949728132"
"27-037-0470","Ethylbenzene","44.73846","-93.23725","Apple Valley","","RESIDENTIAL","","Apple Valley","meanRos_ug_m3","Yes","No Trend","Minnesota","Apple Valley","Suburban","Apple Valley","No","Ethylbenzene","0.261933745479133","0.215761603448276","0.225562633474576","0.169761085736402","0.111085329545455","0.0826489462878954","0.22196174375","0.575156898500377","0.132052981132075","0.124013582156163","0.0914817435632423","0.111822039241821","0.104942909022412","0.127011711964432"
"27-041-2010","Ethylbenzene","45.883295","-95.380316","ALEXANDRIA","","RESIDENTIAL","","ALEXANDRIA (was 2001)","meanRos_ug_m3","No","Undetermined","Minnesota","Alexandria","Urban And Center City","Alexandria toxics site","No","Ethylbenzene","","","","","","","","","","","","","",""
"27-047-5401","Ethylbenzene","43.650235","-93.366599","ALBERT LEA","","COMMERCIAL","","ALBERT LEA","meanRos_ug_m3","No","Undetermined","Minnesota","Albert Lea","Urban And Center City","Albert Lea City Hall","No","Ethylbenzene","","","","","","","","","","","","","",""
"27-049-5356","Ethylbenzene","44.39762","-92.831439","LEON TOWNSHIP","","AGRICULTURAL","","LEON TOWNSHIP(Zumbrota)","meanRos_ug_m3","No","Undetermined","Minnesota","Not in a city","Rural","MPCA SITE 5356","No","Ethylbenzene","","","","","","","","","","","","","",""
"27-053-0050","Ethylbenzene","45.001229","-93.267117","Minneapolis","","COMMERCIAL","","NE Fire Station","meanRos_ug_m3","No","Undetermined","Minnesota","Minneapolis","Urban And Center City","Minneapolis Fire Station 2","No","Ethylbenzene","0.622767826388889","0.588567713942308","0.520221556034483","0.500706048539522","","","","","","","","","",""
"27-053-0053","Ethylbenzene","44.981076","-93.269669","Minneapolis","","COMMERCIAL","","Old Downtown Library","meanRos_ug_m3","No","Undetermined","Minnesota","Minneapolis","Urban And Center City","Minneapolis Central Library","No","Ethylbenzene","","","","","","","","","","","","","",""
"27-053-0260","Ethylbenzene","45.032742","-93.421064","MINNEAPOLIS","","RESIDENTIAL","","MINNEAPOLIS","meanRos_ug_m3","No","Undetermined","Minnesota","Minneapolis","Suburban","MPCA SITE 0260","No","Ethylbenzene","","","","","","","","","","","","","",""
"27-053-0909","Ethylbenzene","45.012102","-93.276699","Minneapolis","","INDUSTRIAL","","Lowry Ave","meanRos_ug_m3","No","Undetermined","Minnesota","Minneapolis","Urban And Center City","Lowry Avenue","No","Ethylbenzene","","","","","","","","","","","","","","0.429419773633506"
"27-053-0958","Ethylbenzene","44.926076","-93.204666","MINNEAPOLIS","","RESIDENTIAL","","MINNEAPOLIS","meanRos_ug_m3","No","Undetermined","Minnesota","Minneapolis","Urban And Center City","MPCA SITE 0958 1997/1998 AIR TOXICS SITE","No","Ethylbenzene","","","","","","","","","","","","","",""
"27-053-0959","Ethylbenzene","45.003866","-93.236924","Minneapolis","","INDUSTRIAL","","MPCA SITE 0959 INTER PLASTICS","meanRos_ug_m3","No","Undetermined","Minnesota","Minneapolis","Urban And Center City","MPCA SITE 0959 INTER PLASTICS","No","Ethylbenzene","","","","","","","","","","","","","",""
"27-053-0960","Ethylbenzene","44.959409","-93.256892","MINNEAPOLIS","","RESIDENTIAL","","MINNEAPOLIS","meanRos_ug_m3","No","Undetermined","Minnesota","Minneapolis","Urban And Center City","Phillips Community Center","No","Ethylbenzene","","","","","","","","","","","","","",""
"27-053-0961","Ethylbenzene","44.87551","-93.25892","RICHFIELD","","RESIDENTIAL","","RICHFIELD INTERMEDIATE SCHOOL","meanRos_ug_m3","No","No Trend","Minnesota","Richfield","Suburban","Richfield Intermediate School","No","Ethylbenzene","","","","1.253438015625","0.154733848684211","0.114716134090909","0.164827","0.21301876768744","0.124657622727273","0.139731112418335","0.109862186170213","0.118233524652626","0.13841304884926","0.21216561032823"
"27-053-0962","Ethylbenzene","44.965242","-93.254759","Minneapolis","","RESIDENTIAL","","Minneapolis Near Roadway NOx","meanRos_ug_m3","No","Undetermined","Minnesota","Minneapolis","Urban And Center City","Near Road I-35/I-94","No","Ethylbenzene","","","","","","","","","","","","0.194018078818685","0.189287899636692","0.235934189211421"
"27-053-0963","Ethylbenzene","44.95366","-93.25821","Minneapolis","","RESIDENTIAL","","HC Anderson School","meanRos_ug_m3","Yes","Decreasing","Minnesota","Minneapolis","Urban And Center City","Andersen School","No","Ethylbenzene","0.549893993181818","0.490054280172414","0.434229768442623","0.364354421052632","0.210351168103448","0.15699233490566","0.345085677631579","0.339299972239413","0.218804185096154","0.297804108173077","0.220229414216508","0.197773722107529","0.163966497683752","0.220527766414186"
"27-053-0964","Ethylbenzene","44.888551","-93.195377","NOT IN A CITY","","COMMERCIAL","","MSP AIRPORT","meanRos_ug_m3","No","Undetermined","Minnesota","Not in a city","Suburban","MSP Airport","No","Ethylbenzene","0.254437471204797","","","","","","","","","","","","",""
"27-053-0965","Ethylbenzene","45.004478","-93.240046","Minneapolis","","RESIDENTIAL","","Putnam School","meanRos_ug_m3","No","Undetermined","Minnesota","Minneapolis","Urban And Center City","Putnam Elementary School","No","Ethylbenzene","0.508744875","0.50058276875","0.356596875","0.366870200827534","","","","","","","","","",""
"27-053-0966","Ethylbenzene","44.97944","-93.26613","Minneapolis","","COMMERCIAL","","UATMP: MIMN; City of Lakes Bldg","meanRos_ug_m3","Yes","Decreasing","Minnesota","Minneapolis","Urban And Center City","City of Lakes Building","No","Ethylbenzene","0.495774852143209","0.463223743055556","0.396879114583333","0.351157261652542","0.252962167372881","0.184140985169492","0.307090384868421","0.404153813229219","0.303578320754717","0.214598170673077","0.201418966911765","0.176232698112491","0.156602408498589","0.218888359745041"
"27-053-0968","Ethylbenzene","44.893005","-93.233227","MINNEAPOLIS","","COMMERCIAL","","MSP Airport 968","meanRos_ug_m3","No","Undetermined","Minnesota","Minneapolis","Urban And Center City","Metropolitan Airports Commission","No","Ethylbenzene","","","0.208250029927271","","","","","","","","","","",""
"27-053-0969","Ethylbenzene","44.90057","-93.23828","MINNEAPOLIS","","RESIDENTIAL","","WENONAH SCHOOL","meanRos_ug_m3","No","Undetermined","Minnesota","Minneapolis","Suburban","Wenonah Elementary School","No","Ethylbenzene","","","0.276695981707317","","0.155693822033898","0.128208046052632","0.188656727678571","","","","","","",""
"27-053-1007","Ethylbenzene","45.03972","-93.29874","Minneapolis","","RESIDENTIAL","","Humboldt Ave","meanRos_ug_m3","Yes","Decreasing","Minnesota","Minneapolis","Suburban","Humboldt Avenue","No","Ethylbenzene","0.425203984521277","0.407750081896552","0.305504802966102","0.330053681563245","0.186527596153846","0.177217840909091","0.240756920454545","0.32127413069171","0.224218105263158","0.201675481191026","0.195722643874674","0.195822610696476","0.148749570643069","0.232315999121378"
"27-053-2006","Ethylbenzene","44.94805","-93.34315","ST LOUIS PARK","","RESIDENTIAL","","St. Louis Park","meanRos_ug_m3","No","No Trend","Minnesota","St. Louis Park","Suburban","St. Louis Park City Hall","No","Ethylbenzene","","","","","","0.18776283254717","0.203175314732143","0.274885684982441","0.206260457657111","0.192702154411765","0.182192763274209","0.116972863315685","0.118620582470073","0.303043720155358"
"27-067-4110","Ethylbenzene","45.112271","-95.040357","Willmar","","COMMERCIAL","","201 SE WILLMAR AVE.","meanRos_ug_m3","No","Undetermined","Minnesota","Willmar","Urban And Center City","Willmar","No","Ethylbenzene","","","","","","","","","","","","","",""
"27-071-1240","Ethylbenzene","48.605216","-93.402371","International Falls","","INDUSTRIAL","","LOCATED IN PENTHOUSE ATOP CUSTOMS BUILDING","meanRos_ug_m3","No","Undetermined","Minnesota","International Falls","Urban And Center City","LOCATED IN PENTHOUSE ATOP CUSTOMS BUILDING","No","Ethylbenzene","","","","","","","","","","","","","",""
"27-071-1241","Ethylbenzene","48.605216","-93.406538","INTERNATIONAL FALLS","","RESIDENTIAL","","MPCA SITE 1241, AIR TOXICS SITE","meanRos_ug_m3","No","Undetermined","Minnesota","International Falls","Urban And Center City","MPCA SITE 1241, AIR TOXICS SITE","No","Ethylbenzene","","","","","","","","","","","","","",""
"27-075-0005","Ethylbenzene","47.948622","-91.495574","NOT IN A CITY","","UNKNOWN","","Fernberg Road","meanRos_ug_m3","No","Undetermined","Minnesota","Not in a city","Rural","Boundary Waters","No","Ethylbenzene","","","","","","","","0.121967882547603","","","","","",""
"27-085-4301","Ethylbenzene","44.890795","-94.367483","HUTCHINSON","","COMMERCIAL","","HUTCHINSON","meanRos_ug_m3","No","Undetermined","Minnesota","Hutchinson","Urban And Center City","1999/2000 STATE WIDE AIR TOXICS STUDY HUTCHINSON SITE 4301","No","Ethylbenzene","","","","","","","","","","","","","",""
"27-095-3051","Ethylbenzene","46.2053","-93.75945","ONAMIA","","FOREST","","Mille Lacs","meanRos_ug_m3","No","Undetermined","Minnesota","Onamia","Rural","Mille Lacs Band","No","Ethylbenzene","","","","","","","","","","0.0422148683645292","","","",""
"27-097-3049","Ethylbenzene","45.971127","-94.347481","LITTLE FALLS","","RESIDENTIAL","","AIR TOXICS MONITOR","meanRos_ug_m3","No","Undetermined","Minnesota","Little Falls","Urban And Center City","AIR TOXICS MONITOR","No","Ethylbenzene","","","","","","","","","","","","","",""
"27-109-5008","Ethylbenzene","43.996908","-92.450366","ROCHESTER","","RESIDENTIAL","","ROCHESTER","meanRos_ug_m3","No","Undetermined","Minnesota","Rochester","Suburban","Ben Franklin School","No","Ethylbenzene","","","","","","","","","","","","","",""
"27-111-2005","Ethylbenzene","46.281349","-96.074225","FERGUS FALLS","","RESIDENTIAL","","FERGUS FALLS","meanRos_ug_m3","No","Undetermined","Minnesota","Fergus Falls","Urban And Center City","1997/1998 MN AIR TOXICS SITE","No","Ethylbenzene","","","","","","","","","","","","","",""
"27-111-2012","Ethylbenzene","46.586904","-95.584209","PERHAM","","RESIDENTIAL","","PRAIRIE WINDS MIDDLE SCHOOL","meanRos_ug_m3","No","Undetermined","Minnesota","Not in a city","Suburban","PRAIRIE WINDS MIDDLE SCHOOL","No","Ethylbenzene","","","","","","","","","","","","","",""
"27-115-1400","Ethylbenzene","46.121338","-92.999927","SANDSTONE","","AGRICULTURAL","","MPCA SITE 1400","meanRos_ug_m3","No","Undetermined","Minnesota","Not in a city","Rural","MPCA SITE 1400","No","Ethylbenzene","","","","","","","","","","","","","",""
"27-123-0017","Ethylbenzene","44.944134","-93.065125","SAINT PAUL","","INDUSTRIAL","","","meanRos_ug_m3","No","Undetermined","Minnesota","St. Paul","Suburban","Holman Field","No","Ethylbenzene","0.308408844025058","0.283931851415094","0.276787098214286","0.231797716906529","","","","","","","","","",""
"27-123-0021","Ethylbenzene","44.96555","-93.05684","SAINT PAUL","","COMMERCIAL","","Ross Avenue","meanRos_ug_m3","No","No Trend","Minnesota","St. Paul","Urban And Center City","Ross Avenue","No","Ethylbenzene","0.649283665625","1.04151347586628","0.556291125","0.590210847958569","0.338398137931034","","","","","","","","",""
"27-123-0868","Ethylbenzene","44.95072","-93.09827","SAINT PAUL","","COMMERCIAL","","Ramsey Health Center","meanRos_ug_m3","No","No Trend","Minnesota","St. Paul","Urban And Center City","Ramsey Health Center","No","Ethylbenzene","","","","","0.24022944279661","0.179144599576271","0.291681119603821","0.321936401542612","0.230247118055556","0.245715431603774","0.2020715625","0.294762788548193","","0.226282240576431"
"27-123-0871","Ethylbenzene","44.95939","-93.03587","SAINT PAUL","","RESIDENTIAL","","Harding High School","meanRos_ug_m3","No","No Trend","Minnesota","St. Paul","Suburban","Harding High School","No","Ethylbenzene","","","","","","0.118401759146341","0.214458611842105","0.30620276619558","0.179619166666667","0.170897370283019","0.140533311418634","0.121580565620023","","0.178283801274295"
"27-123-1908","Ethylbenzene","44.973096","-93.199879","St. Paul","","RESIDENTIAL","","South St. Anthony Park","meanRos_ug_m3","No","Undetermined","Minnesota","St. Paul","Urban And Center City","South St. Anthony Park","No","Ethylbenzene","","","","","","","","","","","","","","0.236562101959921"
"27-137-7001","Ethylbenzene","47.523355","-92.536305","Virginia","","COMMERCIAL","","Virginia","meanRos_ug_m3","No","Undetermined","Minnesota","Virginia","Urban And Center City","Virginia City Hall","No","Ethylbenzene","","","","","","","","","","","","","",""
"27-137-7014","Ethylbenzene","47.423821","-92.926856","HIBBING","","RESIDENTIAL","","HIBBING","meanRos_ug_m3","No","Undetermined","Minnesota","Hibbing","Suburban","1997/1998 MN AIR TOXICS SITE","No","Ethylbenzene","","","","","","","","","","","","","",""
"27-137-7549","Ethylbenzene","46.77107","-92.11732","Duluth","","INDUSTRIAL","","Michigan St.","meanRos_ug_m3","Yes","Decreasing","Minnesota","Duluth","Urban And Center City","Michigan Street","No","Ethylbenzene","0.402216257027242","0.417237829918033","0.293377972222222","","0.167477566810345","0.100728592796627","0.210728568396226","0.384565257352941","","0.176100544811321","0.137884125","0.153849249955285","","0.105201606815398"
"27-137-7550","Ethylbenzene","46.81826","-92.08936","DULUTH","","RESIDENTIAL","","DULUTH","meanRos_ug_m3","No","Undetermined","Minnesota","Duluth","Suburban","U of M - Duluth","No","Ethylbenzene","","","","","","","","","","","","","",""
