"site_id","parameter_desc","latitude","longitude","city_name","location","land_use_type","setting","site_name","stat","used_in_nat_agg","trend","state_name","location_setting","local_site_name","natts","toxic_name_alias","2003","2004","2005","2006","2007","2008","2009","2010","2011","2012","2013","2014","2015","2016","2017","2018","2019","2020","2021","2022"
"01-073-5502","1,3-Butadiene","33.5447998046875","-86.8238983154297","Birmingham","","Commercial","","Lewis Elementary School","meanRos_ug_m3","No","Undetermined","Alabama","Urban And Center City","Lewis Elementary School","No","Butadiene","","","","","","","","","","0.137765636614391","","","","","","","","","",""
"01-073-5503","1,3-Butadiene","33.5684013366699","-86.8029022216797","Birmingham","","Commercial","","Riggins School","meanRos_ug_m3","No","Undetermined","Alabama","Urban And Center City","Riggins School","No","Butadiene","","","","","","","","","","0.167528724401361","","","","","","","","","",""
"01-073-5505","1,3-Butadiene","33.5566329956055","-86.8054656982422","Birmingham","","Residential","","Hudson K-8","meanRos_ug_m3","No","Undetermined","Alabama","Urban And Center City","Hudson K-8","No","Butadiene","","","","","","","","","","0.112140252600823","","","","","","","","","",""
"01-073-6004","1,3-Butadiene","33.5652770996094","-86.79638671875","Birmingham","","Residential","","UATMP: SIAL; Sloss Industries","meanRos_ug_m3","No","Undetermined","Alabama","Urban And Center City","Sloss Shuttlesworth","No","Butadiene","","","","","","","","","","0.131859743803301","","","","","","","","","",""
"01-097-3102","1,3-Butadiene","30.7089004516602","-88.0519027709961","Mobile","","Residential","","","meanRos_ug_m3","No","Undetermined","Alabama","Suburban","","No","Butadiene","0.124065201766935","","","","","","","","","","","","","","","","","","",""
"01-097-3103","1,3-Butadiene","30.9382991790771","-88.0250015258789","Mobile","","Residential","","","meanRos_ug_m3","No","Undetermined","Alabama","Rural","","No","Butadiene","0.128231924462348","","","","","","","","","","","","","","","","","","",""
"02-020-0018","1,3-Butadiene","61.2058601379395","-149.824600219727","Anchorage","","Residential","","UATMP: ANAK","meanRos_ug_m3","No","Undetermined","Alaska","Suburban","GARDEN/TRINITY CHRISTIAN CHURCH","No","Butadiene","","","","","","","0.139852374792099","","","","0.161922196573352","","","","","","","","",""
"04-013-4003","1,3-Butadiene","33.4031600952148","-112.075332641602","Phoenix","","Residential","","UATMP: SPAZ","meanRos_ug_m3","Yes","Decreasing","Arizona","Urban And Center City","SOUTH PHOENIX","No","Butadiene","0.336229564997101","0.376484345791782","0.596017876399531","","","0.218772670165682","0.216777968096236","0.251127520768807","0.285237490947688","0.25042411411802","0.215974360103569","0.182250353937088","0.225080219563097","0.271075812023127","0.191510254581427","0.259515410224939","0.152463706334432","0.178137929749585","0.222992871803316","0.164945271677308"
"04-013-4009","1,3-Butadiene","33.406421661377","-112.144340515137","Phoenix","","Industrial","","UATMP: MCAZ","meanRos_ug_m3","No","Undetermined","Arizona","Urban And Center City","WEST 43RD AVENUE","No","Butadiene","0.11757861081141","","","","","","","","","","","","","","","","","","",""
"04-013-9997","1,3-Butadiene","33.503833770752","-112.095764160156","Phoenix","Phoenix, AZ","Residential","Urban ","UATMP: PXSS; NATTS: Phoenix, AZ; IMPROVE: PHOE1","meanRos_ug_m3","Yes","Decreasing","Arizona","Urban And Center City","JLG SUPERSITE","Yes","Butadiene","0.349405497024399","0.392332229104272","0.441582528501749","0.418979241584356","0.300126028802986","0.228000465529756","0.224736471082373","0.203247966786635","0.229094512560341","0.224347850735315","0.211290251556175","0.193965659642263","0.192675149362338","0.216835041637095","0.192254620234419","0.192158033642622","0.134096604164185","0.13399045975999","0.134016668118659","0.0997529795362813"
"06-001-0007","1,3-Butadiene","37.6875267028809","-121.784217834473","Livermore","","Commercial","","REPLACES OLD SITE 06-001-0003 THAT WAS LOCATED AT 2614 OLD 1ST. ST.","meanRos_ug_m3","No","No Trend","California","Urban And Center City","Livermore","No","Butadiene","0.277286632126052","","","","","","","","","0.0277373993467029","0.112573452113006","0.0994125099427743","0.0886362023784699","","","","","","",""
"06-001-0008","1,3-Butadiene","37.8171195983887","-122.280456542969","Oakland","","Residential","","OAKLAND FILBERT ST","meanRos_ug_m3","No","Undetermined","California","Urban And Center City","Oakland - Filbert St.","No","Butadiene","0.264779676835196","0.303367872186294","","0.23834587733841","0.249266789952545","","","","","","","","","","","","","","",""
"06-001-0009","1,3-Butadiene","37.7430648803711","-122.169937133789","Oakland","","Residential","","Oakland East","meanRos_ug_m3","No","No Trend","California","Urban And Center City","Oakland","No","Butadiene","","","","","","0.0860139961423979","","","0.113996967737303","0.0585563255136208","0.161158996964655","0.12291841438661","0.10078347344496","","0.0817903765973657","0.0655308599174733","","","",""
"06-001-0011","1,3-Butadiene","37.8147811889648","-122.282348632813","Oakland","","Residential","","Oakland-West","meanRos_ug_m3","No","No Trend","California","Urban And Center City","Oakland West","No","Butadiene","","","","","","","","","","0.0542669809711046","0.147913501567898","0.112948494192777","0.120896230446873","0.0634282858420734","0.0859003246399365","0.0762009356078918","","","",""
"06-001-0012","1,3-Butadiene","37.7936248779297","-122.263374328613","Oakland","","Commercial","","Laney College","meanRos_ug_m3","No","No Trend","California","Urban And Center City","Laney College","No","Butadiene","","","","","","","","","","","","0.122768979652652","0.125252660020034","0.066969524473892","0.0660710392808764","0.087445192254084","","","",""
"06-001-1001","1,3-Butadiene","37.535831451416","-121.961822509766","Fremont","","Residential","","Fremont - Chapel Way","meanRos_ug_m3","No","No Trend","California","Suburban","Fremont - Chapel Way","No","Butadiene","0.187456453666594","0.119748555946179","0.156828924083634","0.132527290197481","0.127889433023958","0.09203878489207","0.108995439726249","","","","","","","","","","","","",""
"06-007-0002","1,3-Butadiene","39.7573699951172","-121.843284606934","Chico","","Commercial","","468 MANZANITA AVE, CHICO","meanRos_ug_m3","No","No Trend","California","Suburban","Chico-Manzanita Ave.","No","Butadiene","0.257287475775268","0.292597928737261","0.24678457105947","0.126149942191948","0.145110404390934","0.176788555682506","0.164671427395628","0.136890686418985","0.177984142689756","","","","","","","","","","",""
"06-007-0008","1,3-Butadiene","39.7615394592285","-121.841621398926","Chico","","Commercial","","Chico - East Avenue","meanRos_ug_m3","No","No Trend","California","Suburban","Chico-East Avenue","No","Butadiene","","","","","","","","","","","0.145104348768849","0.0708934938370046","0.114863374954773","0.0905946436260258","","0.106412859475042","0.0536236642124744","","","0.0671528412981019"
"06-013-0002","1,3-Butadiene","37.9360122680664","-122.026153564453","Concord","","Residential","","Concord","meanRos_ug_m3","No","No Trend","California","Suburban","Concord","No","Butadiene","0.325126338784502","","","","","","","","","0.0291789926223289","0.0693197162614988","0.0665590851242526","0.0447003733223986","","","","","","",""
"06-013-0006","1,3-Butadiene","37.9481735229492","-122.364852905273","Richmond","","Industrial","","Richmond - 7th St","meanRos_ug_m3","No","No Trend","California","Urban And Center City","Richmond - 7th St.","No","Butadiene","0.298434903426725","","","","","","","","","0.0293967145688367","0.0813555561551757","0.0653797404763017","0.0488670255679498","","","","","","",""
"06-013-1001","1,3-Butadiene","38.0549201965332","-122.23323059082","Crockett","","Industrial","","Crockett - Kendall Ave","meanRos_ug_m3","No","Undetermined","California","Suburban","Crockett - Kendall Ave","No","Butadiene","","","","","","","","","","0.0236725788951495","0.0636286392407236","0.0482866440491394","0.0283766107533787","","","","","","",""
"06-013-1002","1,3-Butadiene","38.0063095092773","-121.641914367676","Bethel Island","","Agricultural","","Bethel Island","meanRos_ug_m3","No","Undetermined","California","Rural","Bethel Island","No","Butadiene","","","","","","","","","","0.0149161833179343","","0.0455254898660938","0.0232773150057525","","","","","","",""
"06-013-1004","1,3-Butadiene","37.9603996276855","-122.356811523438","San Pablo","","Commercial","","SAN PABLO RUMRILL","meanRos_ug_m3","No","No Trend","California","Urban And Center City","San Pablo","No","Butadiene","","0.260391285025491","","0.25723092329961","","","","","","0.0434828753286957","0.0983136760425121","0.0844101489211122","0.069743811581205","","","","","","",""
"06-013-2001","1,3-Butadiene","38.0128173828125","-122.134468078613","Martinez","","Residential","","Martinez - Jones St.","meanRos_ug_m3","No","Undetermined","California","Urban And Center City","Martinez - Jones St.","No","Butadiene","","","","","","","","","","0.0372454937960306","0.0862497701359394","0.0701808481714816","0.0648385179539363","","","","","","",""
"06-013-3001","1,3-Butadiene","38.0292587280273","-121.896865844727","Pittsburg","","Residential","","Pittsburg - W 10th St.","meanRos_ug_m3","No","Undetermined","California","Urban And Center City","Pittsburg - W 10th St.","No","Butadiene","0.291756304615991","0.226955530057146","0.242618639355974","0.261508745939286","","","","","","","","","","","","","","","",""
"06-019-0008","1,3-Butadiene","36.7813339233398","-119.773193359375","Fresno","","Residential","","PM Supersite: Fresno","meanRos_ug_m3","No","Decreasing","California","Suburban","3425 N FIRST ST, FRESNO","No","Butadiene","0.280981687892179","0.217124158128639","0.248524839872814","0.199086871432205","0.207166210070009","0.165850087134027","0.182097056621194","0.140958944110613","0.186155850148142","","","","","","","","","","",""
"06-019-0011","1,3-Butadiene","36.7853202819824","-119.77417755127","Fresno","","Commercial","","Fresno - Garland","meanRos_ug_m3","No","No Trend","California","Urban And Center City","Fresno - Garland","No","Butadiene","","","","","","","","","","0.0920587057549207","0.221118027856594","0.142062393837719","0.127623260328277","0.140548248078487","0.111538598823052","0.109921603966699","0.0988329210403982","","",""
"06-019-3002","1,3-Butadiene","36.6071701049805","-119.540679931641","Parlier","","Agricultural","","PARLIER","meanRos_ug_m3","No","Undetermined","California","Urban And Center City","PARLIER","No","Butadiene","","","","0.127264532430984","","","","","","","","","","","","","","","",""
"06-025-0005","1,3-Butadiene","32.6761856079102","-115.484146118164","Calexico","","Residential","","CALEXICO HIGH SCHOOL  ARB (#1300698)","meanRos_ug_m3","Yes","Decreasing","California","Suburban","Calexico-Ethel Street","No","Butadiene","0.47095388087981","0.437976035862604","0.435341741868428","0.444819376606627","0.406583925199794","0.284258017708394","0.287922130519281","0.289082229272982","0.260134240558176","2.93001019354871","0.260458997741974","0.273412100266801","0.235004820809168","0.291600881392173","0.168915397654087","0.173037699701654","0.115230142859841","","0.120463920232555","0.183639612946307"
"06-029-0014","1,3-Butadiene","35.3566017150879","-119.063545227051","Bakersfield","","Mobile","","Bakersfield-California Avenue","meanRos_ug_m3","Yes","Decreasing","California","Urban And Center City","Bakersfield-California","No","Butadiene","0.146438411167234","0.144895831565061","0.148243454777674","0.152074567581099","0.117786361707197","0.151273156089377","0.153809196977184","0.127601416043639","0.112191754819937","0.115143966743359","0.110128565687746","","0.117643298488498","0.105253869966137","","0.0729579350094458","","","0.0641354130549218","0.0692289796145656"
"06-037-0002","1,3-Butadiene","34.1365013122559","-117.92391204834","Azusa","","Residential","","Azusa","meanRos_ug_m3","No","Decreasing","California","Suburban","Azusa","No","Butadiene","0.188884671601386","0.177106296960842","0.170785385006033","0.132552748222712","0.630382915295788","0.35365713344949","0.119119357932987","0.116028705358612","0.138056386322752","0.0815613998035834","0.0807865016928287","0.101375293184094","0.0822601120896426","0.107049531262548","","","","","",""
"06-037-1002","1,3-Butadiene","34.1760482788086","-118.317123413086","Burbank","","Commercial","","MATES: Burbank","meanRos_ug_m3","No","Decreasing","California","Urban And Center City","Burbank","No","Butadiene","0.404336397289428","0.322329271752114","0.330912035738426","0.234785028096456","0.304172653905442","0.29777018048992","0.317543684287385","0.276235552304393","0.25768271861253","0.220793707999988","0.236161110557568","","","","","","","","",""
"06-037-1103","1,3-Butadiene","34.0665893554688","-118.22688293457","Los Angeles","Los Angeles, CA","Residential","Urban ","UATMP: CELA; NATTS: Los Angeles, CA; MATES: Central Los Angeles","meanRos_ug_m3","Yes","Decreasing","California","Urban And Center City","Los Angeles-North Main Street","Yes","Butadiene","0.412104805831643","0.273538060920331","0.257667319322816","0.200748867638992","0.210682866714697","0.187959297418089","0.214503906083349","0.170753095361934","0.148335896100638","0.190835633787197","0.204725748251215","0.155881891616488","0.160551349636423","0.138629480981883","0.134589886082491","0.120860665692741","0.130647824603622","0.154051864537734","0.091736151571879","0.102276162823831"
"06-037-1302","1,3-Butadiene","33.9013900756836","-118.205001831055","Compton","","Residential","","MATES: Compton","meanRos_ug_m3","No","Undetermined","California","Urban And Center City","Compton","No","Butadiene","","0.389111082511796","0.378578204324942","","","","","","","","","","","","","0.252005081139404","","","",""
"06-037-1601","1,3-Butadiene","34.0140686035156","-118.060562133789","Pico Rivera","","Commercial","","MATES: Pico Rivera","meanRos_ug_m3","No","Undetermined","California","Suburban","","No","Butadiene","","0.259866691269987","0.29708345347844","","","","","","","","","","","","","","","","",""
"06-037-1602","1,3-Butadiene","34.0119400024414","-118.069946289063","Pico Rivera","","Commercial","","Pico Rivera #2","meanRos_ug_m3","No","Undetermined","California","Suburban","Pico Rivera #2","No","Butadiene","","","","","","","","","","","","","","","","0.161421073166245","","","",""
"06-037-4002","1,3-Butadiene","33.8237609863281","-118.189208984375","Long Beach","","Residential","","UATMP: LBHCA; MATES: North Long Beach","meanRos_ug_m3","No","Decreasing","California","Suburban","Long Beach (North)","No","Butadiene","0.330749124157725","0.254085079545066","0.213247124906797","0.177077056282259","0.217497976401986","0.212088783867151","0.235928168963282","0.166049995422165","0.244827111498762","0.17383358851794","0.168904800978829","","","","","","","","",""
"06-037-4006","1,3-Butadiene","33.8014869689941","-118.220306396484","Long Beach","","","","MATES: West Long Beach","meanRos_ug_m3","No","Undetermined","California","","Long Beach (Hudson)","No","Butadiene","","","","","","","","","","","","","","","","0.183924321403129","","","",""
"06-037-BURK","1,3-Butadiene","34.2616271972656","-118.412261962891","Pacoima","","","","MATES: Burbank Area","meanRos_ug_m3","No","Undetermined","California","","","No","Butadiene","","","","","","","","","","","","","","","","0.0954441240855626","","","",""
"06-037-CELM","1,3-Butadiene","33.8374061584473","-118.331596374512","Torrance","","Residential","","Rule 1180 CAMP: Elm St.","meanRos_ug_m3","No","Undetermined","California","Suburban","","No","Butadiene","","","","","","","","","","","","","","","","","","","2.02834262124232","1.45111077408016"
"06-037-CFMC","1,3-Butadiene","33.782039642334","-118.267501831055","Wilmington","","Residential","","Rule 1180 CAMP: First Methodist Church","meanRos_ug_m3","No","Undetermined","California","Suburban","","No","Butadiene","","","","","","","","","","","","","","","","","","","","0.0203008902729917"
"06-037-CGPA","1,3-Butadiene","33.8703956604004","-118.313400268555","Torrance","","Residential","","Rule 1180 CAMP: Guenser Park","meanRos_ug_m3","No","Undetermined","California","Suburban","","No","Butadiene","","","","","","","","","","","","","","","","","","","","0.0327197268800771"
"06-037-CHPA","1,3-Butadiene","33.7864456176758","-118.286003112793","Wilmington","","Residential","","Rule 1180 CAMP: Harbor Park","meanRos_ug_m3","No","Undetermined","California","Suburban","","No","Butadiene","","","","","","","","","","","","","","","","","","0.0276099095503177","0.0174392338961275","0.0666314410282811"
"06-037-CHUD","1,3-Butadiene","33.8075332641602","-118.219802856445","West Long Beach","","Residential","","Rule 1180 CAMP: Hudson","meanRos_ug_m3","No","Undetermined","California","Suburban","","No","Butadiene","","","","","","","","","","","","","","","","","","","1.93323602705656","0.0208717321724279"
"06-037-CINN","1,3-Butadiene","33.7849807739258","-118.214401245117","Long Beach","","Residential","","Rule 1180 CAMP: Inner Port","meanRos_ug_m3","No","Undetermined","California","Suburban","","No","Butadiene","","","","","","","","","","","","","","","","","","","0.0804051993557598","0.0903883616821773"
"06-037-CJUD","1,3-Butadiene","33.8248634338379","-118.268501281738","Carson","","Residential","","Rule 1180 CAMP: Judson","meanRos_ug_m3","No","Undetermined","California","Suburban","","No","Butadiene","","","","","","","","","","","","","","","","","","0.0425790065118736","2.27632319510712","0.0912687486091873"
"06-037-CMAN","1,3-Butadiene","33.8901710510254","-118.401397705078","Manhattan Beach","","Residential","","Rule 1180 CAMP: Manhattan Beach","meanRos_ug_m3","No","Undetermined","California","Suburban","","No","Butadiene","","","","","","","","","","","","","","","","","","","0.192099621863497","0.00172803840048548"
"06-037-CSTA","1,3-Butadiene","33.918773651123","-118.407997131348","El Segundo","","Residential","","Rule 1180 CAMP: St. Anthony's","meanRos_ug_m3","No","Undetermined","California","Suburban","","No","Butadiene","","","","","","","","","","","","","","","","","","","1.7871874092631","0.115170037389414"
"06-037-CSTL","1,3-Butadiene","33.8213844299316","-118.212097167969","Long Beach","","Residential","","Rule 1180 CAMP: St. Luke's","meanRos_ug_m3","No","Undetermined","California","Suburban","","No","Butadiene","","","","","","","","","","","","","","","","","","0.245480471647076","2.56818607586131","0.0500175704858117"
"06-037-HNPK","1,3-Butadiene","33.9798431396484","-118.215881347656","Huntington Park","","","","MATES: Huntington Park","meanRos_ug_m3","No","Undetermined","California","","","No","Butadiene","","","","","","","","","","","","","","","","0.169673001563007","","","",""
"06-037-L0HP","1,3-Butadiene","33.9832496643066","-118.230697631836","Huntington Park","","","","MATES: Huntington Park","meanRos_ug_m3","No","Undetermined","California","","","No","Butadiene","","0.339957984241967","","","","","","","","","","","","","","","","","",""
"06-037-LWLB","1,3-Butadiene","33.7924194335938","-118.215896606445","Long Beach","","","","MATES: West Long Beach","meanRos_ug_m3","No","Undetermined","California","Urban And Center City","","No","Butadiene","","0.199420338397987","0.190381628107174","0.157534724317468","","","","","","","","","","","","","","","",""
"06-041-0001","1,3-Butadiene","37.9723091125488","-122.520004272461","San Rafael","","Commercial","","San Rafael","meanRos_ug_m3","No","No Trend","California","Urban And Center City","San Rafael","No","Butadiene","0.228706685808943","","","","","","","","","0.0449928941711212","0.095312073969881","0.0848695316350209","0.0575900053934317","","","","","","",""
"06-041-0004","1,3-Butadiene","37.8327255249023","-122.527656555176","Not In A City","","Forest","","FORT CRONKHITE","meanRos_ug_m3","No","Undetermined","California","Rural","Ft. Cronkhite","No","Butadiene","","","","","","","","","","","0.0215149474337659","0.0267887998226405","","","","","","","",""
"06-055-0003","1,3-Butadiene","38.3109436035156","-122.296188354492","Napa","","Commercial","","Napa - Jefferson St.","meanRos_ug_m3","No","No Trend","California","Urban And Center City","Napa","No","Butadiene","0.405700656852591","0.275884005700116","","","","0.0926499606635256","0.0859051718069451","","0.114546106559037","0.0587374731772014","0.153188386743076","0.128296782774258","0.101450744280738","","0.0940968590127775","","","","",""
"06-059-0001","1,3-Butadiene","33.8213539123535","-117.914268493652","Anaheim","","Residential","","MATES: Anaheim","meanRos_ug_m3","No","Undetermined","California","Suburban","Anaheim (1010 Harbor Blvd)","No","Butadiene","","0.146199451680895","0.147133338778218","","","","","","","","","","","","","","","","",""
"06-061-0006","1,3-Butadiene","38.7457275390625","-121.266311645508","Roseville","","Mobile","","Roseville-N Sunrise Blvd","meanRos_ug_m3","No","Decreasing","California","Suburban","Roseville-N Sunrise Ave","No","Butadiene","0.180256998024347","0.118285841672798","0.118046021340077","0.102724133598777","","0.0857195072368358","0.0766719744188912","0.100530123229203","0.10504277479164","","0.0929122884733748","0.0791408546093319","0.0817015162527289","0.0838431934644343","0.0506467500831086","0.0734449099654216","","","","0.0719689903305147"
"06-065-8001","1,3-Butadiene","33.9995803833008","-117.416007995605","Rubidoux","Rubidoux, CA","Residential","Urban ","UATMP: RUCA; NATTS: Rubidoux, CA; MATES: Rubidoux","meanRos_ug_m3","Yes","Decreasing","California","Suburban","Rubidoux","Yes","Butadiene","0.285073115344663","0.170970965738304","0.152708408787335","0.139311748541457","0.1244174519356","0.0996997420304675","0.135290909749371","0.101024509534156","0.0701713333885527","0.106412431063938","0.147758346158953","0.12193880080581","0.102964616707952","0.108294600507287","0.0932384650503942","0.11068468263541","0.113200049916485","0.160947532554913","0.0868230550652545","0.0783202021676863"
"06-071-2002","1,3-Butadiene","34.1000213623047","-117.492012023926","Fontana","","Industrial","","MATES: Inland Valley San Bernardino","meanRos_ug_m3","No","Undetermined","California","Suburban","Fontana","No","Butadiene","","0.16190253928942","0.136964614763492","","","","","","","","","","","","","0.132815787728823","","","",""
"06-073-0001","1,3-Butadiene","32.6312294006348","-117.059074401855","Chula Vista","","Residential","","Chula Vista","meanRos_ug_m3","No","Decreasing","California","Suburban","Chula Vista","No","Butadiene","0.200476741854453","0.165263955784896","0.154287896769694","0.162356354858935","0.128802077472017","0.133400171843912","0.148067274439759","0.118815476519755","0.112754697194411","0.0921488323389823","0.0827679107586353","0.0902814589792604","0.103361892896303","0.115374388191929","0.0943914395880247","0.0862184209738604","","","",""
"06-073-0003","1,3-Butadiene","32.7911949157715","-116.942092895508","El Cajon","","Commercial","","El Cajon","meanRos_ug_m3","No","Decreasing","California","Suburban","El Cajon","No","Butadiene","0.211918978682143","0.188691140155623","0.16301598825482","0.169803072116457","0.178147544070487","0.151045598512281","0.170453253790321","0.136565136570364","0.154263082259633","0.114519882015571","0.138403108615956","","","","","","","","",""
"06-073-1002","1,3-Butadiene","33.1277122497559","-117.075325012207","Escondido","","Commercial","","Escondido","meanRos_ug_m3","No","Decreasing","California","Urban And Center City","Escondido","No","Butadiene","","","","","","","0.207323163509709","0.177318148373713","0.167893004918243","0.14757231956888","0.170472444512395","0.106495635203609","0.0960131248851356","","","","","","",""
"06-073-1010","1,3-Butadiene","32.7014923095703","-117.14965057373","San Diego","","Commercial","","Downtown","meanRos_ug_m3","No","Decreasing","California","Urban And Center City","San Diego - Beardsley Street","No","Butadiene","","","","","","","0.154945583666889","0.134497181731179","0.134383628466559","0.143558476754918","0.122029370669403","0.0927006804297182","0.0785867689092728","","","","","","",""
"06-073-1014","1,3-Butadiene","32.5793609619141","-116.929489135742","Otay Mesa","","Commercial","","Donovan","meanRos_ug_m3","No","No Trend","California","Rural","Donovan","No","Butadiene","","","","","","","","","","","","","0.0564157269289524","","0.0623082572968341","0.0569516666427565","0.0507690172319511","0.0822528447272216","0.0482471355353482",""
"06-073-1018","1,3-Butadiene","32.8179779052734","-116.968132019043","El Cajon","","Commercial","","El Cajon - Floyd Smith Drive","meanRos_ug_m3","No","Undetermined","California","Suburban","El Cajon - Floyd Smith Dr.","No","Butadiene","","","","","","","","","","","","","0.109730443400199","","","","","","",""
"06-073-1022","1,3-Butadiene","32.7895622253418","-116.944221496582","El Cajon","","Commercial","","El Cajon - Lexington Elementary School","meanRos_ug_m3","No","No Trend","California","Suburban","El Cajon - Lexington Elementary School","No","Butadiene","","","","","","","","","","","","","","","0.089186142853117","0.0933102037707864","0.0785574794567678","","0.0594067318455747","0.0621089947281801"
"06-073-1026","1,3-Butadiene","32.7101783752441","-117.14266204834","San Diego","","Commercial","","San Diego - Sherman Elementary School","meanRos_ug_m3","No","Undetermined","California","Urban And Center City","San Diego - Sherman Elementary School","No","Butadiene","","","","","","","","","","","","","","","","","","0.108082006539453","0.0549466140271926",""
"06-073-2007","1,3-Butadiene","32.5521621704102","-116.937774658203","San Diego","","Mobile","","Otay Mesa","meanRos_ug_m3","No","No Trend","California","Rural","Otay Mesa","No","Butadiene","","","","","","","0.318057555208604","0.259080157252958","0.304302673254694","0.27268952944062","0.275114889027642","0.218021805660847","","","","","","","",""
"06-075-0005","1,3-Butadiene","37.7659454345703","-122.399040222168","San Francisco","","Industrial","","San Francisco - Arkansas St.","meanRos_ug_m3","No","Decreasing","California","Urban And Center City","San Francisco","No","Butadiene","0.237454597094345","0.217532075844742","0.124791218635192","0.147723508125596","0.121385772852709","0.0973512596559591","0.113523621201652","0.109829287204994","0.118599643248537","0.0688710708999241","0.113469965415456","0.0971832764231496","0.086471750325344","0.056648369386424","","","","","",""
"06-077-1002","1,3-Butadiene","37.950740814209","-121.268524169922","Stockton","","Residential","","HAZELTON-HD, STOCKTON","meanRos_ug_m3","No","Decreasing","California","Urban And Center City","Stockton-Hazelton","No","Butadiene","0.203942726172655","0.184233912115764","0.198297367854149","0.150177259563221","0.141910506203647","0.0887110310655386","0.135020510824119","0.101906387638011","0.146503333915136","0.054626101228382","0.160488199013247","0.100689093714293","0.109863960740611","0.120677341296341","0.0900153710090344","0.0935634477579318","0.0675995569704633","","",""
"06-077-1003","1,3-Butadiene","37.9615783691406","-121.281410217285","Stockton","","","","Stockton - University Park","meanRos_ug_m3","No","Undetermined","California","","Stockton - University Park","No","Butadiene","","","","","","","","","","","","","","","","","","","","0.0968066250158315"
"06-081-1001","1,3-Butadiene","37.4829330444336","-122.203369140625","Redwood City","","Industrial","","Redwood City","meanRos_ug_m3","No","No Trend","California","Suburban","Redwood City","No","Butadiene","0.294206536032794","","","0.3188660531722","","0.0950873325226197","0.10604822019801","0.0818851533482313","0.0851927347827229","0.0603284867136343","0.161110418545437","0.169156456632274","0.114917144913803","0.0797894965501715","","","","","",""
"06-085-0005","1,3-Butadiene","37.3484954833984","-121.894897460938","San Jose","San Jose, CA","Commercial","Urban ","UATMP: SJCA; NATTS: San Jose, CA","meanRos_ug_m3","Yes","Decreasing","California","Urban And Center City","San Jose - Jackson","Yes - Former","Butadiene","0.425970057310309","0.34190191119267","0.25390653165143","0.242956043214157","0.167921944296698","0.145542632184237","0.156782687657816","0.124245123466379","0.150729237433727","0.085249639548055","0.203786052077813","0.16943285962353","0.180596584019562","0.108609344285124","0.114175125873863","0.107462968722535","0.0906340602251198","0.0555378829790213","","0.086294173943986"
"06-085-0006","1,3-Butadiene","37.338134765625","-121.849784851074","San Jose","","Mobile","","San Jose Knox Ave.","meanRos_ug_m3","No","Undetermined","California","Urban And Center City","San Jose - Knox Avenue","No","Butadiene","","","","","","","","","","","","","0.186430893961466","0.0800015984991756","","0.117170187565163","","","",""
"06-085-2009","1,3-Butadiene","37.3184356689453","-122.069702148438","Cupertino","","Residential","","Cupertino Monta Vista","meanRos_ug_m3","No","Undetermined","California","Suburban","Cupertino Monta Vista","No","Butadiene","","","","","","","","","","0.0318321519835481","0.0540401216261044","","","","","","","","",""
"06-095-0004","1,3-Butadiene","38.1025085449219","-122.237976074219","Vallejo","","Commercial","","Vallejo - Tuolumne St.","meanRos_ug_m3","No","No Trend","California","Urban And Center City","Vallejo","No","Butadiene","0.372592720698488","0.268727237543021","","0.224103946894694","","","","","0.0840489027574881","0.0380657400030604","0.151445208435271","0.108561954228264","0.0878444249846884","","","","","","",""
"06-097-0003","1,3-Butadiene","38.4435043334961","-122.710166931152","Santa Rosa","","Commercial","","Santa Rosa - 5th St","meanRos_ug_m3","No","No Trend","California","Urban And Center City","Santa Rosa - 5th St","No","Butadiene","0.337598801322942","0.281806709355346","","","","0.0810492087929017","","","0.117062812501503","0.0398268666501264","0.106234291260371","","","","","","","","",""
"06-097-0004","1,3-Butadiene","38.4037666320801","-122.818290710449","Sebastopol","","Commercial","","Sebastopol","meanRos_ug_m3","No","Undetermined","California","Urban And Center City","Sebastopol","No","Butadiene","","","","","","","","","","","","0.0793231080965083","0.0581089902694855","","","","","","",""
"06-111-2002","1,3-Butadiene","34.2763633728027","-118.683753967285","Simi Valley","","Residential","","SIMI VALLEY","meanRos_ug_m3","No","Decreasing","California","Suburban","Simi Valley-Cochran Street","No","Butadiene","0.147226876629905","0.119487947848065","0.113023489092974","0.116049218095521","0.0962920481741268","0.085130675502654","0.0960527609019886","0.0740159218123279","0.080394888852272","","0.0841783583819064","","0.062740549059308","0.0958264823504348","","","","","",""
"08-045-0005","1,3-Butadiene","39.4536552429199","-108.053260803223","Parachute","","Residential","","UATMP: PACO; PARACHUTE - HIGH SCHOOL","meanRos_ug_m3","No","Decreasing","Colorado","Urban And Center City","PARACHUTE - HIGH SCHOOL","No","Butadiene","","","","","","0.0527469574313092","0.0835045720806873","0.0829167235432927","0.077279799005194","0.0715105425753555","","0.0453663718246678","","","","0.0228277143904803","0.0146061404927222","","",""
"08-045-0007","1,3-Butadiene","39.5318145751953","-107.782295227051","Rifle","","Commercial","","UATMP: RICO; RIFLE - HENRY BLDG","meanRos_ug_m3","No","Decreasing","Colorado","Urban And Center City","RIFLE - HENRY BLDG","No","Butadiene","","","","","","0.10995194046389","0.110146002900378","0.177069819244297","0.17205334891144","0.158171088538369","0.0997214996876331","0.101955734845422","0.0801102625055944","0.0748932309650422","","","","","",""
"08-045-0009","1,3-Butadiene","39.4877548217773","-107.659683227539","Silt","","Agricultural","","UATMP: BRCO","meanRos_ug_m3","No","Undetermined","Colorado","Rural","","No","Butadiene","","","","","","","","","","0.067815142660398","","","","","","","","","",""
"08-045-0018","1,3-Butadiene","39.4122772216797","-107.230400085449","Not In A City","","Residential","","UATMP: RFCO; CMC Boat House","meanRos_ug_m3","No","No Trend","Colorado","Rural","Carbondale Rocky Mountain School (Boathouse)","No","Butadiene","","","","","","","","","","","0.0238244562637041","0.0418663013071125","0.0269982869209903","","0.0141707919264034","0.0171379433361821","0.0222049788955085","","",""
"08-045-0019","1,3-Butadiene","39.438060760498","-108.026107788086","Battlement Mesa","","Commercial","","Battlement Mesa","meanRos_ug_m3","No","Undetermined","Colorado","Suburban","Battlement Mesa","No","Butadiene","","","","","","","","","","0.0753668036432369","","","","","","0.00916614922754268","","","",""
"08-045-0020","1,3-Butadiene","39.5463981628418","-107.328598022461","Glenwood Springs","","Commercial","","Vogelaar Park, Glenwood Springs","meanRos_ug_m3","No","Undetermined","Colorado","Suburban","Vogelaar Park, Glenwood Springs","No","Butadiene","","","","","","","","","","","","","0.0279666848308278","","","","","","",""
"08-045-0023","1,3-Butadiene","39.5306816101074","-107.782249450684","Rifle","","Commercial","","Garfield County Library","meanRos_ug_m3","No","Undetermined","Colorado","Urban And Center City","Garfield County Library","No","Butadiene","","","","","","","","","","","","","","","0.0534565293259192","0.0786127282966373","0.0670360230790348","0.0711922058408668","",""
"08-077-0018","1,3-Butadiene","39.0642890930176","-108.561546325684","Grand Junction","Grand Junction, CO","Commercial","Urban ","UATMP: GPCO; NATTS: Grand Junction, CO","meanRos_ug_m3","Yes","Decreasing","Colorado","Urban And Center City","GRAND JUNCTION - PITKIN","Yes","Butadiene","","0.184272489801365","0.16993997587539","0.178579938002195","0.139709067200461","0.129319931853746","0.143695307279921","0.120067301812941","0.123612416060476","0.160067583824838","0.134820141692142","0.148540425784232","0.114056557528675","0.0981800726524765","0.108956320152858","0.119832282479514","0.0896851301984731","0.0691459669622836","0.0849054016930572","0.0603328031642983"
"10-001-0002","1,3-Butadiene","38.9866714477539","-75.5568008422852","Not In A City","","Agricultural","","PROPERTY OF KILLENS POND STATE PARK; BEHIND FARM BUILDINGS","meanRos_ug_m3","No","Undetermined","Delaware","Rural","PROPERTY OF KILLENS POND STATE PARK; BEHIND FARM BUILDINGS","No","Butadiene","0.0426627529984691","0.0353899862977828","0.0358230690211446","","","","","","","","","","","","","","","","",""
"10-003-1007","1,3-Butadiene","39.5513000488281","-75.7320022583008","Not In A City","","Agricultural","","PAMS: Lums Pond; NADP: DE99","meanRos_ug_m3","No","Undetermined","Delaware","Rural","Lums Pond","No","Butadiene","0.0745353704013897","0.0567203902584607","0.0775692340911328","","","","","","","","","","","","","","","","",""
"10-003-1008","1,3-Butadiene","39.5776786804199","-75.6035995483398","Delaware City","","Agricultural","","Route 9 Delaware City","meanRos_ug_m3","No","Decreasing","Delaware","Rural","Route 9 Delaware City","No","Butadiene","0.101403857756346","0.0703394818697479","0.0971110153752153","0.0646074448895473","0.0923285497926272","0.0602057926406709","0.0984242052203503","0.0529395174805081","0.0262641826447456","0.0669790037360828","0.0459430767115875","0.0285851516162773","0.051418424329776","","","","","","",""
"10-003-2004","1,3-Butadiene","39.739444732666","-75.5580596923828","Wilmington","","Commercial","","CORNER OF MLK BLVD AND JUSTISON ST, NO TRAFFIC DATA AVAILABLE","meanRos_ug_m3","No","Decreasing","Delaware","Urban And Center City","MLK  CORNER OF MLK BLVD AND JUSTISON ST","No","Butadiene","0.31768287795371","0.18798333519511","0.187953515666317","0.176928018668693","0.186176089014401","0.152908939955969","0.140742484543283","0.125937051959336","0.0665954615065682","0.131035378127266","0.103981503630524","0.106565116200691","0.117484231545393","","0.0474434710418515","","","","",""
"10-005-1002","1,3-Butadiene","38.6539001464844","-75.6106033325195","Seaford","","Residential","","Seaford Shipley State Service Center","meanRos_ug_m3","No","Undetermined","Delaware","Suburban","Seaford Shipley State Service Center","No","Butadiene","0.0727459829501294","0.0525856690349384","0.05379689362981","","","","","","","","","","","","","","","","",""
"11-001-0043","1,3-Butadiene","38.9218482971191","-77.0131759643555","Washington","Washington, DC","Commercial","Urban ","UATMP: WADC; NATTS: Washington, D.C.","meanRos_ug_m3","No","Decreasing","District of Columbia","Urban And Center City","MCMILLAN  NCore-PAMS","Yes","Butadiene","","0.16319607623588","0.194845900939532","0.134374850618189","0.175632223044917","0.124679674352476","0.138327249501248","0.112185116726578","0.0436855924213425","0.106490918476813","0.0720647666419752","0.0626133227766238","0.0745590022533091","0.0803883672766252","0.0546780990720535","","","","",""
"12-011-0010","1,3-Butadiene","26.1286106109619","-80.1672210693359","Fort Lauderdale","","Residential","","SITE # 28","meanRos_ug_m3","No","No Trend","Florida","Suburban","Lincoln Park Elementary","No","Butadiene","","","","","","","","0.0945284783486219","0.0848271490383224","0.0845144221900662","0.0633570714215031","","0.0727641799898963","","","","","","",""
"12-011-0033","1,3-Butadiene","26.0735359191895","-80.3384475708008","Davie","","Residential","","Vista View Park","meanRos_ug_m3","No","Undetermined","Florida","Suburban","Vista View Park","No","Butadiene","","","","","","","","","","","","","0.014491972075541","","","","","","",""
"12-011-0034","1,3-Butadiene","26.0538883209229","-80.2569427490234","Davie","","Residential","","Daniela Banu NCORE","meanRos_ug_m3","No","Undetermined","Florida","Suburban","Daniela Banu NCORE","No","Butadiene","","","","","","","","","","","","","","","0.0435660431914498","","","","","0.0264253926553075"
"12-011-1002","1,3-Butadiene","26.0831432342529","-80.2375869750977","Davie","","Commercial","","UATMP: FLFL","meanRos_ug_m3","No","No Trend","Florida","Suburban","U of F Ag Research Center","No","Butadiene","","","0.18272968611934","","","0.0517356988416306","0.0547403118534182","0.0391954024959493","0.0545218952319567","0.123011116927738","0.0316717183816789","","","","","","","","",""
"12-011-2004","1,3-Butadiene","26.2175827026367","-80.1275482177734","Pompano Beach","","Commercial","","UATMP: FLFL(2)","meanRos_ug_m3","No","Undetermined","Florida","Suburban","","No","Butadiene","","","0.155953071290128","","","","","","","","","","","","","","","","",""
"12-011-3002","1,3-Butadiene","26.0012016296387","-80.1603240966797","Holleywood","","Commercial","","SITE #18","meanRos_ug_m3","No","Undetermined","Florida","Suburban","","No","Butadiene","0.215142614021307","","","","0.0776887978103427","","","","","","","","","","","","","","",""
"12-011-5005","1,3-Butadiene","26.2941665649414","-80.1763916015625","Coconut Creek","","Residential","","UATMP: CCFL; SITE #30","meanRos_ug_m3","No","No Trend","Florida","Suburban","Coconut Creek","No","Butadiene","","","0.185181935440819","","","0.0477220057473099","0.0518428271279721","0.0265519014079902","0.0381642840283066","","","","","","","","","","",""
"12-011-8002","1,3-Butadiene","26.0884208679199","-80.1111907958984","J.U. Lloyd State Park","","Residential","","SITE # 25","meanRos_ug_m3","No","No Trend","Florida","Suburban","Dr. Von Mizell-Eula Johnson State Park (prev. John U Lloyd State Park)","No","Butadiene","","","","","","","","0.0538012212830536","0.0311091629279349","0.0895826820650719","0.0279236276168409","","0.0320478031379744","","","","","","",""
"12-057-1065","1,3-Butadiene","27.8925228118896","-82.5384292602539","Tampa","","Commercial","","UATMP: GAFL; NADP: FL18; PILOT CITY: Gandy","meanRos_ug_m3","No","No Trend","Florida","Suburban","USMC Reserve Center (Gandy)","No","Butadiene","0.0993953506141639","0.0910158484906588","0.149343430238255","0.109730926725328","0.0585843552100031","0.0563562434233193","","","","","","","","","","","","","",""
"12-057-1075","1,3-Butadiene","28.0502967834473","-82.3778686523438","Tampa","","Residential","","UATMP: LEFL; PILOT CITY: Lewis","meanRos_ug_m3","No","Undetermined","Florida","Urban And Center City","WHITEWAY DRIVE TAMPA","No","Butadiene","0.109411233639132","","","","","","","","","","","","","","","","","","",""
"12-057-3002","1,3-Butadiene","27.9656505584717","-82.2304000854492","Plant City","Tampa, FL","Residential","Urban ","UATMP: SYFL; NATTS: Tampa, FL","meanRos_ug_m3","Yes","Decreasing","Florida","Rural","SYDNEY","Yes","Butadiene","","0.0830284820075288","0.129455212590248","0.0946605752155508","0.0464711737663796","0.0514216274505208","0.0533518095531302","0.0531857574015752","0.0493119859136641","0.0454635021372563","0.0368329903795604","0.0467112485958351","0.0344173116145071","0.0469627550803125","0.0488103435195067","0.0359393011935129","0.0382437825691505","0.0346352013985911","0.0350697404244077","0.0426437066196336"
"12-073-0012","1,3-Butadiene","30.4397220611572","-84.3463897705078","Tallahassee","","Commercial","","Tallahassee Community College","meanRos_ug_m3","No","Undetermined","Florida","Suburban","Tallahassee Community College","No","Butadiene","","","","","","","","0.134903724552056","0.0637718896065749","","","","","","","","","","",""
"12-086-0032","1,3-Butadiene","25.8758296966553","-80.25830078125","Miami","","Commercial","","","meanRos_ug_m3","No","Undetermined","Florida","Urban And Center City","","No","Butadiene","","0.180592879844018","","","","","","","","","","","","","","","","","",""
"12-095-2002","1,3-Butadiene","28.5963897705078","-81.3625030517578","Winter Park","","Commercial","","UATMP: ORFL","meanRos_ug_m3","No","Decreasing","Florida","Urban And Center City","WINTER PARK","No","Butadiene","","","0.17247423844205","0.121708093418835","0.0701936050757485","0.0632942159361434","","0.0607918768388326","0.0501646632786657","0.0475450879102798","0.0370345394861207","0.0494095360828281","","0.0444327224045992","","","","","",""
"12-103-0004","1,3-Butadiene","27.9466876983643","-82.7317657470703","Clearwater","","Commercial","","UATMP: CWFL","meanRos_ug_m3","No","Undetermined","Florida","Suburban","St. Petersburg College","No","Butadiene","0.136523797392091","","","","","","","","","","","","","","","","","","",""
"12-103-0018","1,3-Butadiene","27.7858657836914","-82.739875793457","St. Petersburg","","Residential","","UATMP: AZFL; PILOT CITY: Azalea Park","meanRos_ug_m3","Yes","Decreasing","Florida","Suburban","Azalea Park","No","Butadiene","0.175995673044774","0.144628116115141","0.191879113515218","0.13401933789893","0.0721442448456996","0.0686189922977422","0.0631919913146584","0.0754885581969205","0.0554752283530789","0.0552274807762863","0.0448606153765247","0.0523060974559523","0.0351865372992666","0.0474517889944219","0.044186757450933","0.0347734885509177","0.0371061934611251","0.0360170607929615","0.0292102428503305","0.0342212687894091"
"12-103-0026","1,3-Butadiene","27.8503475189209","-82.7144622802734","Pinellas Park","Pinellas County, FL","Residential","Urban ","UATMP: SKFL; NATTS: Pinellas County, FL","meanRos_ug_m3","Yes","Decreasing","Florida","Suburban","Skyview","Yes","Butadiene","","","0.210722704027177","0.167797729239791","0.0862199360194306","0.0918910776575406","0.0995437514159035","0.098033033401495","0.0768307892330846","0.0931738508477079","0.0593001686989523","0.0778685873842842","0.0502575258700091","0.067146158295994","0.078984858753234","0.0541714395653328","0.0503812690158604","0.0463449516286321","0.0409198847111929","0.0389722706573687"
"13-021-0012","1,3-Butadiene","32.805362701416","-83.5435180664063","Macon","","Industrial","","Macon SE","meanRos_ug_m3","No","Undetermined","Georgia","Rural","Macon-Forestry","No","Butadiene","","","","","","","","","","","","","","","","0.243181470359091","","","",""
"13-051-0021","1,3-Butadiene","32.0691833496094","-81.0487442016602","Savannah","","Commercial","","Savannah-E. President Street","meanRos_ug_m3","No","Undetermined","Georgia","Suburban","Savannah-E. President","No","Butadiene","","","","","","","","","","","","","","","","0.131081772581523","","","",""
"13-069-0002","1,3-Butadiene","31.513126373291","-82.7500076293945","Douglas","","Agricultural","","General Coffee","meanRos_ug_m3","No","Undetermined","Georgia","Rural","General Coffee","No","Butadiene","","","","","","","","","","","","","","","","0.0878146273562865","","","",""
"13-089-0002","1,3-Butadiene","33.6880798339844","-84.2901763916016","Decatur","Atlanta, GA","Residential","Urban ","UATMP: SDGA; NATTS: South DeKalb, GA; PAMS: South DeKalb; IMPROVE: ATLA1","meanRos_ug_m3","No","No Trend","Georgia","Suburban","South DeKalb","Yes","Butadiene","","","","","","","","","","","","","","","","0.204810705358356","0.250920179031663","0.257944188515345","0.298940717081088","0.220638482419194"
"13-089-0003","1,3-Butadiene","33.6985511779785","-84.2726669311523","Atlanta","","Commercial","","DMRC","meanRos_ug_m3","No","No Trend","Georgia","Suburban","NR-285","No","Butadiene","","","","","","","","","","","","","","","","0.312658900207658","0.381486805688058","0.347898491688313","0.427377245570076","0.352958877240458"
"15-003-2004","1,3-Butadiene","21.3928337097168","-157.969131469727","Pearl City","","Residential","","PEARL CITY","meanRos_ug_m3","No","Undetermined","Hawaii","Urban And Center City","Pearl City","No","Butadiene","2.5947018012874","","","","","","","","","","","","","","","","","","",""
"16-069-0006","1,3-Butadiene","46.4295616149902","-116.99242401123","Lewiston","","Industrial","","","meanRos_ug_m3","No","Undetermined","Idaho","Suburban","","No","Butadiene","","","","0.151110924422168","","","","","","","","","","","","","","","",""
"16-069-0009","1,3-Butadiene","46.4177780151367","-117.018608093262","Lewiston","","Commercial","","","meanRos_ug_m3","No","Undetermined","Idaho","Urban And Center City","","No","Butadiene","","","","0.215254452791722","","","","","","","","","","","","","","","",""
"16-069-0012","1,3-Butadiene","46.4083518981934","-116.992530822754","Lewiston","","Residential","","SUNSET PARK LOCATION, BETWEEN CITY CENTER AND POTLACH CORP.,","meanRos_ug_m3","No","Undetermined","Idaho","Suburban","SUNSET PARK LOCATION, BETWEEN CITY CENTER AND POTLACH CORP.,","No","Butadiene","","","","0.123044379715027","","","","","","","","","","","","","","","",""
"16-069-0013","1,3-Butadiene","46.3972015380859","-116.806198120117","Lapwei","","Residential","","","meanRos_ug_m3","No","Undetermined","Idaho","Rural","","No","Butadiene","","","","0.114015679205175","","","","","","","","","","","","","","","",""
"16-069-0222","1,3-Butadiene","46.4380874633789","-116.905181884766","Not In A City","","Commercial","","","meanRos_ug_m3","No","Undetermined","Idaho","Rural","","No","Butadiene","","","","0.106825655962048","","","","","","","","","","","","","","","",""
"17-031-3103","1,3-Butadiene","41.9651947021484","-87.8762664794922","Schiller Park","","Mobile","","UATMP: SPIL","meanRos_ug_m3","Yes","Decreasing","Illinois","Suburban","IEPA TRAILER","No","Butadiene","0.249497738742176","0.20166483711244","0.148525331770599","0.153067307317241","0.125719800016434","0.115766561083626","0.0885149752563339","0.146684384424838","0.161575777124217","0.139949765737727","0.131423650720317","0.130832041405565","0.123853675896923","0.115256264805794","0.11319847101148","0.129864901987215","0.097634678124595","0.0723883373368727","0.0910600140922393","0.0813048386813274"
"17-031-4201","1,3-Butadiene","42.1399955749512","-87.7992248535156","Northbrook","Chicago, IL","Residential","Urban ","UATMP: NBIL; NATTS: Chicago, IL","meanRos_ug_m3","Yes","Decreasing","Illinois","Suburban","NORTHBROOK WATER PLANT","Yes","Butadiene","0.184820989283227","","0.0633408725842034","0.0543992929908842","0.0471734912513671","0.0446958582026166","0.0377192447545827","0.079735117553512","0.125484204731466","0.0825800275647881","0.0376761499177141","0.0474327815435986","0.0406880863405589","0.0385446197602128","0.038744513255812","0.0416548499137541","0.0382622556398316","0.0305726478660338","0.0312036287912797","0.0352489665779808"
"17-119-9010","1,3-Butadiene","38.8483810424805","-90.076416015625","Roxana","","Industrial","","UATMP: ROIL; Phillips 66 Wood River Refinery","meanRos_ug_m3","No","Undetermined","Illinois","Suburban","Phillips 66 Wood River Refinery","No","Butadiene","","","","","","","","","","","0.0604921807109211","0.0763035491031304","","","","","","","",""
"18-003-0004","1,3-Butadiene","41.0949668884277","-85.1018142700195","Fort Wayne","","Commercial","","Ft. Wayne- Beacon St.","meanRos_ug_m3","No","Undetermined","Indiana","Suburban","Ft. Wayne- Beacon St.","No","Butadiene","","0.0502576587316587","0.0349123150576076","0.0816483146467061","0.0316255761277903","","","","","","","","","","","","","","",""
"18-019-0009","1,3-Butadiene","38.276683807373","-85.7637634277344","Clarksville","","Residential","","Clarksville","meanRos_ug_m3","No","No Trend","Indiana","Urban And Center City","Clarksville","No","Butadiene","","","","","","0.136600273339475","0.131826917756435","0.16384065027716","0.253022843859519","0.45809403209855","0.162960517078133","0.114349825901731","0.788610000936162","0.286880562222398","0.166577559760435","0.131368205543965","0.142499290953881","0.0746574963674147","0.0901263753422744","0.0813707100218179"
"18-039-0003","1,3-Butadiene","41.6678276062012","-85.9694442749023","Elkhart","","Commercial","","SAMPLERS ARE ON THE ROOF ON THE WEST SIDE OF THE SCHOOL","meanRos_ug_m3","No","No Trend","Indiana","Urban And Center City","SAMPLERS ARE ON THE ROOF ON THE WEST SIDE OF THE SCHOOL","No","Butadiene","0.167316139980682","0.0543239657581877","0.0833946621260756","0.127479996617674","0.0542003790840204","","","","","","","","","","","","","","",""
"18-081-0003","1,3-Butadiene","39.484073638916","-86.0531768798828","Franklin","","Residential","","Franklin- Active Adult Center","meanRos_ug_m3","No","Undetermined","Indiana","Suburban","Franklin- Active Adult Center","No","Butadiene","","","","","","","","","","","","","","","","","0.0467669404932279","","",""
"18-089-0022","1,3-Butadiene","41.6066818237305","-87.3047256469727","Gary","","Industrial","","UATMP: INDEM","meanRos_ug_m3","Yes","Decreasing","Indiana","Urban And Center City","Gary-IITRI/ 1219.5 meters east of Tennessee St.- old ammuntion bunker","No","Butadiene","0.202244178686561","0.403419037772084","0.0680475327982627","0.0698976596806149","0.0338993174915243","0.0635008209312535","0.0822137012994292","0.081247494257101","0.0748698920578386","0.0921452699449635","0.0876375464394778","0.0490542935995117","0.236504075556703","0.0737685159137982","0.100085044888685","0.0271947758614205","0.0230800564606775","0.0300824189386262","0.0321830159773491","0.0169292746518108"
"18-089-0023","1,3-Butadiene","41.6527404785156","-87.4395523071289","East Chicago","","Industrial","","East Chicago Water Flitration Plant","meanRos_ug_m3","No","No Trend","Indiana","Urban And Center City","SITE MOVED FROM EAST CHICAGO FIELD SCHOOL","No","Butadiene","0.141676158212442","0.0881740284621771","0.0773613196496325","0.098231624941642","0.0421216307184659","0.0937638760253841","0.0938640236545024","0.161903467729673","0.142273850230829","0.109253728247783","","","","","","","","","",""
"18-089-0030","1,3-Butadiene","41.6814002990723","-87.4947357177734","Whiting","","Residential","","Whiting- Whiting HS","meanRos_ug_m3","No","Increasing","Indiana","Urban And Center City","Whiting- Whiting HS","No","Butadiene","","0.0398057529877271","0.0831511702919255","0.0789196050063625","0.0457938571968552","0.117919053222542","0.0794020248379492","0.110484478484985","0.101712324464367","0.118157121183382","0.110412839132437","0.126475616521751","0.518306262985548","","","","","","",""
"18-089-0034","1,3-Butadiene","41.6534805297852","-87.4355850219727","East Chicago","","Commercial","","East Chicago-Marina","meanRos_ug_m3","No","Decreasing","Indiana","Urban And Center City","East Chicago-Marina","No","Butadiene","","","","","","","","","","","0.113741602687562","0.0959251342018652","0.646888855416827","0.170437208630874","0.153180395287726","0.0640509929998683","0.0547276157734972","0.0321035548776187","0.055969837452824","0.0325800762764028"
"18-089-0035","1,3-Butadiene","41.6813926696777","-87.490234375","Whiting","","Residential","","Whiting- Center St.","meanRos_ug_m3","No","Decreasing","Indiana","Urban And Center City","Whiting- Center St.","No","Butadiene","","","","","","","","","","","","","","0.291035985161934","0.287421626408942","0.110940177198127","0.105069927925064","0.180485100091089","0.108569173083333","0.0244857162440701"
"18-089-2008","1,3-Butadiene","41.639461517334","-87.4936218261719","Hammond","","Commercial","","HAMMOND CAAP- Hammond- 141st St.","meanRos_ug_m3","Yes","Decreasing","Indiana","Suburban","HAMMOND CAAP- Hammond- 141st St.","No","Butadiene","0.169762482379533","0.620075285198442","0.0832958426967788","0.154366890320782","0.201070482109672","0.12415137919294","0.737248246256976","0.447840540638359","0.127555740345777","0.139742662952384","0.136553075892608","0.0927537628326118","0.391258352923539","0.258318173139159","0.159045311301614","0.0579310809038367","0.0444898034977737","0.0360347436413003","0.0395508688547874","0.0317562529745956"
"18-097-0057","1,3-Butadiene","39.7490196228027","-86.1863174438477","Indianapolis","","Residential","","UATMP: ININ","meanRos_ug_m3","No","Undetermined","Indiana","Urban And Center City","Indpls- Harding St.","No","Butadiene","","","","","0.0585182573308606","0.0900704200660862","","","","","","","","","","","","","",""
"18-097-0078","1,3-Butadiene","39.8110961914063","-86.1144714355469","Indianapolis","","Residential","","UATMP: WPIN","meanRos_ug_m3","Yes","Decreasing","Indiana","Suburban","Indpls- Washington Park/  in parking lot next to police station","No","Butadiene","0.305981990162467","1.04099606813883","0.948825136884535","0.103468839201564","0.0692352193634696","0.103937501000046","0.14702180299598","0.162282929298095","0.195842099281156","0.220103861141576","0.152445978218289","0.117620686553354","0.435650481209812","0.214912408949961","0.146848524379347","0.0946159674404765","0.0966770296997165","0.0848444319882544","0.0823695475025961","0.0809548492657452"
"18-097-0084","1,3-Butadiene","39.7588539123535","-86.1154174804688","Indianapolis","","Residential","","Indpls-  School 21/ Florence Fay School 21","meanRos_ug_m3","No","Undetermined","Indiana","Urban And Center City","Indpls-  School 21/ Florence Fay School 21","No","Butadiene","0.152059486645481","0.102052979743465","","","","","","","","","","","","","","","","","",""
"18-097-0085","1,3-Butadiene","39.7403831481934","-86.2259521484375","Indianapolis","","Military Reservation","","UATMP: IDIN","meanRos_ug_m3","No","Undetermined","Indiana","Urban And Center City","Stout Field 2","No","Butadiene","","","","","0.056071142042036","0.0897804389415706","","","","","","","","","","","","","",""
"18-097-0087","1,3-Butadiene","39.7879333496094","-86.1308822631836","Indianapolis (Remainder)","","Residential","","Indpls.- I 70","meanRos_ug_m3","No","Decreasing","Indiana","Urban And Center City","Indpls.- I 70","No","Butadiene","","","","","","","","","","","","","","0.262558924793093","0.224500064180382","0.110727371492734","0.105741655153982","0.0922218982635413","0.097201127352144","0.0670717942664257"
"18-127-0024","1,3-Butadiene","41.6175575256348","-87.1992492675781","Not In A City","","Residential","","Ogden Dunes- Water Treatment Plant","meanRos_ug_m3","Yes","No Trend","Indiana","Suburban","Ogden Dunes- Water Treatment Plant","No","Butadiene","0.0905982111149525","0.0331362405292416","0.515873514357442","0.0511401273571943","0.0235908441429817","0.0530673060627086","0.0425723066083417","0.0634578393456456","0.0671953558807925","0.0657360000666725","0.100926677615358","0.0510065390666465","0.207846029762452","0.0901903878668516","0.0856134578830157","0.0234544039251177","0.0200263066564248","0.0190444539176579","0.0189172790238226","0.0244077046332847"
"18-157-0008","1,3-Butadiene","40.431640625","-86.8525009155273","Lafayette","","Industrial","","Lafayette- Greenbush St./ Cinergy Substation","meanRos_ug_m3","No","No Trend","Indiana","Suburban","Lafayette- Greenbush St./ Cinergy Substation","No","Butadiene","","","","","","0.0540881093987383","0.047567105279772","0.0575810247620336","0.0650334062409207","0.0779552502553186","","","","","","","","","",""
"18-163-0016","1,3-Butadiene","37.974437713623","-87.5322875976563","Evansville","","Commercial","","Evansville- U of E/  University of Evansville-Carson Center","meanRos_ug_m3","Yes","Decreasing","Indiana","Urban And Center City","Evansville- U of E/  University of Evansville-Carson Center","No","Butadiene","0.123211772307516","0.603515079241889","0.170120994744512","0.131975705175455","0.0505353917013068","0.0992522055565464","0.0727754655204176","0.110307086013074","0.134584508874645","0.126572162490341","0.102333401894503","0.0743656598173157","0.400130604515076","0.133380922541449","0.151733719043984","0.0474977234803839","0.057611236790622","0.044221773002119","0.0439450257842203","0.0304342011126992"
"18-167-0025","1,3-Butadiene","39.5076866149902","-87.3744430541992","Terre Haute","","Commercial","","Terre Haute-Fort Harrison Rd.","meanRos_ug_m3","No","Decreasing","Indiana","Urban And Center City","Terre Haute-Fort Harrison Rd.","No","Butadiene","","","","","","","","","","","","0.051838728706326","0.229813653287591","0.131214111114736","0.134412607874373","0.0341976979289229","0.042481853579382","0.0283145410127499","0.032213941262001","0.0217350131101607"
"19-113-0037","1,3-Butadiene","42.0050811767578","-91.6792984008789","Cedar Rapids","","Residential","","UATMP: C2IA; PILOT CITY: Army Reserve","meanRos_ug_m3","No","Undetermined","Iowa","Urban And Center City","ARMY RESERVE CENTER ROOF- CORE MONITORING SITE","No","Butadiene","","","","","0.0727659304409415","","","","","","","","","","","","","","",""
"19-113-0040","1,3-Butadiene","41.9767684936523","-91.6876602172852","Cedar Rapids","","Residential","","Public Health","meanRos_ug_m3","No","No Trend","Iowa","Urban And Center City","Public Health","No","Butadiene","","","","","","0.186091586254104","0.154896197262862","","0.0592411035395973","0.0626505365235818","0.0563692329670989","0.0598217432988248","","","","","","","",""
"19-153-0030","1,3-Butadiene","41.6031608581543","-93.6431198120117","Des Moines","","Commercial","","UATMP: DMIA","meanRos_ug_m3","No","Decreasing","Iowa","Urban And Center City","CARPENTER","No","Butadiene","","","","","0.186804734105284","0.288689556267198","0.170491655376525","0.215953788468031","0.0667504934924452","0.0523605387023677","0.123663482687899","0.0801778736304648","0.0487280826156572","","","","","","",""
"19-163-0015","1,3-Butadiene","41.5300102233887","-90.5876083374023","Davenport","","Residential","","UATMP: DAIA","meanRos_ug_m3","No","No Trend","Iowa","Urban And Center City","DAVENPORT, JEFFERSON SCH.","No","Butadiene","","","","","0.598933657123465","0.922558503463872","1.46502686829448","0.317099977849757","","0.0708637332180728","0.0574582415970002","0.0847591349134275","","","","","","","",""
"21-019-0017","1,3-Butadiene","38.4593391418457","-82.6404113769531","Ashland","","Residential","","UATMP: ASKY","meanRos_ug_m3","No","No Trend","Kentucky","Suburban","ASHLAND PRIMARY (FIVCO)","No","Butadiene","","","","","","","","","","0.0756275224760789","0.0630572023406501","0.0616142946040449","0.0664806700510026","0.0669801498617935","0.0606818058414818","0.0514392872662324","","","",""
"21-043-0500","1,3-Butadiene","38.2388687133789","-82.9880981445313","Hazard/Grayson Lake","Grayson Lake, KY","Residential","Rural ","UATMP: HAKY/GLKY; NATTS: Hazard/Grayson Lake, KY","meanRos_ug_m3","No","Decreasing","Kentucky","Rural","GRAYSON LAKE","Yes","Butadiene","","","","","","","","","0.0424570532115992","0.0660875630295553","0.0475088330075958","0.0417105592532931","0.0348977651487549","0.034890803554386","0.0239670026817343","0.025916692169102","0.0178130409702863","0.0156465629857647","0.0208954075693284","0.0185580878167435"
"21-067-0012","1,3-Butadiene","38.0650291442871","-84.4976119995117","Lexington-Fayette","","Residential","","UATMP: LEKY","meanRos_ug_m3","No","Undetermined","Kentucky","Suburban","LEXINGTON PRIMARY","No","Butadiene","","","","","","","","","","0.0745943540468023","0.0700134441342856","0.0686628521275336","0.0587424647700774","","","","","","",""
"21-139-0004","1,3-Butadiene","37.0715103149414","-88.3338928222656","Not In A City","","Agricultural","","UATMP: BLKY","meanRos_ug_m3","No","Decreasing","Kentucky","Rural","BLOODWORTH","No","Butadiene","","","","","","","","","","0.170143942519635","0.622065006602053","0.174183873494375","0.0632502202588673","0.0645957639578126","0.0515471187812056","0.0517539667825676","","","",""
"21-157-0014","1,3-Butadiene","37.0452003479004","-88.3308715820313","Grand Rivers","","Industrial","","UATMP: TVKY; TVA SUBSTATION","meanRos_ug_m3","No","No Trend","Kentucky","Suburban","TVA SUBSTATION","No","Butadiene","","","","","","","","","","0.131885937098038","1.0506525802927","0.38822683347392","0.359560789366197","0.166718487520109","0.15136112049393","0.068703049011956","","","",""
"21-157-0016","1,3-Butadiene","37.0417594909668","-88.3540725708008","Grand Rivers","","Industrial","","UATMP: ATKY; ATMOS ENERGY","meanRos_ug_m3","No","No Trend","Kentucky","Suburban","ATMOS ENERGY","No","Butadiene","","","","","","","","","","0.0689334423504923","0.0714081255333397","0.0908828934674061","0.0623876884724989","0.0519385106357296","","","","","",""
"21-157-0018","1,3-Butadiene","37.0270195007324","-88.3438720703125","Calvert City","","Residential","","UATMP: CCKY; CALVERT CITY ELEMENTARY","meanRos_ug_m3","No","No Trend","Kentucky","Suburban","CALVERT CITY ELEMENTARY","No","Butadiene","","","","","","","","","","0.0555653223222436","0.267060024575186","0.0854410756719547","","","","","","","0.0344493387014645","0.0270789394922116"
"21-157-0019","1,3-Butadiene","37.037181854248","-88.3341064453125","Calvert City","","Residential","","UATMP: LAKY; Lazy Daz","meanRos_ug_m3","No","Undetermined","Kentucky","Suburban","LAZY DAZ","No","Butadiene","","","","","","","","","","0.0698679338526645","0.660216765978942","0.112219024412818","","","","","","","",""
"21-157-0020","1,3-Butadiene","37.041202545166","-88.3518753051758","","","Industrial","","Johnson-Riley Road","meanRos_ug_m3","No","Undetermined","Kentucky","Suburban","Johnson-Riley Road","No","Butadiene","","","","","","","","","","","","","","","","","","","0.0301614167117114","0.0237489476526991"
"21-157-0021","1,3-Butadiene","37.0479125976563","-88.3383255004883","","","Industrial","","LWD","meanRos_ug_m3","No","Undetermined","Kentucky","Suburban","LWD","No","Butadiene","","","","","","","","","","","","","","","","","","","0.0438069985151629","0.0481056769841794"
"22-005-0004","1,3-Butadiene","30.2296524047852","-90.9656295776367","Not In A City","","Agricultural","","Dutchtown","meanRos_ug_m3","No","No Trend","Louisiana","Rural","Dutchtown","No","Butadiene","","","","","","","","0.0648945553960712","0.0827516865736055","0.0660462904540531","0.0402063081665114","0.0571993796833516","0.0476961544050394","0.0721629829894794","0.0640862916831239","0.0510650229069846","","0.0496676007748637","0.0600628213695435","0.0823617874850591"
"22-015-0008","1,3-Butadiene","32.5362739562988","-93.7489395141602","Shreveport","","Commercial","","Shreveport / Airport","meanRos_ug_m3","No","No Trend","Louisiana","Urban And Center City","Shreveport / Airport","No","Butadiene","","","","","","","","0.0316413191368657","0.0774884039709535","0.0338091878280316","0.0227236141703758","0.0174536784538437","","0.0350685910921284","0.0254544318634629","","","","","0.0797775989623594"
"22-019-0008","1,3-Butadiene","30.2626037597656","-93.2850875854492","Westlake","","Industrial","","Westlake","meanRos_ug_m3","No","No Trend","Louisiana","Rural","Westlake","No","Butadiene","","","","","","","","0.174840404137747","0.18603463808456","0.162111279111451","0.113381557614912","0.0908710490433932","0.144192104391595","0.245043618771371","0.112220947824885","0.0929845028197309","0.376382381529455","0.697305617276148","1.02968525965283","1.0424338343057"
"22-019-SPE3","1,3-Butadiene","30.2156066894531","-93.3120498657227","","","","","","meanRos_ug_m3","No","No Trend","Louisiana","","","No","Butadiene","","","","","","","","0.481101310933378","0.437882253667142","0.422252138971417","0.159453708090286","0.152600946919343","0.360773243598044","0.389539717544406","0.210451653403984","0.116395893567117","0.738443648474528","0.215375982303363","0.559168953004688","0.485794506692408"
"22-033-0003","1,3-Butadiene","30.4198055267334","-91.182014465332","","","","","LSU","meanRos_ug_m3","No","No Trend","Louisiana","","LSU","No","Butadiene","","","","","","","","0.0843499637035548","0.136413280627346","0.162519358058622","0.102097876872549","0.0915764446428356","0.0915850589935369","0.116164412716322","0.150824256035054","0.0583102553509446","","0.0324171282363872","0.0585087253381636","0.0627502817905866"
"22-033-0009","1,3-Butadiene","30.4619808197021","-91.1792221069336","Baton Rouge","","Commercial","","UATMP: B2LA","meanRos_ug_m3","No","Decreasing","Louisiana","Urban And Center City","Capitol","No","Butadiene","0.588488940934861","0.5035638330527","0.311928900603412","","","","","0.187888219533726","0.163652119126353","0.284622831881249","0.142838859921204","0.112091927142504","0.228036178074239","0.158397695919785","0.143534602994207","0.179445023310763","","0.0269852197325904","0.0877128426325762","0.144268568851635"
"22-033-0013","1,3-Butadiene","30.7008953094482","-91.0560684204102","Zachary","","Agricultural","","Pride","meanRos_ug_m3","No","No Trend","Louisiana","Rural","Pride","No","Butadiene","0.248020519534765","0.224255180645814","0.0644399817485234","","","","","","","","","","","","0.0213845140523719","","","","0.0276474372352459","0.0272385195691984"
"22-033-1001","1,3-Butadiene","30.5939788818359","-91.2519454956055","Not In A City","","Agricultural","","Baker","meanRos_ug_m3","No","Undetermined","Louisiana","Rural","Baker","No","Butadiene","","","","","","","","0.0675308618616568","","","","","","","","","","","",""
"22-033-2002","1,3-Butadiene","30.5256481170654","-91.1862716674805","","","","","","meanRos_ug_m3","No","Decreasing","Louisiana","","","No","Butadiene","","","","","","","","0.2106648834934","0.208532572402366","0.521318155802169","0.125755635908978","0.123613632172512","0.161427874229285","0.130444925393286","0.118083141916076","0.13565001827934","","0.0301591414910964","0.0592628526653602","0.0804083952817934"
"22-047-0009","1,3-Butadiene","30.2212543487549","-91.3154144287109","Not In A City","","Agricultural","","Bayou Plaquemine","meanRos_ug_m3","No","Decreasing","Louisiana","Rural","Bayou Plaquemine","No","Butadiene","0.22135341654942","0.155093616872828","0.0999615818015872","","","","","0.0246276309433724","0.0555654143368303","0.035507494982174","","0.0356417139893053","","0.05523082927114","0.0444880128866287","0.0205811168880689","","","0.0224955418846743","0.0369071999569433"
"22-047-0012","1,3-Butadiene","30.2042179107666","-91.1260375976563","Carville","","","","Carville","meanRos_ug_m3","No","No Trend","Louisiana","","Carville","No","Butadiene","","","","","","","","","0.0815637500378567","0.0322337633623563","","0.0583272419731741","","0.0438045682488364","0.0289346710713318","","","","0.0269920605389581","0.0415876805898685"
"22-051-1001","1,3-Butadiene","30.04123878479","-90.2728271484375","Kenner","","Residential","","Katrina: KELA","meanRos_ug_m3","No","Undetermined","Louisiana","Suburban","Kenner","No","Butadiene","","","","0.0646542482752906","","","","","","","","","","","0.0357752021980451","0.0467639067796001","","","","0.177397033297451"
"22-051-2001","1,3-Butadiene","29.8832855224609","-90.089958190918","Marrero","","Residential","","Katrina: MALA","meanRos_ug_m3","No","Undetermined","Louisiana","Suburban","Marrero","No","Butadiene","","","","","","","","","","","","","","","","0.0807145809461991","","","0.0689837268430157","0.0777883195788505"
"22-073-0004","1,3-Butadiene","32.5099601745605","-92.0461959838867","Monroe","","Industrial","","Monroe / Airport","meanRos_ug_m3","No","No Trend","Louisiana","Urban And Center City","Monroe / Airport","No","Butadiene","","","","","","","","","0.0627388528650488","","","0.0257825817641487","","0.0288641899905412","0.0201460029433698","0.019384215976423","","","","0.0354776956173687"
"22-077-0001","1,3-Butadiene","30.6817188262939","-91.3662490844727","","","","","New Roads","meanRos_ug_m3","No","No Trend","Louisiana","","New Roads","No","Butadiene","","","","","","","","0.0536475530248486","0.0508662632146883","0.0555779122465118","","0.0269611007435375","0.0273529149066345","0.0417301550456775","0.0290512476018676","","","","0.0285052505817172","0.0638482260262915"
"22-087-0007","1,3-Butadiene","29.9431648254395","-89.9762496948242","","","","","Chalmette Vista","meanRos_ug_m3","No","No Trend","Louisiana","","Chalmette Vista","No","Butadiene","","","","","","","","","0.089575435493638","0.067041765919069","","0.0581910201111584","0.0548595112800974","0.0911173623399765","0.0552960647769998","0.0741791226169137","","","0.0380788328013609","0.0456806935205157"
"22-089-0003","1,3-Butadiene","29.9843711853027","-90.4106369018555","Hahnville","","Industrial","","UATMP: HALA","meanRos_ug_m3","No","No Trend","Louisiana","Rural","Hahnville","No","Butadiene","","","","","","","","0.0843958000724155","0.12402858243685","0.0839838108009442","0.0549203519856252","0.103809933369467","0.154792009297041","","","","","","",""
"22-089-7000","1,3-Butadiene","29.9541835784912","-90.3264465332031","","","","","","meanRos_ug_m3","No","Undetermined","Louisiana","","","No","Butadiene","","","","","","","","","","","","","","","","","","","0.0319246452217009","0.846820748365587"
"22-103-0002","1,3-Butadiene","30.4293804168701","-90.1996765136719","Madisonville","","","","Madisonville","meanRos_ug_m3","No","No Trend","Louisiana","","Madisonville","No","Butadiene","","","","","","","","0.0286744365340906","0.054413923810539","0.0234289506307084","","0.0339089864754417","","0.0309768512254017","0.0233015184783427","","","","0.0460958520769423","2.26300008561226"
"22-121-0001","1,3-Butadiene","30.5006427764893","-91.2135543823242","Port Allen","","Commercial","","PORT ALLEN","meanRos_ug_m3","No","Decreasing","Louisiana","Suburban","Port Allen","No","Butadiene","","","","","","","","0.321261192707276","0.686252895792709","0.893639410301857","0.318571701660043","0.162625878692031","0.208442229105321","0.342350178895264","0.222509133986107","0.170956689193918","","0.121391771604901","0.12152498491523","0.1109376036489"
"23-001-0011","1,3-Butadiene","44.0894050598145","-70.2142181396484","Lewiston","","Commercial","","LEWISTON","meanRos_ug_m3","No","No Trend","Maine","Urban And Center City","COUNTRY KITCHEN BAKERY PARKING LOT","No","Butadiene","","","","","","","0.157706579061531","0.0222248495413444","0.0811326636250662","0.141777962322843","0.145130971093076","0.140839621716855","0.137069524985106","0.126768523074338","0.143928206923194","0.176995073596156","0.128370307436129","0.0916009459949108","0.0593165013038882","0.0533887814123399"
"23-003-1011","1,3-Butadiene","46.682300567627","-68.0161972045898","Presque Isle","","Commercial","","RIVERSIDE STREET MONITORING SHELTER","meanRos_ug_m3","No","No Trend","Maine","Urban And Center City","RIVERSIDE","No","Butadiene","","","","","","","0.106439321891081","0.0234087163128267","0.0670711806899792","0.136016045619423","0.131325549770926","","","0.116311283078459","0.155812223176363","0.318270275467321","0.1712306211184","0.127594216416279","0.0766122436712304","0.059621047959838"
"23-005-0029","1,3-Butadiene","43.6602478027344","-70.2689666748047","Portland","","Commercial","","PDO - Portland Deering Oaks","meanRos_ug_m3","No","No Trend","Maine","Urban And Center City","PDO - Portland Deering Oaks","No","Butadiene","","","","","","","0.276913401581696","0.0352366305667144","0.0646033848679437","0.153877988198082","0.134790469999196","0.136959003840099","0.1350838411517","0.132581886198176","0.15697038252937","0.17636963074691","0.128551589679652","0.092392207545485","0.0558453402850858","0.0508460636423728"
"23-005-2003","1,3-Butadiene","43.5610427856445","-70.2073211669922","Cape Elizabeth","","Residential","","CETL - Cape Elizabeth Two Lights (State Park)","meanRos_ug_m3","No","No Trend","Maine","Rural","CETL - Cape Elizabeth Two Lights (State Park)","No","Butadiene","","","","","","","","","","","","0.0761929664291184","0.0728135320797971","0.0709237987679108","0.0766948828122486","0.147846705733064","","","",""
"23-005-5501","1,3-Butadiene","43.6366653442383","-70.2519454956055","","","Commercial","","","meanRos_ug_m3","No","Undetermined","Maine","Urban And Center City","","No","Butadiene","","","","","","","","","","","","","","","","","","0.121146415886565","0.0624234534765673",""
"23-005-5502","1,3-Butadiene","43.6530570983887","-70.2347259521484","","","Commercial","","","meanRos_ug_m3","No","Undetermined","Maine","Urban And Center City","","No","Butadiene","","","","","","","","","","","","","","","","","","0.139125199676517","0.0700892290641417","0.0512311402664138"
"23-005-5503","1,3-Butadiene","43.6227760314941","-70.2683334350586","","","Residential","","","meanRos_ug_m3","No","Undetermined","Maine","Suburban","","No","Butadiene","","","","","","","","","","","","","","","","","","0.148017653396687","0.0653199227107412",""
"23-005-5504","1,3-Butadiene","43.6261100769043","-70.303337097168","","","Residential","","","meanRos_ug_m3","No","Undetermined","Maine","Suburban","","No","Butadiene","","","","","","","","","","","","","","","","","","0.132394715792166","",""
"23-005-5505","1,3-Butadiene","43.6377792358398","-70.3180541992188","","","Residential","","","meanRos_ug_m3","No","Undetermined","Maine","Suburban","","No","Butadiene","","","","","","","","","","","","","","","","","","0.153442825954444","0.0507313654812977","0.0379333509052121"
"23-005-5506","1,3-Butadiene","43.6389694213867","-70.2690505981445","","","","","","meanRos_ug_m3","No","Undetermined","Maine","","","No","Butadiene","","","","","","","","","","","","","","","","","","","0.0813812406224957","0.0469272349063886"
"23-005-6606","1,3-Butadiene","43.6605567932129","-70.2455520629883","","","Commercial","","","meanRos_ug_m3","No","Undetermined","Maine","Urban And Center City","","No","Butadiene","","","","","","","","","","","","","","","","","","0.140392928496154","0.0680241283510726","0.0467714349695892"
"23-005-6607","1,3-Butadiene","43.6455574035645","-70.2622222900391","","","Commercial","","","meanRos_ug_m3","No","Undetermined","Maine","Urban And Center City","","No","Butadiene","","","","","","","","","","","","","","","","","","0.176506260481591","0.0712435007536929","0.0624605264039583"
"23-017-2011","1,3-Butadiene","44.5514183044434","-70.5463180541992","Rumford","","Industrial","","IN 8 X 8 ECTO SHELTER LOCATED IN PARKING LOT EAST OF RUMFORD AVENUE.","meanRos_ug_m3","No","No Trend","Maine","Rural","Rumford Avenue Parking Lot (RAP)","No","Butadiene","","","","","","","0.137501606027755","0.0317488631930256","0.0855253900680646","0.122215731636532","0.12602573907689","0.142276321296002","0.137526145625985","0.104255045044662","0.123941258167361","0.184753777978362","0.127268128597493","0.0844294888806508","0.0605698255496597","0.0669617193505578"
"23-019-0002","1,3-Butadiene","44.7988586425781","-68.7696762084961","Bangor","","Commercial","","BANGOR","meanRos_ug_m3","No","No Trend","Maine","Urban And Center City","KENDUSKEAG PUMP STATION (BUILDING ROOF)","No","Butadiene","","","","","","","","0.0313053702510163","0.0824950050047223","0.160471088692265","0.136703531154328","0.130681204232635","0.194302160766992","0.133127717808407","0.169159943393425","0.157306863909462","","","",""
"23-019-0017","1,3-Butadiene","44.8173980712891","-68.7727584838867","Bangor","","Residential","","Mary Snow School","meanRos_ug_m3","No","No Trend","Maine","Urban And Center City","Mary Snow School","No","Butadiene","","","","","","","","","","","","","","","","0.163585433983888","0.0990705176002159","0.0726601854082052","0.0463539807010502","0.0481618472429325"
"24-003-0019","1,3-Butadiene","39.1011123657227","-76.7294464111328","Fort Meade","","Commercial","","PAMS: Fort Meade","meanRos_ug_m3","No","Undetermined","Maryland","Suburban","FT MEADE LAT/LONG POINT IS OF THE SAMPLING INLET","No","Butadiene","0.129245929196169","0.108382933097383","","","","","","","","","","","","","","","","","",""
"24-005-3001","1,3-Butadiene","39.3108329772949","-76.4744415283203","Essex","","Residential","","PAMS: Essex","meanRos_ug_m3","Yes","Decreasing","Maryland","Suburban","Essex","No","Butadiene","0.30243725228631","0.17694931598481","0.241704589763626","0.204219783314814","0.203194893012613","0.184670784735474","0.20020107705085","0.147019275186355","0.0567427496316016","0.125138683989908","0.0694193960230885","0.0588127896842832","0.159736920432771","0.165845464150049","0.0759902802168306","0.0378681539654964","0.0627134196204841","0.257732769704545","","0.102224663308684"
"24-027-0006","1,3-Butadiene","39.1431312561035","-76.8461074829102","North Laurel","","Residential","","Howard County Near Road","meanRos_ug_m3","No","No Trend","Maryland","Suburban","Howard County Near Road","No","Butadiene","","","","","","","","","","","","0.0487865956191727","0.0997949417580903","0.188265087448859","0.0695249536615158","","0.0393424638782865","","",""
"24-033-0030","1,3-Butadiene","39.0552787780762","-76.8783340454102","Beltsville","","Residential","","HU-Beltsville","meanRos_ug_m3","No","Decreasing","Maryland","Suburban","HU-Beltsville","No","Butadiene","","","0.0948063394760682","0.0786148378002764","0.090361567985034","0.0698826006163932","0.0778159095888019","0.0668588148404122","0.0238743033802346","0.0932417726342219","0.0478535781060015","0.0469791571046878","0.0745366773042257","0.0834324782834332","0.041408548369004","","0.038391618257356","","",""
"24-510-0006","1,3-Butadiene","39.3405570983887","-76.5822219848633","Baltimore","","Residential","","Northeast Police","meanRos_ug_m3","No","Decreasing","Maryland","Suburban","Northeast Police","No","Butadiene","0.299477333516718","0.184286413305379","0.210663747540498","0.171193223814346","0.176845294295696","0.140797966446425","0.146226162899215","0.110021238262623","0.0635753399253933","","","","","","","","","","",""
"24-510-0040","1,3-Butadiene","39.2977333068848","-76.604606628418","Baltimore","","Residential","","Oldtown","meanRos_ug_m3","No","Decreasing","Maryland","Urban And Center City","Oldtown","No","Butadiene","0.43006993155798","0.261232496936026","0.268557665807677","0.256245985272326","0.264486111802719","0.2088985877936","0.199971518873916","0.168939874144429","0.114245316892844","0.147261359711829","0.112077716819191","0.0695959631755204","0.126682828598777","0.123428416077085","0.0636017531521075","","0.0529153363110253","","",""
"25-009-2006","1,3-Butadiene","42.4746437072754","-70.970817565918","Lynn","","Commercial","","LYNN WATER TREATMENT PLANT","meanRos_ug_m3","Yes","Decreasing","Massachusetts","Urban And Center City","LYNN WATER TREATMENT PLANT","No","Butadiene","0.046328302946709","0.0536813650335792","0.0569552358189997","0.0582282659237312","0.0602296423324842","0.0502801380553764","0.0376357419843801","0.0238367101391319","0.0252204053911741","0.0287076964513603","0.0246414224826112","0.0241434639319777","0.0307155338400122","0.026538067535482","0.0214923301590952","0.0216502849549308","0.0188675073882693","0.0217318695237036","0.0246374196611944","0.0250104857643768"
"25-021-2004","1,3-Butadiene","42.2458648681641","-70.9627685546875","North Weymouth","","Industrial","","Weymouth","meanRos_ug_m3","No","Undetermined","Massachusetts","Suburban","Weymouth","No","Butadiene","","","","","","","","","","","","","","","","","","0.0276802619188732","",""
"25-021-2005","1,3-Butadiene","42.2412300109863","-70.9633483886719","","","","","","meanRos_ug_m3","No","Undetermined","Massachusetts","","","No","Butadiene","","","","","","","","","","","","","","","","","","","0.029489023848739","0.0224189388814638"
"25-025-0042","1,3-Butadiene","42.3294982910156","-71.0826034545898","Boston","Roxbury, MA","Commercial","Urban ","UATMP: BOMA; NATTS: Roxbury, MA","meanRos_ug_m3","Yes","Decreasing","Massachusetts","Urban And Center City","DUDLEY SQUARE ROXBURY","Yes","Butadiene","0.12602770419863","0.115080499853939","0.152495217003059","0.133180389196565","0.116242324649277","0.117224730856594","0.0844319929658878","0.0628071510858956","0.059532167436555","0.0642872287345857","0.0614431247947218","0.0534598675460137","0.0609303060919046","0.0495973714764734","0.0345218613295367","0.0369798850190515","0.0366651999065652","0.033083842087794","0.0424550276219902","0.0379360998049378"
"25-025-1004","1,3-Butadiene","42.3872222900391","-71.0261077880859","","","","","","meanRos_ug_m3","No","Undetermined","Massachusetts","","","No","Butadiene","","","","","","","","","","","","","","","","","","","0.040183522122417","0.0392547128722072"
"26-081-0020","1,3-Butadiene","42.9841728210449","-85.6713409423828","Grand Rapids","","Industrial","","Grand Rapids","meanRos_ug_m3","No","Undetermined","Michigan","Urban And Center City","GR-Monroe","No","Butadiene","","","","0.100931125199758","","","","","","","","","","","","","","","",""
"26-081-0021","1,3-Butadiene","42.9386367797852","-85.671142578125","Grand Rapids","","Industrial","","1270 RANDOLPH, GRAND RAPIDS","meanRos_ug_m3","No","Undetermined","Michigan","Urban And Center City","1270 RANDOLPH, GRAND RAPIDS","No","Butadiene","","0.118561151190695","","","","","","","","","","","","","","","","","",""
"26-161-0008","1,3-Butadiene","42.2405662536621","-83.5996017456055","Ypsilanti","","Commercial","","PILOT CITY: Ypsilanti","meanRos_ug_m3","No","Undetermined","Michigan","Urban And Center City","TOWNER ST, SOUTH; 2 LANE RESIDENIAL - HOSPITAL","No","Butadiene","","","","0.100298015608326","","","","","","","","","","","","","","","",""
"26-163-0001","1,3-Butadiene","42.2286186218262","-83.2081985473633","Allen Park","","Commercial","","UATMP: APMI; IMPROVE: DETR1; PILOT CITY: Allen Park","meanRos_ug_m3","No","Undetermined","Michigan","Suburban","Allen Park","No","Butadiene","","","0.184066001855294","","","","","","","","","","","","","","","","",""
"26-163-0015","1,3-Butadiene","42.3027877807617","-83.1065292358398","Detroit","","Commercial","","UATMP: SWMI; PILOT CITY: Southwest HS","meanRos_ug_m3","No","No Trend","Michigan","Urban And Center City","Southwestern H.S.","No","Butadiene","","0.134096718953427","","0.0991888083227229","0.155381717417282","","","","","","","","","","","","","","0.0770428022690888","0.0359494357080466"
"26-163-0027","1,3-Butadiene","42.2922325134277","-83.106803894043","Detroit","","Industrial","","UATMP: YFMI; PILOT CITY: Yellow Freight","meanRos_ug_m3","No","Undetermined","Michigan","Urban And Center City","Yellow Freight","No","Butadiene","","","0.119098846647475","","","","","","","","","","","","","","","","",""
"26-163-0033","1,3-Butadiene","42.3066749572754","-83.1487503051758","Dearborn","Detroit, MI","Industrial","Urban ","UATMP: DEMI; NATTS: Detroit, MI; PILOT CITY: Dearborn","meanRos_ug_m3","Yes","Decreasing","Michigan","Suburban","PROPERTY OWNED BY DEARBORN PUBLIC SCHOOLS","Yes","Butadiene","0.0894654121827672","0.144827434285487","0.0983174273979098","0.13102171371638","0.103450056710669","0.0912906012754575","0.0686877167724532","0.0913687742074137","0.100929583795032","0.118091470552321","0.080029063960882","0.105540642204384","0.0955166089038054","0.0845009464563819","0.0736817989699573","0.0846574510048543","0.0515326721466011","0.0446533558825994","0.0537648936427275","0.0349256138395942"
"26-163-1005","1,3-Butadiene","42.2894477844238","-83.153434753418","Detroit","","Industrial","","NORTHWEST","meanRos_ug_m3","No","Undetermined","Michigan","Urban And Center City","NORTHWEST","No","Butadiene","","","","","","","","","","","","0.853057371188688","1.53435189881415","1.5378254344066","","","","","",""
"27-003-1002","1,3-Butadiene","45.1376800537109","-93.2076187133789","Blaine","","Commercial","","Anoka Airport6010","meanRos_ug_m3","No","No Trend","Minnesota","Suburban","Anoka County Airport","No","Butadiene","","","","","","","","","","0.0764900326580194","0.0649801332090914","0.0769458683512612","0.0726615176653063","0.0567191613480179","0.0571904541526904","","","","",""
"27-007-2303","1,3-Butadiene","47.8772201538086","-95.0122222900391","Red Lake","","Residential","","Red Lake","meanRos_ug_m3","No","Undetermined","Minnesota","Rural","Red Lake District","No","Butadiene","","","","","","","","","0.0342049332000614","","","","","","","","","","",""
"27-017-7416","1,3-Butadiene","46.7052688598633","-92.5237731933594","Cloquet","","Forest","","Cloquet","meanRos_ug_m3","No","Undetermined","Minnesota","Rural","Fond du Lac Band 7416","No","Butadiene","","","","","","","","0.0470215698393683","","","","","","","","","","","",""
"27-019-0052","1,3-Butadiene","44.8506546020508","-93.5918121337891","Chaska","","Residential","","CHASKA","meanRos_ug_m3","No","No Trend","Minnesota","Rural","Chaska","No","Butadiene","0.0267819079445096","0.0387353245536127","0.0431262640634286","0.04180571014101","0.0288317021396425","","","","","","","","","","","","","","",""
"27-021-0001","1,3-Butadiene","47.1599426269531","-94.1509857177734","Not In A City","","Residential","","Leech Lake","meanRos_ug_m3","No","Undetermined","Minnesota","Rural","Leech Lake Nation: Chatfield","No","Butadiene","","","","","","","","","0.0173177702930705","","","","","","","","","","",""
"27-037-0020","1,3-Butadiene","44.7632293701172","-93.0325469970703","Not In A City","","Industrial","","FHR 420","meanRos_ug_m3","No","No Trend","Minnesota","Rural","Flint Hills Refinery 420","No","Butadiene","0.0380255894516692","0.0538859767596705","0.0545188248623163","0.0554992532525517","0.0465882812721371","0.0369628525190693","0.0457654364101487","0.0715183493947344","0.0485011466942659","0.0472530951150335","0.0509939935101389","0.0678009619490641","0.096628112066402","0.0486158664066548","0.0436219260205706","","","","",""
"27-037-0423","1,3-Butadiene","44.7755317687988","-93.06298828125","Rosemount","","Industrial","","FHR 423","meanRos_ug_m3","No","No Trend","Minnesota","Rural","Flint Hills Refinery 423","No","Butadiene","0.0260502689418485","0.0329825588969704","0.0403877489200978","0.0414270809144779","0.0395291744458393","0.0319630302255973","0.045582594582811","0.0541473754730528","0.0434766767454887","0.0334035541548688","0.0246033432775759","0.0415028347468319","0.0584764651856581","0.0416699704931771","0.034397198501096","","","","",""
"27-037-0441","1,3-Butadiene","44.7467994689941","-93.0261077880859","Rosemount","","Industrial","","FHR 441","meanRos_ug_m3","No","No Trend","Minnesota","Rural","Flint Hills Refinery 441","No","Butadiene","0.0262960619054018","0.0366650316989186","0.0406018892923991","0.0460048218211922","0.0370072006755932","","","","","","","","","","","","","","",""
"27-037-0442","1,3-Butadiene","44.7385711669922","-93.0049591064453","Rosemount","","Agricultural","","FHR 442","meanRos_ug_m3","No","No Trend","Minnesota","Rural","Flint Hills Refinery 442","No","Butadiene","0.0261509877249074","0.0369165946106333","0.0398734912666713","0.0411372121163934","0.0367935690640782","0.0253056389355112","0.0538111450247118","0.0718718616343621","0.0531318506368941","0.0384312743836743","0.0422736479658792","","","","","","","","",""
"27-037-0443","1,3-Butadiene","44.745662689209","-93.0554122924805","Rosemount","","Industrial","","FHR 443","meanRos_ug_m3","No","No Trend","Minnesota","Rural","Flint Hills Refinery 443","No","Butadiene","","","","","","0.0359431256505684","0.0472908315768873","0.0538749194497397","0.0404590991299605","0.030904005795315","0.0239360212181794","0.057131140806541","0.0530110141776924","0.039941769523583","0.0354684718023676","","","","",""
"27-037-0470","1,3-Butadiene","44.7384605407715","-93.2372512817383","Apple Valley","","Residential","","Apple Valley","meanRos_ug_m3","No","No Trend","Minnesota","Suburban","Apple Valley","No","Butadiene","0.040779965714457","0.0655265668554101","0.0571859063425412","0.0678666112823957","0.0553847635164857","0.0401830507005513","0.0868593119660221","0.100804799231847","0.06681711377765","0.0530761537397755","0.0508195897512401","0.0932828819590977","0.0875119653552149","0.0517397312212621","0.0530485980635108","","","","",""
"27-053-0050","1,3-Butadiene","45.0012283325195","-93.2671203613281","Minneapolis","","Commercial","","NE Fire Station","meanRos_ug_m3","No","Undetermined","Minnesota","Urban And Center City","Minneapolis Fire Station 2","No","Butadiene","0.108466140123811","0.131689189324299","0.147356259219092","0.132404931102078","","","","","","","","","","","","","","","",""
"27-053-0909","1,3-Butadiene","45.0121002197266","-93.2766952514648","Minneapolis","","Industrial","","Lowry Ave","meanRos_ug_m3","No","Undetermined","Minnesota","Urban And Center City","Lowry Avenue","No","Butadiene","","","","","","","","","","","","","0.117770783720847","0.0894364336981981","0.069850810680318","","","","",""
"27-053-0961","1,3-Butadiene","44.8755111694336","-93.258918762207","Richfield","","Residential","","RICHFIELD INTERMEDIATE SCHOOL","meanRos_ug_m3","No","No Trend","Minnesota","Suburban","Richfield Intermediate School","No","Butadiene","","","","0.1016442884328","0.0713260024132436","0.0707628111845301","0.122661312823469","0.160295650972561","0.0946096630089662","0.0751247639187946","0.0629101385326217","0.0710358332494187","0.088534439715086","0.0608943745999157","0.0603790880917528","","","","",""
"27-053-0962","1,3-Butadiene","44.9652404785156","-93.2547607421875","Minneapolis","","Residential","","Minneapolis Near Roadway NOx","meanRos_ug_m3","No","Undetermined","Minnesota","Urban And Center City","Near Road I-35/I-94","No","Butadiene","","","","","","","","","","","","0.127150841845889","0.147148410600063","0.125211626964902","0.0987797078271172","","","","",""
"27-053-0963","1,3-Butadiene","44.9536590576172","-93.2582092285156","Minneapolis","","Residential","","HC Anderson School","meanRos_ug_m3","No","No Trend","Minnesota","Urban And Center City","Andersen School","No","Butadiene","0.10408895543438","0.137438292500743","0.156236619812747","0.146428479813039","0.0902968584314773","0.0919267662607555","0.179892582598289","0.155594272081313","0.113154185470194","0.0980282771544388","0.091979090249739","0.114541591156315","0.147374376243526","0.0942932434579102","0.0953357663920112","","","","",""
"27-053-0964","1,3-Butadiene","44.8885498046875","-93.1953735351563","Not In A City","","Commercial","","MSP AIRPORT","meanRos_ug_m3","No","Undetermined","Minnesota","Suburban","MSP Airport","No","Butadiene","0.12390036707088","","","","","","","","","","","","","","","","","","",""
"27-053-0965","1,3-Butadiene","45.0044784545898","-93.2400436401367","Minneapolis","","Residential","","Putnam School","meanRos_ug_m3","No","Undetermined","Minnesota","Urban And Center City","Putnam Elementary School","No","Butadiene","0.0880358386671431","0.131195434953197","0.091790926028695","0.110724690812373","","","","","","","","","","","","","","","",""
"27-053-0966","1,3-Butadiene","44.9794387817383","-93.2661285400391","Minneapolis","","Commercial","","UATMP: MIMN; City of Lakes Bldg","meanRos_ug_m3","No","Decreasing","Minnesota","Urban And Center City","City of Lakes Building","No","Butadiene","0.111028415787423","0.138184862703366","0.137336686423765","0.133802706894816","0.107365031695088","0.0980244254971852","0.163736981200054","0.162363127417418","0.118292582014369","0.101189104464048","0.0910019247710486","0.0858465780305445","0.10177380133249","0.0966690100594667","0.0742277897753944","","","","",""
"27-053-0968","1,3-Butadiene","44.8930053710938","-93.2332305908203","Minneapolis","","Commercial","","MSP Airport 968","meanRos_ug_m3","No","Undetermined","Minnesota","Urban And Center City","Metropolitan Airports Commission","No","Butadiene","","","0.118070649906606","0.111156473892541","","","","","","","","","","","","","","","",""
"27-053-0969","1,3-Butadiene","44.9005699157715","-93.23828125","Minneapolis","","Residential","","WENONAH SCHOOL","meanRos_ug_m3","No","No Trend","Minnesota","Suburban","Wenonah Elementary School","No","Butadiene","","","0.10543645825237","0.113144540696991","0.0820504591752917","0.0829846968326979","0.123084830685652","","","","","","","","","","","","",""
"27-053-1007","1,3-Butadiene","45.0397186279297","-93.2987365722656","Minneapolis","","Residential","","Humboldt Ave","meanRos_ug_m3","No","No Trend","Minnesota","Suburban","Humboldt Avenue","No","Butadiene","0.0926568465056661","0.127009634610399","0.111202489538118","0.123093435415878","0.0822866024592748","0.0843608899292487","0.15542952704182","0.195274054686107","0.108497324644735","0.0926877981016658","0.0909182365353077","0.146394821917138","0.126989635398102","0.0876429534624603","0.078338647536841","","","","",""
"27-053-1909","1,3-Butadiene","45.0136108398438","-93.2720489501953","Minneapolis","","Commercial","","Bottineau / Marshall Terrace","meanRos_ug_m3","No","Undetermined","Minnesota","Urban And Center City","Bottineau / Marshall Terrace","No","Butadiene","","","","","","","","","","","","","","","0.0838400655981966","","","","",""
"27-053-2006","1,3-Butadiene","44.9480514526367","-93.343147277832","St. Louis Park","","Residential","","St. Louis Park","meanRos_ug_m3","No","No Trend","Minnesota","Suburban","St. Louis Park City Hall","No","Butadiene","","","","","","0.0795103397686034","0.131256728717301","0.137484880107365","0.093581628807905","0.0657252823291119","0.0694281117840995","0.0578716299155893","0.0982343262541443","0.0756141200229058","0.0710364844409074","","","","",""
"27-075-0005","1,3-Butadiene","47.9486236572266","-91.4955749511719","Not In A City","","Unknown","","Fernberg Road","meanRos_ug_m3","No","Undetermined","Minnesota","Unknown","Boundary Waters","No","Butadiene","","","","","","","","0.043200555174657","","","","","","","","","","","",""
"27-095-3051","1,3-Butadiene","46.2052993774414","-93.7594528198242","Onamia","","Forest","","Mille Lacs","meanRos_ug_m3","No","Undetermined","Minnesota","Rural","Mille Lacs Band","No","Butadiene","","","","","","","","","","0.0234945911623266","","","","","","","","","",""
"27-123-0017","1,3-Butadiene","44.9441337585449","-93.0651245117188","St. Paul","","Industrial","","Holman Field","meanRos_ug_m3","No","Undetermined","Minnesota","Suburban","Holman Field","No","Butadiene","0.0732876126761801","0.0959650027161499","0.0976586338864373","0.110749176803118","","","","","","","","","","","","","","","",""
"27-123-0021","1,3-Butadiene","44.9655494689941","-93.0568389892578","St. Paul","","Commercial","","Ross Avenue","meanRos_ug_m3","No","No Trend","Minnesota","Urban And Center City","Ross Avenue","No","Butadiene","0.116768961673113","0.367422038310413","0.165373293776065","0.195759963215573","0.10172437516102","","","","","","","","","","","","","","",""
"27-123-0868","1,3-Butadiene","44.9507217407227","-93.0982666015625","St. Paul","","Commercial","","Ramsey Health Center","meanRos_ug_m3","No","No Trend","Minnesota","Urban And Center City","Ramsey Health Center","No","Butadiene","","","","","0.116884440806205","0.120370518987174","0.199310994753614","0.21286303449974","0.140548076214535","0.128620666469324","0.104687885918583","0.178136664610863","0.130350954942375","0.110389573070837","0.083573318978249","","","","",""
"27-123-0871","1,3-Butadiene","44.9593887329102","-93.0358734130859","St. Paul","","Residential","","Harding High School","meanRos_ug_m3","No","No Trend","Minnesota","Suburban","Harding High School","No","Butadiene","","","","","","0.0752172462068821","0.129815930688525","0.104873315014612","0.108882471457661","0.0938168826143978","0.0948439085143892","0.0745956991294148","0.133522508027407","0.0764155751543247","0.0685634574349975","","","","",""
"27-123-1908","1,3-Butadiene","44.9730949401855","-93.1998825073242","St. Paul","","Residential","","South St. Anthony Park","meanRos_ug_m3","No","Undetermined","Minnesota","Urban And Center City","South St. Anthony Park","No","Butadiene","","","","","","","","","","","","","","0.0744922408215536","","","","","",""
"27-137-7549","1,3-Butadiene","46.771068572998","-92.117317199707","Duluth","","Industrial","","Michigan St.","meanRos_ug_m3","No","No Trend","Minnesota","Urban And Center City","Michigan Street","No","Butadiene","0.081583884351472","0.0974521907046437","0.0937566537240689","0.0770046692036214","0.073364311770181","0.0530051427586469","0.0860736718366169","0.139198723786439","0.0793945865665117","0.0634462668328221","0.0737903289496899","0.0955697773274216","0.0691297963388339","0.05441990743602","0.0609931382129201","","","","",""
"27-163-0436","1,3-Butadiene","44.8473701477051","-92.9953994750977","St. Paul","","Industrial","","MPC 436","meanRos_ug_m3","No","No Trend","Minnesota","Suburban","Saint Paul Park Refinery 436","No","Butadiene","0.0758200227715596","0.107252265107578","0.111383021761805","0.118251727496188","0.0927705162140573","0.084000821379433","0.148415006464347","0.151029232474552","0.0932147477762084","0.0929700104554869","0.0925166818823737","0.157871535646428","0.150020527434621","0.0890785979642108","0.0708760290565979","","","","",""
"27-163-0438","1,3-Butadiene","44.8571090698242","-93.0035171508789","Newport","","Industrial","","MPC 438","meanRos_ug_m3","No","No Trend","Minnesota","Suburban","Saint Paul Park Refinery 438","No","Butadiene","0.0612479998074823","0.082820192972819","0.0944165012885306","0.101250918368336","0.0822531845453277","0.071525937719046","0.116361979794844","0.147872566021148","0.0898717120289803","0.0859095827975082","0.0970453452788859","0.301432227910649","0.203695808142044","0.0648787180322336","0.0449366539512275","","","","",""
"27-163-0445","1,3-Butadiene","45.0187606811523","-92.7802734375","Bayport","","Residential","","Anderson School","meanRos_ug_m3","No","Undetermined","Minnesota","Suburban","Anderson School","No","Butadiene","","","","","0.0529603253344963","","","","","","","","","","","","","","",""
"27-163-0446","1,3-Butadiene","45.0279808044434","-92.7741470336914","Bayport","","Industrial","","Point Rd.","meanRos_ug_m3","No","No Trend","Minnesota","Suburban","Point Road","No","Butadiene","","","","","","0.0305018518455011","0.077143089812515","0.101558138563667","0.0631678624575747","0.0499813091398141","0.0496727072004199","0.0563136639338275","0.0575537721634283","0.0417572186407177","0.0508385490226697","","","","",""
"28-047-0008","1,3-Butadiene","30.3903694152832","-89.0497817993164","Gulfport","","Commercial","","UATMP: GPMS; Katrina: GPMS; BP Oil site GPMS","meanRos_ug_m3","No","Undetermined","Mississippi","Rural","Gulfport Youth Court","No","Butadiene","0.0715269995533362","","","0.0769480319373112","0.067774574661807","","","","","","","","","","","","","","",""
"28-049-0010","1,3-Butadiene","32.3857307434082","-90.1411972045898","Jackson","","Commercial","","UATMP: JAMS","meanRos_ug_m3","No","Undetermined","Mississippi","Suburban","Jackson FS19","No","Butadiene","0.140231503948433","0.191680084552098","","","","","","","","","","","","","","","","","",""
