"site_id","parameter_desc","latitude","longitude","city_name","location","land_use_type","setting","site_name","stat","used_in_nat_agg","trend","state_name","location_setting","local_site_name","natts","toxic_name_alias","2003","2004","2005","2006","2007","2008","2009","2010","2011","2012","2013","2014","2015","2016","2017","2018","2019","2020","2021","2022"
"01-097-3101","Formaldehyde","30.770299911499","-88.0875015258789","Mobile","","Residential","","","meanRos_ug_m3","No","Undetermined","Alabama","Suburban","","No","Formaldehyde","2.32035679919155","","","","","","","","","","","","","","","","","","",""
"01-097-3102","Formaldehyde","30.7089004516602","-88.0519027709961","Mobile","","Residential","","","meanRos_ug_m3","No","Undetermined","Alabama","Suburban","","No","Formaldehyde","2.82617337173886","","","","","","","","","","","","","","","","","","",""
"01-097-3103","Formaldehyde","30.9382991790771","-88.0250015258789","Mobile","","Residential","","","meanRos_ug_m3","No","Undetermined","Alabama","Rural","","No","Formaldehyde","1.03717948444602","","","","","","","","","","","","","","","","","","",""
"01-097-3104","Formaldehyde","30.6156005859375","-88.3443984985352","Mobile","","Residential","","","meanRos_ug_m3","No","Undetermined","Alabama","Rural","","No","Formaldehyde","2.27009818123447","","","","","","","","","","","","","","","","","","",""
"01-097-3105","Formaldehyde","30.5764007568359","-88.1402969360352","Mobile","","Commercial","","","meanRos_ug_m3","No","Undetermined","Alabama","Suburban","","No","Formaldehyde","2.30503844387001","","","","","","","","","","","","","","","","","","",""
"04-013-4003","Formaldehyde","33.4031600952148","-112.075332641602","Phoenix","","Residential","","UATMP: SPAZ","meanRos_ug_m3","No","Undetermined","Arizona","Urban And Center City","SOUTH PHOENIX","No","Formaldehyde","4.0695488402184","3.58672502636909","3.88614442696174","","","","","","","","","","","","","","","","",""
"04-013-9997","Formaldehyde","33.503833770752","-112.095764160156","Phoenix","Phoenix, AZ","Residential","Urban ","UATMP: PXSS; NATTS: Phoenix, AZ; IMPROVE: PHOE1","meanRos_ug_m3","Yes","No Trend","Arizona","Urban And Center City","JLG SUPERSITE","Yes","Formaldehyde","4.0203668163158","5.81844785383769","5.24836534869914","4.64456706047817","4.31600161443154","3.43223735934398","3.47357334726948","","3.8363779609402","3.81506523245671","3.75690332452456","3.3348721695728","3.83674582929322","3.63271802355503","4.46212936912553","11.0561979259214","3.61445340088436","4.73864355394917","4.44925544723388","4.19820381104946"
"06-001-1001","Formaldehyde","37.535831451416","-121.961822509766","Fremont","","Residential","","Fremont - Chapel Way","meanRos_ug_m3","No","No Trend","California","Suburban","Fremont - Chapel Way","No","Formaldehyde","2.71837347361349","1.88399195003098","1.56976487848067","1.9016920487086","1.73809404311509","1.71908571162531","1.65030120584492","","","","","","","","","","","","",""
"06-001-2004","Formaldehyde","37.8777923583984","-122.301292419434","Berkeley","","Commercial","","Berkeley 6th and Camelia","meanRos_ug_m3","No","Undetermined","California","Urban And Center City","Berkeley","No","Formaldehyde","","","","","","1.68840806112915","1.57956571852575","1.47890607483925","","","","","","","","","","","",""
"06-007-0002","Formaldehyde","39.7573699951172","-121.843284606934","Chico","","Commercial","","468 MANZANITA AVE, CHICO","meanRos_ug_m3","No","Decreasing","California","Suburban","Chico-Manzanita Ave.","No","Formaldehyde","4.75450770701132","4.166497250398","4.07743497144791","3.2304108719031","3.61962486704191","3.76397489155492","3.0910642541224","3.19217689832052","3.73196191556992","","","","","","","","","","",""
"06-007-0008","Formaldehyde","39.7615394592285","-121.841621398926","Chico","","Commercial","","Chico - East Avenue","meanRos_ug_m3","No","No Trend","California","Suburban","Chico-East Avenue","No","Formaldehyde","","","","","","","","","","","3.80894803951875","3.50702154437701","3.80574464003245","3.58964483439922","3.34300280958414","4.84391720641044","3.27868361771107","","","3.46304277976354"
"06-019-0008","Formaldehyde","36.7813339233398","-119.773193359375","Fresno","","Residential","","PM Supersite: Fresno","meanRos_ug_m3","No","No Trend","California","Suburban","3425 N FIRST ST, FRESNO","No","Formaldehyde","4.77564349499616","3.16515571071256","3.68759271231565","4.18245652221864","3.68577257792155","3.80622489651044","3.09295829772301","3.75935445982834","4.13239583661479","","","","","","","","","","",""
"06-019-0011","Formaldehyde","36.7853202819824","-119.77417755127","Fresno","","Commercial","","Fresno - Garland","meanRos_ug_m3","No","No Trend","California","Urban And Center City","Fresno - Garland","No","Formaldehyde","","","","","","","","","","4.20730002522469","4.74298055382336","4.38932452003161","4.47370748273258","4.23927943634264","4.69830569933201","4.65475022047758","3.75657154321671","","",""
"06-019-3002","Formaldehyde","36.6071701049805","-119.540679931641","Parlier","","Agricultural","","PARLIER","meanRos_ug_m3","No","Undetermined","California","Urban And Center City","PARLIER","No","Formaldehyde","","","","3.39656086609914","","","","","","","","","","","","","","","",""
"06-025-0005","Formaldehyde","32.6761856079102","-115.484146118164","Calexico","","Residential","","CALEXICO HIGH SCHOOL  ARB (#1300698)","meanRos_ug_m3","No","No Trend","California","Suburban","Calexico-Ethel Street","No","Formaldehyde","4.39697197387958","3.36576174456498","4.23547756920258","3.70953473051389","3.9759482562542","2.992307472229","3.50821492941149","5.78089079899447","4.54147249247347","4.00616426467896","3.63849012121078","3.37990612387657","3.85509342532004","4.48570572096726","3.94668342073688","4.6187848828733","","","","3.77202295103381"
"06-029-0014","Formaldehyde","35.3566017150879","-119.063545227051","Bakersfield","","Mobile","","Bakersfield-California Avenue","meanRos_ug_m3","Yes","Increasing","California","Urban And Center City","Bakersfield-California","No","Formaldehyde","3.9912680555135","2.84930044054985","3.33792821975315","3.3897975946174","3.16820654182723","3.15445500214895","3.27277434833588","3.52039006660724","3.25483892671764","3.5113261793599","3.74091809491316","","4.05820871144533","4.99675807025698","4.77482661333951","5.71352452916258","4.10241163653486","","","5.15585589408875"
"06-037-0002","Formaldehyde","34.1365013122559","-117.92391204834","Azusa","","Residential","","Azusa","meanRos_ug_m3","Yes","Increasing","California","Suburban","Azusa","No","Formaldehyde","4.25196773529053","3.74065920947877","4.30367139462349","","3.64183240334193","3.66469202836355","3.86401527395636","3.14102500355375","3.91844284747328","4.08845176299413","3.86424839688886","4.29535125494003","4.4653315504392","5.07318040632433","4.75500706036886","5.092733558019","3.87091455536504","","","4.57879339612049"
"06-037-1002","Formaldehyde","34.1760482788086","-118.317123413086","Burbank","","Commercial","","MATES: Burbank","meanRos_ug_m3","No","No Trend","California","Urban And Center City","Burbank","No","Formaldehyde","6.84252497006436","5.08780997077272","4.75104180739451","6.97734128858572","15.2029654479079","13.6944719664752","9.68269505025819","4.63405472263694","5.20605923514813","5.15929474784778","3.93669704347849","","","","","","","","",""
"06-037-1103","Formaldehyde","34.0665893554688","-118.22688293457","Los Angeles","Los Angeles, CA","Residential","Urban ","UATMP: CELA; NATTS: Los Angeles, CA; MATES: Central Los Angeles","meanRos_ug_m3","Yes","Decreasing","California","Urban And Center City","Los Angeles-North Main Street","Yes","Formaldehyde","4.63157434375198","5.95087241168533","5.51333912985384","5.52374855146088","5.7204410188176","6.21897563626689","4.12925432897949","4.01592371813835","4.16133653954603","4.40805585444246","4.28082560400168","4.74910621147938","4.84147858487235","4.45259562308195","4.37250510441563","4.3054231206576","3.86997545835299","4.10352205319537","3.17612607870251","4.13061708700462"
"06-037-1302","Formaldehyde","33.9013900756836","-118.205001831055","Compton","","Residential","","MATES: Compton","meanRos_ug_m3","No","Undetermined","California","Urban And Center City","Compton","No","Formaldehyde","","4.15919345736504","3.95076121070555","","","","","","","","","","","","","3.50888356779303","","","",""
"06-037-1601","Formaldehyde","34.0140686035156","-118.060562133789","Pico Rivera","","Commercial","","MATES: Pico Rivera","meanRos_ug_m3","No","Undetermined","California","Suburban","","No","Formaldehyde","6.11259617691948","4.73562406741821","5.03982414897666","","","","","","","","","","","","","","","","",""
"06-037-1602","Formaldehyde","34.0119400024414","-118.069946289063","Pico Rivera","","Commercial","","Pico Rivera #2","meanRos_ug_m3","No","Decreasing","California","Suburban","Pico Rivera #2","No","Formaldehyde","","","","6.39176754075654","6.09434548238429","5.91921434054772","10.1061451024023","10.1847400160159","4.43439002990723","4.77485233290583","","3.927989837916","","","","4.22564221474162","","","",""
"06-037-4002","Formaldehyde","33.8237609863281","-118.189208984375","Long Beach","","Residential","","UATMP: LBHCA; MATES: North Long Beach","meanRos_ug_m3","No","Decreasing","California","Suburban","Long Beach (North)","No","Formaldehyde","3.53807177941004","4.57745673060417","4.28211967280654","4.23171104258961","3.23286586123354","2.97702480554581","2.71983885765076","","","2.53891242345174","2.45166291618669","","","","","","","","",""
"06-037-4006","Formaldehyde","33.8014869689941","-118.220306396484","Long Beach","","","","MATES: West Long Beach","meanRos_ug_m3","No","Undetermined","California","","Long Beach (Hudson)","No","Formaldehyde","","","","","","","","","","","","","","","","2.87697100437294","","","",""
"06-037-4009","Formaldehyde","33.7937126159668","-118.171020507813","Signal Hill","","","","MATES: Long Beach","meanRos_ug_m3","No","Undetermined","California","","Signal Hill (LBSH)","No","Formaldehyde","","","","","","","","","","","","","","","","2.76073669775938","","","",""
"06-037-6012","Formaldehyde","34.3834381103516","-118.528396606445","Santa Clarita","","Commercial","","Santa Clarita","meanRos_ug_m3","No","Decreasing","California","Suburban","Santa Clarita","No","Formaldehyde","7.79345147690655","6.55965992382595","6.56135053918339","6.34513009233134","10.8676473823461","6.77369741360346","4.88138603290607","4.67107861362777","5.2578520671079","5.22369104882945","","4.09585518638293","","3.92868242206067","3.52841511087598","4.24414753523029","","","",""
"06-037-BURK","Formaldehyde","34.2616271972656","-118.412261962891","Pacoima","","","","MATES: Burbank Area","meanRos_ug_m3","No","Undetermined","California","","","No","Formaldehyde","","","","","","","","","","","","","","","","4.57124545899304","","","",""
"06-037-CELM","Formaldehyde","33.8374061584473","-118.331596374512","Torrance","","Residential","","Rule 1180 CAMP: Elm St.","meanRos_ug_m3","No","Undetermined","California","Suburban","","No","Formaldehyde","","","","","","","","","","","","","","","","","","","0.970547917725388","0.532832502249018"
"06-037-CFMC","Formaldehyde","33.782039642334","-118.267501831055","Wilmington","","Residential","","Rule 1180 CAMP: First Methodist Church","meanRos_ug_m3","No","Undetermined","California","Suburban","","No","Formaldehyde","","","","","","","","","","","","","","","","","","","0.919662687702559","0.736947542324814"
"06-037-CGPA","Formaldehyde","33.8703956604004","-118.313400268555","Torrance","","Residential","","Rule 1180 CAMP: Guenser Park","meanRos_ug_m3","No","Undetermined","California","Suburban","","No","Formaldehyde","","","","","","","","","","","","","","","","","","","0.58204350050174","0.711909472594"
"06-037-CHPA","Formaldehyde","33.7864456176758","-118.286003112793","Wilmington","","Residential","","Rule 1180 CAMP: Harbor Park","meanRos_ug_m3","No","Undetermined","California","Suburban","","No","Formaldehyde","","","","","","","","","","","","","","","","","","","","0.703154988911757"
"06-037-CHUD","Formaldehyde","33.8075332641602","-118.219802856445","West Long Beach","","Residential","","Rule 1180 CAMP: Hudson","meanRos_ug_m3","No","Undetermined","California","Suburban","","No","Formaldehyde","","","","","","","","","","","","","","","","","","","1.3838490723167","0.968920515947813"
"06-037-CINN","Formaldehyde","33.7849807739258","-118.214401245117","Long Beach","","Residential","","Rule 1180 CAMP: Inner Port","meanRos_ug_m3","No","Undetermined","California","Suburban","","No","Formaldehyde","","","","","","","","","","","","","","","","","","","","1.20003809880325"
"06-037-CJUD","Formaldehyde","33.8248634338379","-118.268501281738","Carson","","Residential","","Rule 1180 CAMP: Judson","meanRos_ug_m3","No","Undetermined","California","Suburban","","No","Formaldehyde","","","","","","","","","","","","","","","","","","","2.40042919946785","1.3774367777698"
"06-037-CMAN","Formaldehyde","33.8901710510254","-118.401397705078","Manhattan Beach","","Residential","","Rule 1180 CAMP: Manhattan Beach","meanRos_ug_m3","No","Undetermined","California","Suburban","","No","Formaldehyde","","","","","","","","","","","","","","","","","","","1.0498481724668","1.07834369314544"
"06-037-CSTA","Formaldehyde","33.918773651123","-118.407997131348","El Segundo","","Residential","","Rule 1180 CAMP: St. Anthony's","meanRos_ug_m3","No","Undetermined","California","Suburban","","No","Formaldehyde","","","","","","","","","","","","","","","","","","","1.4700961504554","1.10217696316887"
"06-037-CSTL","Formaldehyde","33.8213844299316","-118.212097167969","Long Beach","","Residential","","Rule 1180 CAMP: St. Luke's","meanRos_ug_m3","No","Undetermined","California","Suburban","","No","Formaldehyde","","","","","","","","","","","","","","","","","","","1.22149443686347","0.818733433042241"
"06-037-HNPK","Formaldehyde","33.9798431396484","-118.215881347656","Huntington Park","","","","MATES: Huntington Park","meanRos_ug_m3","No","Undetermined","California","","","No","Formaldehyde","","","","","","","","","","","","","","","","3.54235893239578","","","",""
"06-037-LWLB","Formaldehyde","33.7924194335938","-118.215896606445","Long Beach","","","","MATES: West Long Beach","meanRos_ug_m3","No","Undetermined","California","Urban And Center City","","No","Formaldehyde","","4.09819899893355","4.2081740808881","3.89392963691387","","","","","","","","","","","","","","","",""
"06-059-0001","Formaldehyde","33.8213539123535","-117.914268493652","Anaheim","","Residential","","MATES: Anaheim","meanRos_ug_m3","No","Undetermined","California","Suburban","Anaheim (1010 Harbor Blvd)","No","Formaldehyde","","3.61011855940796","3.70902429350087","","","","","","","","","","","","","","","","",""
"06-061-0006","Formaldehyde","38.7457275390625","-121.266311645508","Roseville","","Mobile","","Roseville-N Sunrise Blvd","meanRos_ug_m3","Yes","Increasing","California","Suburban","Roseville-N Sunrise Ave","No","Formaldehyde","4.04935104231681","2.77258347642833","2.506774777174","2.98353410178217","3.22218797535732","2.73638923421051","2.83557342290878","2.9567112137874","2.24421021630687","3.22283362348874","3.5294470325593","3.16576609611511","3.66989706713578","3.56598183032005","4.04669258594513","4.27612771193186","3.31464973886808","","","3.41019648710887"
"06-065-0012","Formaldehyde","33.9208602905273","-116.858413696289","Banning","","Commercial","","Banning Airport","meanRos_ug_m3","No","No Trend","California","Suburban","Banning Airport","No","Formaldehyde","7.62765112207897","4.59952377148394","5.10287492558108","5.5536341713924","6.32581517049822","6.5139855431087","","","","","","","","","","","","","",""
"06-065-8001","Formaldehyde","33.9995803833008","-117.416007995605","Rubidoux","Rubidoux, CA","Residential","Urban ","UATMP: RUCA; NATTS: Rubidoux, CA; MATES: Rubidoux","meanRos_ug_m3","Yes","No Trend","California","Suburban","Rubidoux","Yes","Formaldehyde","5.07802519875188","4.78022608361478","4.37889217428035","3.05944695820411","4.81165214533156","4.35559461365143","4.47486813586266","3.40138589830722","3.59672698328892","3.12234089290791","3.77157776455085","3.59870590387829","3.59326245753389","3.73799746820042","3.22183829293413","5.08544942935308","3.79696510653747","4.44449687004089","3.66936679550859","3.9650246139872"
"06-071-2002","Formaldehyde","34.1000213623047","-117.492012023926","Fontana","","Industrial","","MATES: Inland Valley San Bernardino","meanRos_ug_m3","No","Undetermined","California","Suburban","Fontana","No","Formaldehyde","","4.4314672003672","4.54485759603195","","","","","","","","","","","","","5.38919247738246","","","",""
"06-073-0001","Formaldehyde","32.6312294006348","-117.059074401855","Chula Vista","","Residential","","Chula Vista","meanRos_ug_m3","Yes","No Trend","California","Suburban","Chula Vista","No","Formaldehyde","2.88187772227872","2.43449973662694","2.6135934193929","2.36192451753924","2.28204966783524","2.35201776425044","2.17885410016583","1.91947469234467","2.2546233598675","2.44196845293045","2.07224290370941","2.26836228370667","2.58125593264898","3.01174734698402","2.80342014233271","2.9618244132688","2.60427432224668","","","2.56319313280044"
"06-073-0003","Formaldehyde","32.7911949157715","-116.942092895508","El Cajon","","Commercial","","El Cajon","meanRos_ug_m3","No","No Trend","California","Suburban","El Cajon","No","Formaldehyde","3.85201868869491","3.43408487763788","3.24249594807625","3.83099723571823","3.56903490424156","3.30895493365824","3.17689449748685","3.14833539051394","3.33953410784404","3.50862450580128","3.21318039794763","","","","","","","","",""
"06-073-0006","Formaldehyde","32.8364601135254","-117.128753662109","San Diego","","Commercial","","Kearny Mesa","meanRos_ug_m3","No","No Trend","California","Suburban","Kearny Mesa","No","Formaldehyde","3.33332905297478","2.68509323950167","2.7822420859741","3.69184522587678","3.48404551245475","3.0531227270077","2.87111732217132","3.11498950543951","2.47820013616143","","","","","","","","","","",""
"06-073-1010","Formaldehyde","32.7014923095703","-117.14965057373","San Diego","","Commercial","","Downtown","meanRos_ug_m3","No","Undetermined","California","Urban And Center City","San Diego - Beardsley Street","No","Formaldehyde","","","","","","","","","","","2.49584887949926","","3.08761337854094","","","","","","",""
"06-073-1018","Formaldehyde","32.8179779052734","-116.968132019043","El Cajon","","Commercial","","El Cajon - Floyd Smith Drive","meanRos_ug_m3","No","Undetermined","California","Suburban","El Cajon - Floyd Smith Dr.","No","Formaldehyde","","","","","","","","","","","","","3.55974782027047","","","","","","",""
"06-073-1022","Formaldehyde","32.7895622253418","-116.944221496582","El Cajon","","Commercial","","El Cajon - Lexington Elementary School","meanRos_ug_m3","No","Undetermined","California","Suburban","El Cajon - Lexington Elementary School","No","Formaldehyde","","","","","","","","","","","","","","","","4.02130802216068","3.40378626329558","","","3.5668500054382"
"06-075-0005","Formaldehyde","37.7659454345703","-122.399040222168","San Francisco","","Industrial","","San Francisco - Arkansas St.","meanRos_ug_m3","Yes","No Trend","California","Urban And Center City","San Francisco","No","Formaldehyde","2.08747622340408","1.91806245630692","1.35377166122324","1.75013009226606","1.57116621732712","1.27373475631078","1.41650774970844","1.65411298433722","1.67912633617719","1.3032641073068","1.7818821553261","1.6360981464386","1.87726202408473","1.93306584358215","2.04057002663612","2.14290695046556","1.61538038253784","","","1.43656146712601"
"06-077-1002","Formaldehyde","37.950740814209","-121.268524169922","Stockton","","Residential","","HAZELTON-HD, STOCKTON","meanRos_ug_m3","No","Increasing","California","Urban And Center City","Stockton-Hazelton","No","Formaldehyde","2.5538771704242","2.29161515552551","2.26535263905923","2.5862141141007","2.78034362476319","2.47859766356873","2.46810196388152","2.48555887464819","2.66457829531282","2.59566039741039","3.01776368170977","2.89890271232974","3.16734747540566","3.06242147833109","3.50647789816703","3.31150250509381","2.72702042063077","","",""
"06-077-1003","Formaldehyde","37.9615783691406","-121.281410217285","Stockton","","","","Stockton - University Park","meanRos_ug_m3","No","Undetermined","California","","Stockton - University Park","No","Formaldehyde","","","","","","","","","","","","","","","","","","","","2.58060863511316"
"06-085-0005","Formaldehyde","37.3484954833984","-121.894897460938","San Jose","San Jose, CA","Commercial","Urban ","UATMP: SJCA; NATTS: San Jose, CA","meanRos_ug_m3","Yes","No Trend","California","Urban And Center City","San Jose - Jackson","Yes - Former","Formaldehyde","3.51233859459559","2.72074318034896","2.28362615406513","2.57309414446354","2.54880059472585","2.46319749903294","2.19567369584177","2.11147323153058","2.32592454456514","2.24131410703307","2.76397856060536","2.53259016750223","2.90297683676084","2.37580984360293","2.94755010853211","2.60696292747842","2.43003257612387","3.31859995376679","2.26889677558626","2.59803398177028"
"06-085-2009","Formaldehyde","37.3184356689453","-122.069702148438","Cupertino","","Residential","","Cupertino Monta Vista","meanRos_ug_m3","No","Undetermined","California","Suburban","Cupertino Monta Vista","No","Formaldehyde","","","","","","","","","1.75907138331992","1.67526520471104","2.02465852704205","","","","","","","","",""
"06-095-0006","Formaldehyde","38.065601348877","-122.150703430176","Benicia","","Residential","","Benicia - VIP","meanRos_ug_m3","No","Undetermined","California","Suburban","Benicia - VIP","No","Formaldehyde","","","","","","1.31104550596143","","","","","","","","","","","","","",""
"06-111-2002","Formaldehyde","34.2763633728027","-118.683753967285","Simi Valley","","Residential","","SIMI VALLEY","meanRos_ug_m3","Yes","No Trend","California","Suburban","Simi Valley-Cochran Street","No","Formaldehyde","3.15870627150307","2.81533479823598","2.8541375850809","2.47394440472126","2.73074871003628","2.76986363927523","2.6180196712094","2.87170254030535","2.4929053610371","2.98528701279845","2.95316366354624","2.80053191483021","3.15805732011795","3.72533737790996","3.06783900459607","3.3915470665501","2.69271243549883","","","3.11391601254863"
"08-013-7001","Formaldehyde","40.0137825012207","-105.254051208496","Boulder","","Commercial","","Boulder Fire Station","meanRos_ug_m3","No","Undetermined","Colorado","Rural","Boulder Fire Station","No","Formaldehyde","","","","","2.39647588479144","","","","","","","","","","","","","","",""
"08-013-7002","Formaldehyde","40.1488990783691","-105.059234619141","Not In A City","","Residential","","Longmont","meanRos_ug_m3","No","Undetermined","Colorado","Suburban","Longmont","No","Formaldehyde","","","","","2.02485756741678","","","","","","","","","","","","","","",""
"08-013-7003","Formaldehyde","40.2041816711426","-105.248229980469","Not In A City","","Residential","","Lyons","meanRos_ug_m3","No","Undetermined","Colorado","Suburban","Lyons","No","Formaldehyde","","","","","2.18357406491819","","","","","","","","","","","","","","",""
"08-013-7004","Formaldehyde","40.0362510681152","-105.543380737305","Not In A City","","Forest","","Niwot Ridge; NADP: CO90","meanRos_ug_m3","No","Undetermined","Colorado","Rural","Niwot Ridge","No","Formaldehyde","","","","","1.29254145580281","","","","","","","","","","","","","","",""
"08-013-7005","Formaldehyde","39.9571990966797","-105.238471984863","Not In A City","","Agricultural","","ALONG SOUTH BOULDER CREEK NEXT TO LAFAYETTE WATER TREATMENT PLANT","meanRos_ug_m3","No","Undetermined","Colorado","Rural","ALONG SOUTH BOULDER CREEK NEXT TO LAFAYETTE WATER TREATMENT PLANT","No","Formaldehyde","","","","","1.81850133300303","","","","","","","","","","","","","","",""
"08-045-0005","Formaldehyde","39.4536552429199","-108.053260803223","Parachute","","Residential","","UATMP: PACO; PARACHUTE - HIGH SCHOOL","meanRos_ug_m3","No","No Trend","Colorado","Urban And Center City","PARACHUTE - HIGH SCHOOL","No","Formaldehyde","","","","","","1.51545701972369","1.49531694948673","1.29522641854627","","1.02691969882559","1.1050222837008","0.980525648593903","","1.01618573185185","1.04914102908866","1.64265322484649","","","",""
"08-045-0007","Formaldehyde","39.5318145751953","-107.782295227051","Rifle","","Commercial","","UATMP: RICO; RIFLE - HENRY BLDG","meanRos_ug_m3","No","Decreasing","Colorado","Urban And Center City","RIFLE - HENRY BLDG","No","Formaldehyde","","","","","","1.63465298087366","1.45136272085124","1.51997659852107","","1.19067450532956","1.19632993370295","0.638782182501422","1.06815682695462","1.1377978404363","","","","","",""
"08-045-0009","Formaldehyde","39.4877548217773","-107.659683227539","Silt","","Agricultural","","UATMP: BRCO","meanRos_ug_m3","No","No Trend","Colorado","Rural","","No","Formaldehyde","","","","","","0.869225366461662","1.19095395046931","","","0.868814209742205","0.747717823546666","","0.701942402071187","0.318640368632399","0.877012380238237","1.39891242579772","","","",""
"08-045-0018","Formaldehyde","39.4122772216797","-107.230400085449","Not In A City","","Residential","","UATMP: RFCO; CMC Boat House","meanRos_ug_m3","No","Undetermined","Colorado","Rural","Carbondale Rocky Mountain School (Boathouse)","No","Formaldehyde","","","","","","","","","","","0.600275004834489","0.651693809204377","","","","","","","",""
"08-045-0019","Formaldehyde","39.438060760498","-108.026107788086","Battlement Mesa","","Commercial","","Battlement Mesa","meanRos_ug_m3","No","No Trend","Colorado","Suburban","Battlement Mesa","No","Formaldehyde","","","","","","","","","","0.784149673480827","0.701872977960323","0.64963106341936","","0.789975048353275","0.740754369894663","1.44060087866253","1.23837812524289","","",""
"08-045-0020","Formaldehyde","39.5463981628418","-107.328598022461","Glenwood Springs","","Commercial","","Vogelaar Park, Glenwood Springs","meanRos_ug_m3","No","Undetermined","Colorado","Suburban","Vogelaar Park, Glenwood Springs","No","Formaldehyde","","","","","","","","","","","","","0.674275229756649","","","","","","",""
"08-045-0023","Formaldehyde","39.5306816101074","-107.782249450684","Rifle","","Commercial","","Garfield County Library","meanRos_ug_m3","No","Undetermined","Colorado","Urban And Center City","Garfield County Library","No","Formaldehyde","","","","","","","","","","","","","","","1.24999407359532","1.40782009989575","1.21597865744735","1.74235222128959","",""
"08-077-0018","Formaldehyde","39.0642890930176","-108.561546325684","Grand Junction","Grand Junction, CO","Commercial","Urban ","UATMP: GPCO; NATTS: Grand Junction, CO","meanRos_ug_m3","Yes","No Trend","Colorado","Urban And Center City","GRAND JUNCTION - PITKIN","Yes","Formaldehyde","","2.46115268897592","2.71446514946799","3.51098256111145","3.50842692796141","3.59237787567201","3.51345091865909","2.43128817003281","2.4051689962546","2.650671691191","5.58023934939812","3.41005409894318","2.72885302630338","2.44233725838742","2.56740752115088","3.58486719781702","2.29150959394746","2.07291722297668","4.02366221146505","2.32675294602504"
"10-001-0002","Formaldehyde","38.9866714477539","-75.5568008422852","Not In A City","","Agricultural","","PROPERTY OF KILLENS POND STATE PARK; BEHIND FARM BUILDINGS","meanRos_ug_m3","No","Undetermined","Delaware","Rural","PROPERTY OF KILLENS POND STATE PARK; BEHIND FARM BUILDINGS","No","Formaldehyde","1.26564101092531","1.53011829122401","","","","","","","","","","","","","","","","","",""
"10-003-1007","Formaldehyde","39.5513000488281","-75.7320022583008","Not In A City","","Agricultural","","PAMS: Lums Pond; NADP: DE99","meanRos_ug_m3","No","Undetermined","Delaware","Rural","Lums Pond","No","Formaldehyde","1.45669350468948","1.41284470078272","1.54153682017376","","","","","","","","","","","","","","","","",""
"10-003-1008","Formaldehyde","39.5776786804199","-75.6035995483398","Delaware City","","Agricultural","","Route 9 Delaware City","meanRos_ug_m3","No","Undetermined","Delaware","Rural","Route 9 Delaware City","No","Formaldehyde","1.26805447093986","1.29082714346285","1.76370645962078","","","","","","","","","","","","","","","","",""
"10-003-2004","Formaldehyde","39.739444732666","-75.5580596923828","Wilmington","","Commercial","","CORNER OF MLK BLVD AND JUSTISON ST, NO TRAFFIC DATA AVAILABLE","meanRos_ug_m3","No","No Trend","Delaware","Urban And Center City","MLK  CORNER OF MLK BLVD AND JUSTISON ST","No","Formaldehyde","2.41559471641163","2.25393844823368","2.46318791579392","2.20561518887799","2.66516876237358","2.4911994158097","1.91731764186742","3.42284063678038","","","","3.11184245865378","","","","","","","",""
"10-005-1002","Formaldehyde","38.6539001464844","-75.6106033325195","Seaford","","Residential","","Seaford Shipley State Service Center","meanRos_ug_m3","No","Undetermined","Delaware","Suburban","Seaford Shipley State Service Center","No","Formaldehyde","","1.78341794895873","1.52263058988111","","","","","","","","","","","","","","","","",""
"11-001-0043","Formaldehyde","38.9218482971191","-77.0131759643555","Washington","Washington, DC","Commercial","Urban ","UATMP: WADC; NATTS: Washington, D.C.","meanRos_ug_m3","Yes","No Trend","District of Columbia","Urban And Center City","MCMILLAN  NCore-PAMS","Yes","Formaldehyde","","3.91146767360193","3.36002690381691","5.82438818721537","4.53912102182706","3.8027616582933","3.03914517225301","6.8761697680552","3.76659680543057","2.87537770779406","3.22700789521952","2.95735455552737","6.39992556373278","4.08985613783201","3.81984662227943","3.84369542797406","3.97981595015917","3.24550165860884","3.20956775399505","1.9550357991356"
"12-011-1002","Formaldehyde","26.0831432342529","-80.2375869750977","Davie","","Commercial","","UATMP: FLFL","meanRos_ug_m3","No","Undetermined","Florida","Suburban","U of F Ag Research Center","No","Formaldehyde","","","","3.04361276221108","","","","","","","","","","","","","","","",""
"12-011-2004","Formaldehyde","26.2175827026367","-80.1275482177734","Pompano Beach","","Commercial","","UATMP: FLFL(2)","meanRos_ug_m3","No","Undetermined","Florida","Suburban","","No","Formaldehyde","1.23040822589839","","","","","","","","","","","","","","","","","","",""
"12-057-0081","Formaldehyde","27.7400321960449","-82.4651489257813","Tampa","","Forest","","UATMP: SMFL; PILOT CITY:  Simmons Park","meanRos_ug_m3","No","Undetermined","Florida","Rural","Simmons Park","No","Formaldehyde","","","14.9222356634481","2.58623890212325","","","","","","","","","","","","","","","",""
"12-057-1065","Formaldehyde","27.8925228118896","-82.5384292602539","Tampa","","Commercial","","UATMP: GAFL; NADP: FL18; PILOT CITY: Gandy","meanRos_ug_m3","No","No Trend","Florida","Suburban","USMC Reserve Center (Gandy)","No","Formaldehyde","2.39150824776867","2.12527198017689","10.757421593917","4.46808198045512","2.46210757046938","1.66644299874703","","","","","","","","","","","","","",""
"12-057-1075","Formaldehyde","28.0502967834473","-82.3778686523438","Tampa","","Residential","","UATMP: LEFL; PILOT CITY: Lewis","meanRos_ug_m3","No","Undetermined","Florida","Urban And Center City","WHITEWAY DRIVE TAMPA","No","Formaldehyde","2.36495432591644","","","","","","","","","","","","","","","","","","",""
"12-057-3002","Formaldehyde","27.9656505584717","-82.2304000854492","Plant City","Tampa, FL","Residential","Urban ","UATMP: SYFL; NATTS: Tampa, FL","meanRos_ug_m3","Yes","No Trend","Florida","Rural","SYDNEY","Yes","Formaldehyde","","2.00849154243867","2.28672798053693","1.60117331489188","3.10523045758406","2.42007560531298","2.59089042445024","2.7591148790766","2.29829340378443","2.22186283071836","1.82337310568231","2.04159091385928","2.35669067031459","2.29619569224971","2.71305684027848","2.06760154863199","2.88319141843489","2.51235095899681","1.97542709819341","2.22327693617135"
"12-086-4002","Formaldehyde","25.7987098693848","-80.2100448608398","Miami","","Commercial","","UATMP: MDFL","meanRos_ug_m3","No","Undetermined","Florida","Urban And Center City","Lab Annex","No","Formaldehyde","0.633852659552186","","","","","","","","","","","","","","","","","","",""
"12-095-2002","Formaldehyde","28.5963897705078","-81.3625030517578","Winter Park","","Commercial","","UATMP: ORFL","meanRos_ug_m3","No","Decreasing","Florida","Urban And Center City","WINTER PARK","No","Formaldehyde","2.63229056861666","3.28510694091137","3.28121540202933","2.50025492418008","2.5917734565406","2.18745294768931","2.09524410083646","1.92996831933657","1.88525235056877","2.06008717075723","1.83681736324654","2.21021767357985","2.36740287419023","","","","","","",""
"12-099-0008","Formaldehyde","26.7247867584229","-80.6664505004883","Belle Glade","","Industrial","","UATMP: BGFL","meanRos_ug_m3","No","Undetermined","Florida","Rural","Belle Glade","No","Formaldehyde","0.359381157776405","","","","","","","","","","","","","","","","","","",""
"12-099-2005","Formaldehyde","26.4569435119629","-80.0927810668945","Delray Beach","","Commercial","","UATMP: DBFL","meanRos_ug_m3","No","Undetermined","Florida","Urban And Center City","DELRAY BEACH","No","Formaldehyde","2.4327281276385","","","","","","","","","","","","","","","","","","",""
"12-103-0004","Formaldehyde","27.9466876983643","-82.7317657470703","Clearwater","","Commercial","","UATMP: CWFL","meanRos_ug_m3","No","Undetermined","Florida","Suburban","St. Petersburg College","No","Formaldehyde","3.03336542546749","","","","","","","","","","","","","","","","","","",""
"12-103-0018","Formaldehyde","27.7858657836914","-82.739875793457","St. Petersburg","","Residential","","UATMP: AZFL; PILOT CITY: Azalea Park","meanRos_ug_m3","No","No Trend","Florida","Suburban","Azalea Park","No","Formaldehyde","2.26091442774918","1.79533085624377","1.93171576136037","2.46612714255442","2.98490141232808","3.0621548793355","2.03918057382107","1.72213879960482","1.87571531630331","1.91840071294267","1.76760679079314","2.22697465760367","1.79078402601439","7.28055710089011","","","","","",""
"12-103-0026","Formaldehyde","27.8503475189209","-82.7144622802734","Pinellas Park","Pinellas County, FL","Residential","Urban ","UATMP: SKFL; NATTS: Pinellas County, FL","meanRos_ug_m3","Yes","No Trend","Florida","Suburban","Skyview","Yes","Formaldehyde","","","3.85148886383557","2.43393313884735","1.67599297662576","1.7619414627552","1.28948107703787","1.23271189361322","2.15791070803267","2.6977685225212","1.53205672949553","1.88003660678864","3.39833443020952","4.77290656089278","1.83365950645027","1.936150812019","2.49037145495415","2.33886350194613","4.98336236654188","2.04067724429328"
"13-051-0021","Formaldehyde","32.0691833496094","-81.0487442016602","Savannah","","Commercial","","Savannah-E. President Street","meanRos_ug_m3","No","No Trend","Georgia","Suburban","Savannah-E. President","No","Formaldehyde","2.09547296838144","2.6898730231057","2.78452990045658","2.69978430547275","2.34432099992795","1.53277391299545","2.16398222429325","8.49820390769414","8.45018710761235","4.28278047575952","1.91411905213916","","1.97758167781509","3.37087307969729","2.1696502797019","0.231882521005701","","","",""
"13-085-0001","Formaldehyde","34.3763084411621","-84.0595550537109","Dawsonville","","Unknown","","Dawsonville, Georgia Forestry Commission","meanRos_ug_m3","No","No Trend","Georgia","Rural","Dawsonville","No","Formaldehyde","2.45667382560914","1.94939230505137","2.03388991855442","1.54668612877436","9.19813108488873","1.59521129124205","1.87180693203613","5.07842734826879","2.51401002031103","1.41867603478076","1.4694437501754","","3.44388106120949","","","","","","",""
"13-089-0002","Formaldehyde","33.6880798339844","-84.2901763916016","Decatur","Atlanta, GA","Residential","Urban ","UATMP: SDGA; NATTS: South DeKalb, GA; PAMS: South DeKalb; IMPROVE: ATLA1","meanRos_ug_m3","No","Decreasing","Georgia","Suburban","South DeKalb","Yes","Formaldehyde","8.54919884247439","4.78369338027502","6.94563357994474","8.72650031248728","7.58889997856958","4.98582870310003","7.37488603801058","4.62442024914842","","","","","","","1.72090388225032","4.13760680714667","2.22529451634552","1.79541142797861","1.4579972343864","1.47181298807263"
"13-089-3001","Formaldehyde","33.8457412719727","-84.2134017944336","Tucker","","Residential","","PAMS: Tucker","meanRos_ug_m3","No","Undetermined","Georgia","Rural","Tucker-Idlewood Road","No","Formaldehyde","14.5769506430947","21.8931793085084","15.0804418457879","12.3537736691927","","","","","","","","","","","","","","","",""
"13-127-3001","Formaldehyde","31.1851863861084","-81.4851684570313","Brunswick","","Residential","","","meanRos_ug_m3","No","No Trend","Georgia","Suburban","","No","Formaldehyde","2.07666299928148","2.26172880615507","4.10774694470879","3.33365288629353","2.96819647789001","","","","","","","","","","","","","","",""
"13-223-0003","Formaldehyde","33.9285011291504","-85.0453414916992","Yorkville","","Agricultural","","PAMS: Yorkville (Near Rockmart)","meanRos_ug_m3","No","Undetermined","Georgia","Rural","Yorkville, King Farm","No","Formaldehyde","","","","","","","","","","","","","","3.86519456064949","","","","","",""
"15-003-2004","Formaldehyde","21.3928337097168","-157.969131469727","Pearl City","","Residential","","PEARL CITY","meanRos_ug_m3","No","No Trend","Hawaii","Urban And Center City","Pearl City","No","Formaldehyde","1.85630772290755","1.91709759069044","1.69084342808094","1.65057560509326","1.93455050351485","1.47453830071858","1.58511578450437","1.59386962554494","","","","","","","","","","","",""
"16-001-0100","Formaldehyde","43.6012992858887","-116.347297668457","Meridian","","Commercial","","","meanRos_ug_m3","No","Undetermined","Idaho","Suburban","","No","Formaldehyde","","","","","3.74057895646376","","","","","","","","","","","","","","",""
"16-001-0200","Formaldehyde","43.5775985717773","-116.177696228027","Boise","","Residential","","White Pine Elementary School","meanRos_ug_m3","No","Undetermined","Idaho","Urban And Center City","","No","Formaldehyde","","","","","2.47524943396509","","","","","","","","","","","","","","",""
"16-001-0300","Formaldehyde","43.6366691589355","-116.270217895508","Boise","","Residential","","Mt. View","meanRos_ug_m3","No","Undetermined","Idaho","Urban And Center City","","No","Formaldehyde","","","","","1.88376537114382","","","","","","","","","","","","","","",""
"16-027-0004","Formaldehyde","43.5624008178711","-116.563232421875","Nampa","","Residential","","NORTHWEST NAZARENE COLLEGE SAMPLER ON ARTS BUILDING IN SUB. SETTING","meanRos_ug_m3","No","Undetermined","Idaho","Suburban","NORTHWEST NAZARENE COLLEGE SAMPLER ON ARTS BUILDING IN SUB. SETTING","No","Formaldehyde","4.06026316275362","2.91433626099637","","","2.25525311713271","","","","","","","","","","","","","","",""
"16-027-0400","Formaldehyde","43.7872009277344","-116.959602355957","Parma","","Agricultural","","Parma","meanRos_ug_m3","No","Undetermined","Idaho","Rural","","No","Formaldehyde","","","","","1.77651623884837","","","","","","","","","","","","","","",""
"16-069-0006","Formaldehyde","46.4295616149902","-116.99242401123","Lewiston","","Industrial","","","meanRos_ug_m3","No","Undetermined","Idaho","Suburban","","No","Formaldehyde","","","","6.86720272302628","","","","","","","","","","","","","","","",""
"16-069-0009","Formaldehyde","46.4177780151367","-117.018608093262","Lewiston","","Commercial","","","meanRos_ug_m3","No","Undetermined","Idaho","Urban And Center City","","No","Formaldehyde","","","","7.58971240018543","","","","","","","","","","","","","","","",""
"16-069-0012","Formaldehyde","46.4083518981934","-116.992530822754","Lewiston","","Residential","","SUNSET PARK LOCATION, BETWEEN CITY CENTER AND POTLACH CORP.,","meanRos_ug_m3","No","Undetermined","Idaho","Suburban","SUNSET PARK LOCATION, BETWEEN CITY CENTER AND POTLACH CORP.,","No","Formaldehyde","","","","7.99960970878601","","","","","","","","","","","","","","","",""
"16-069-0013","Formaldehyde","46.3972015380859","-116.806198120117","Lapwei","","Residential","","","meanRos_ug_m3","No","Undetermined","Idaho","Rural","","No","Formaldehyde","","","","5.00173149277002","","","","","","","","","","","","","","","",""
"16-069-0222","Formaldehyde","46.4380874633789","-116.905181884766","Not In A City","","Commercial","","","meanRos_ug_m3","No","Undetermined","Idaho","Rural","","No","Formaldehyde","","","","5.19945239424706","","","","","","","","","","","","","","","",""
"17-031-3103","Formaldehyde","41.9651947021484","-87.8762664794922","Schiller Park","","Mobile","","UATMP: SPIL","meanRos_ug_m3","Yes","Increasing","Illinois","Suburban","IEPA TRAILER","No","Formaldehyde","2.37609823963098","1.77035363157106","23.7981083070238","13.7908290169555","2.47992212302433","2.32868782744596","1.8958338194311","2.59197696238414","3.35317433649494","3.08245236365522","3.44181932382225","3.2564570964393","3.91306124749731","3.64880047346416","5.82079671060338","4.93012822065197","6.82539335091909","6.41522685268469","5.59177647258895","7.52891780223165"
"17-031-4201","Formaldehyde","42.1399955749512","-87.7992248535156","Northbrook","Chicago, IL","Residential","Urban ","UATMP: NBIL; NATTS: Chicago, IL","meanRos_ug_m3","Yes","Increasing","Illinois","Suburban","NORTHBROOK WATER PLANT","Yes","Formaldehyde","1.69703348179658","0.758024829088323","1.72468701801928","1.65613985539083","0.638924214288943","0.556350069000195","0.652205130908586","3.78913076953454","2.56625595881093","2.49544518170032","2.02674214013161","1.3462338862094","2.06248165118067","2.19590752862268","2.86559219536234","2.97683525769437","2.40111416982392","2.97143416206042","17.8591943927249","14.8809817190524"
"17-119-9010","Formaldehyde","38.8483810424805","-90.076416015625","Roxana","","Industrial","","UATMP: ROIL; Phillips 66 Wood River Refinery","meanRos_ug_m3","No","Undetermined","Illinois","Suburban","Phillips 66 Wood River Refinery","No","Formaldehyde","","","","","","","","","","","3.19909421146893","3.07735688289007","","","","","","","",""
"18-089-0022","Formaldehyde","41.6066818237305","-87.3047256469727","Gary","","Industrial","","UATMP: INDEM","meanRos_ug_m3","No","Decreasing","Indiana","Urban And Center City","Gary-IITRI/ 1219.5 meters east of Tennessee St.- old ammuntion bunker","No","Formaldehyde","","41.9270604050384","72.1938014687462","62.7665006143075","36.293207124869","74.3408364688946","2.60933143607641","2.4442310489592","2.3425386161135","2.50794979677362","2.17799174785614","2.65056093324695","3.00104224383831","3.69070965051651","","","","","",""
"18-097-0057","Formaldehyde","39.7490196228027","-86.1863174438477","Indianapolis","","Residential","","UATMP: ININ","meanRos_ug_m3","No","Undetermined","Indiana","Urban And Center City","Indpls- Harding St.","No","Formaldehyde","","","","","4.15449860801951","6.23118747740376","","","","","","","","","","","","","",""
"18-097-0078","Formaldehyde","39.8110961914063","-86.1144714355469","Indianapolis","","Residential","","UATMP: WPIN","meanRos_ug_m3","Yes","Decreasing","Indiana","Suburban","Indpls- Washington Park/  in parking lot next to police station","No","Formaldehyde","8.49117267475678","","3.43692541122437","2.5971823878331","4.04826733257089","3.45785985255645","3.13925874034564","3.62055047069277","4.25961201564938","4.31504693113524","3.44487789170495","2.71427799706106","3.38414432638783","3.60795544950586","3.17813227020326","3.38082232475281","2.43959644750545","2.46879091650941","1.82988808296079","2.66660804333894"
"18-097-0085","Formaldehyde","39.7403831481934","-86.2259521484375","Indianapolis","","Military Reservation","","UATMP: IDIN","meanRos_ug_m3","No","Undetermined","Indiana","Urban And Center City","Stout Field 2","No","Formaldehyde","","","","","3.65849968715239","3.08584874995211","","","","","","","","","","","","","",""
"19-045-0019","Formaldehyde","41.8232841491699","-90.2119827270508","Clinton","","Industrial","","CLINTON, CHANCY PARK","meanRos_ug_m3","No","No Trend","Iowa","Urban And Center City","CLINTON, CHANCY PARK","No","Formaldehyde","","","","","","","","","","","","2.36158468368206","2.47664628922939","2.38289958872694","1.90476420346428","1.73938267328301","1.59536760081263","1.33901382923126","2.3734440284264","17.4046162522357"
"19-113-0033","Formaldehyde","42.2810134887695","-91.5268783569336","Coggon","","Residential","","COGGON ELEMENTARY SCHOOL BLDG. NORTHERN LIMITS OF LINN COUNTY","meanRos_ug_m3","No","Undetermined","Iowa","Urban And Center City","COGGON ELEMENTARY SCHOOL BLDG. NORTHERN LIMITS OF LINN COUNTY","No","Formaldehyde","","","","","","","1.5950433537364","2.20407567475293","","2.52620485554571","1.64854871928692","","","","","","","","",""
"19-113-0037","Formaldehyde","42.0050811767578","-91.6792984008789","Cedar Rapids","","Residential","","UATMP: C2IA; PILOT CITY: Army Reserve","meanRos_ug_m3","No","Undetermined","Iowa","Urban And Center City","ARMY RESERVE CENTER ROOF- CORE MONITORING SITE","No","Formaldehyde","","2.34341543747319","2.95576087674316","2.87784089418975","2.79666377062147","","","","","","","","","","","","","","",""
"19-113-0040","Formaldehyde","41.9767684936523","-91.6876602172852","Cedar Rapids","","Residential","","Public Health","meanRos_ug_m3","No","No Trend","Iowa","Urban And Center City","Public Health","No","Formaldehyde","","","","","","2.1584417094355","1.82561443654858","2.06513999729622","2.65094882371474","2.86405311897397","2.343744534619","2.10771141534156","2.0573392675278","2.22127018620571","2.1361028213127","2.14029252650786","1.89328805664006","2.02451033101362","2.37976355360536","2.23520018318866"
"19-113-0050","Formaldehyde","41.9795570373535","-91.6805648803711","Cedar Rapids","","Industrial","","CR School","meanRos_ug_m3","No","Undetermined","Iowa","Urban And Center City","CR School","No","Formaldehyde","","","","","","","","2.88270105542363","","3.85484983026981","2.7756710153945","","","","","","","","",""
"19-113-0060","Formaldehyde","41.9242515563965","-91.6780776977539","Cedar Rapids","","Commercial","","HACAP","meanRos_ug_m3","No","Undetermined","Iowa","Urban And Center City","HACAP","No","Formaldehyde","","","","","","","","2.57631164628106","","3.00123896253736","2.68855517975827","","","","","","","","",""
"19-113-0070","Formaldehyde","41.9812812805176","-91.6787338256836","Cedar Rapids","","Residential","","H Avenue","meanRos_ug_m3","No","Undetermined","Iowa","Urban And Center City","H Avenue","No","Formaldehyde","","","","","","","","","","2.85188362220439","2.25776407003403","","","","","","","","",""
"19-139-0020","Formaldehyde","41.4068984985352","-91.0615997314453","Muscatine","","Industrial","","UATMP: MUIA","meanRos_ug_m3","No","No Trend","Iowa","Suburban","MUSCATINE, MUSSER PARK","No","Formaldehyde","","","","","","","","","","","","2.06883651018143","2.28164665773511","2.44623107090592","2.45312765299105","8.25254927849283","6.37698212090661","5.70711403369904","3.04435011919807","2.72841049432755"
"19-153-0030","Formaldehyde","41.6031608581543","-93.6431198120117","Des Moines","","Commercial","","UATMP: DMIA","meanRos_ug_m3","Yes","No Trend","Iowa","Urban And Center City","CARPENTER","No","Formaldehyde","3.40421222435667","","3.27560877675811","3.05974423237469","2.91717228778573","2.78122019370397","2.09478111664454","2.6953582715015","2.81984173764988","3.22995752461103","2.46426904478738","2.60783152282238","2.15211380893985","2.23287130023042","2.32318999253067","2.86961612896043","2.61086369037628","2.85623627292867","3.08698753048392","3.10630540518051"
"19-153-2510","Formaldehyde","41.603515625","-93.7479019165039","Clive","","Residential","","INDIAN HILLS JR HIGH, CLIVE IA, FRM R&P SEQ. SAMPLER (1),ROOF","meanRos_ug_m3","No","Undetermined","Iowa","Suburban","INDIAN HILLS JR HIGH, CLIVE IA, FRM R&P SEQ. SAMPLER (1),ROOF","No","Formaldehyde","2.02250892114132","","","","","","","","","","","","","","","","","","",""
"19-163-0015","Formaldehyde","41.5300102233887","-90.5876083374023","Davenport","","Residential","","UATMP: DAIA","meanRos_ug_m3","Yes","No Trend","Iowa","Urban And Center City","DAVENPORT, JEFFERSON SCH.","No","Formaldehyde","2.22867264093891","2.73505638418971","3.40515669511289","2.78614869578318","2.79466347331586","2.38638918944027","2.14707353901356","2.38384606527246","2.39428971648216","2.67130726316701","2.63197305679321","2.10818743959386","2.12064334625999","2.11969607447584","2.09101119579053","2.32765133648503","2.20461230768877","2.39970469474792","3.57354779060629","9.30250652631124"
"21-019-0017","Formaldehyde","38.4593391418457","-82.6404113769531","Ashland","","Residential","","UATMP: ASKY","meanRos_ug_m3","No","No Trend","Kentucky","Suburban","ASHLAND PRIMARY (FIVCO)","No","Formaldehyde","","2.62006023819329","2.7163159797589","3.35131469766299","3.93220579624176","3.23981292967995","2.0057838803432","2.69300416566558","2.52683231135209","2.84914355424413","2.31027047458242","2.31018343421279","","","","","","","",""
"21-043-0500","Formaldehyde","38.2388687133789","-82.9880981445313","Hazard/Grayson Lake","Grayson Lake, KY","Residential","Rural ","UATMP: HAKY/GLKY; NATTS: Hazard/Grayson Lake, KY","meanRos_ug_m3","Yes","No Trend","Kentucky","Rural","GRAYSON LAKE","Yes","Formaldehyde","","2.14541855274603","2.04924170344563","1.91074639412223","2.70859505683184","","1.03742617906117","1.48654336531957","1.42411376623546","1.632988648825","1.3175693232505","1.50055447562796","1.759891337653","1.88083591031246","1.44220461050669","1.52212968006216","1.57881777892347","1.54171414062625","1.38066044756597","1.67604291489569"
"21-059-0005","Formaldehyde","37.7807769775391","-87.075309753418","Owensboro","","Commercial","","OWENSBORO PRIMARY","meanRos_ug_m3","No","Undetermined","Kentucky","Suburban","OWENSBORO PRIMARY","No","Formaldehyde","","","3.25586712764481","","","","","","","","","","","","","","","","",""
"21-067-0012","Formaldehyde","38.0650291442871","-84.4976119995117","Lexington-Fayette","","Residential","","UATMP: LEKY","meanRos_ug_m3","No","No Trend","Kentucky","Suburban","LEXINGTON PRIMARY","No","Formaldehyde","","","2.81339251472239","3.7931563611758","4.4529054109697","4.08144596984472","1.83866410908","2.86545108310108","2.47979674318381","2.84823248061267","2.87877293786065","3.12578744888306","","","","","","","",""
"21-117-0007","Formaldehyde","39.0724983215332","-84.5250015258789","Covington","","Residential","","CHASE (COVINGTON)","meanRos_ug_m3","No","No Trend","Kentucky","Suburban","CHASE (COVINGTON)","No","Formaldehyde","","","3.30311745305856","4.06377763630914","2.70502719692155","2.32483775913715","2.15626762636372","","","","","","","","","","","","",""
"21-145-1024","Formaldehyde","37.058219909668","-88.572509765625","Paducah","","Commercial","","JACKSON PURCHASE (PADUCAH PRIMARY)","meanRos_ug_m3","No","Undetermined","Kentucky","Suburban","JACKSON PURCHASE (PADUCAH PRIMARY)","No","Formaldehyde","","","3.19254733423392","","","","","","","","","","","","","","","","",""
"22-033-0009","Formaldehyde","30.4619808197021","-91.1792221069336","Baton Rouge","","Commercial","","UATMP: B2LA","meanRos_ug_m3","No","Undetermined","Louisiana","Urban And Center City","Capitol","No","Formaldehyde","2.69151145099257","","","","","","","","","","","","","","","","","","",""
"22-051-1001","Formaldehyde","30.04123878479","-90.2728271484375","Kenner","","Residential","","Katrina: KELA","meanRos_ug_m3","No","Undetermined","Louisiana","Suburban","Kenner","No","Formaldehyde","","","","4.46279324528197","","","","","","","","","","","","","","","",""
"24-005-3001","Formaldehyde","39.3108329772949","-76.4744415283203","Essex","","Residential","","PAMS: Essex","meanRos_ug_m3","No","No Trend","Maryland","Suburban","Essex","No","Formaldehyde","1.86150613112794","1.33911291412928","0.722233152206173","0.432318195185163","1.933372703262","1.23240676645947","1.17189276766579","1.41266535955719","1.23685714410178","1.18702447701893","0.908844601156216","0.80767688956745","","","0.959693504373233","1.70049711188366","","","",""
"25-009-2006","Formaldehyde","42.4746437072754","-70.970817565918","Lynn","","Commercial","","LYNN WATER TREATMENT PLANT","meanRos_ug_m3","Yes","Increasing","Massachusetts","Urban And Center City","LYNN WATER TREATMENT PLANT","No","Formaldehyde","2.25272525961582","1.90396753105067","2.42569621185125","2.20332953177","2.31962045410584","1.74757246474425","1.80438131497043","1.93819908181141","2.06435710680289","2.28571207672358","2.53015510027225","1.86931374766788","3.05125597169844","2.17495187322299","1.88556523848388","2.33633327874981","3.00791061321894","3.6902683650861","2.74334463456766","3.20433411735003"
"25-013-0008","Formaldehyde","42.1943817138672","-72.5551147460938","Chicopee","","Commercial","","WESTOVER AFB","meanRos_ug_m3","No","No Trend","Massachusetts","Suburban","WESTOVER AFB","No","Formaldehyde","2.74122570006378","3.44830165238216","2.83496152396713","2.42479957908881","2.2359219302595","1.65759835441907","1.72981532650479","1.79089175729916","1.72656301347936","2.32819464494442","2.8342186378651","2.60507366359234","2.97213687499364","2.5770466474236","2.02878672373099","2.22776718900121","","","",""
"25-021-2004","Formaldehyde","42.2458648681641","-70.9627685546875","North Weymouth","","Industrial","","Weymouth","meanRos_ug_m3","No","Undetermined","Massachusetts","Suburban","Weymouth","No","Formaldehyde","","","","","","","","","","","","","","","","","","2.11767712528152","",""
"25-021-2005","Formaldehyde","42.2412300109863","-70.9633483886719","","","","","","meanRos_ug_m3","No","Undetermined","Massachusetts","","","No","Formaldehyde","","","","","","","","","","","","","","","","","","","2.36680783084953","2.06429635584354"
"25-025-0042","Formaldehyde","42.3294982910156","-71.0826034545898","Boston","Roxbury, MA","Commercial","Urban ","UATMP: BOMA; NATTS: Roxbury, MA","meanRos_ug_m3","Yes","Decreasing","Massachusetts","Urban And Center City","DUDLEY SQUARE ROXBURY","Yes","Formaldehyde","3.29899273199194","2.8889845866783","4.17093550234005","3.2308794953784","3.3750677219892","2.55085713267326","2.50658921530989","2.35037574856008","2.7136669139393","2.87933381398519","3.69995347658793","3.73400952092937","3.67817246715228","3.13965984522286","2.42191643139412","2.39270040050882","2.20864003698031","2.26285337033819","2.84634312340998","2.55456024115203"
"25-025-1004","Formaldehyde","42.3872222900391","-71.0261077880859","","","","","","meanRos_ug_m3","No","Undetermined","Massachusetts","","","No","Formaldehyde","","","","","","","","","","","","","","","","","","","3.22051257947152","3.10108443456037"
"26-081-0020","Formaldehyde","42.9841728210449","-85.6713409423828","Grand Rapids","","Industrial","","Grand Rapids","meanRos_ug_m3","No","Undetermined","Michigan","Urban And Center City","GR-Monroe","No","Formaldehyde","","","5.14648945768834","3.13785054948595","","","","","","","","","","","","","","","",""
"26-081-0021","Formaldehyde","42.9386367797852","-85.671142578125","Grand Rapids","","Industrial","","1270 RANDOLPH, GRAND RAPIDS","meanRos_ug_m3","No","Undetermined","Michigan","Urban And Center City","1270 RANDOLPH, GRAND RAPIDS","No","Formaldehyde","3.80638846203133","2.69591684427696","","","","","","","","","","","","","","","","","",""
"26-113-0001","Formaldehyde","44.3105545043945","-84.8918685913086","Not In A City","","Forest","","UATMP: HOMI; PILOT CITY: Houghton Lake","meanRos_ug_m3","No","Undetermined","Michigan","Rural","LOCATED ABOUT 1/4 MILE WEST OF SITE","No","Formaldehyde","1.43043372789535","1.27601869308179","","1.39377035971346","","","","","","","","","","","","","","","",""
"26-161-0008","Formaldehyde","42.2405662536621","-83.5996017456055","Ypsilanti","","Commercial","","PILOT CITY: Ypsilanti","meanRos_ug_m3","No","Undetermined","Michigan","Urban And Center City","TOWNER ST, SOUTH; 2 LANE RESIDENIAL - HOSPITAL","No","Formaldehyde","3.60918228790678","2.24899542537229","3.09092084125236","","","","","","","","","","","","","","","","",""
"26-163-0001","Formaldehyde","42.2286186218262","-83.2081985473633","Allen Park","","Commercial","","UATMP: APMI; IMPROVE: DETR1; PILOT CITY: Allen Park","meanRos_ug_m3","No","Undetermined","Michigan","Suburban","Allen Park","No","Formaldehyde","","","2.83997731208801","","","","","","","","","","","","","","","","",""
"26-163-0005","Formaldehyde","42.2672309875488","-83.1320877075195","River Rouge","","Industrial","","UATMP: RRMI; PILOT CITY: River Rouge","meanRos_ug_m3","Yes","No Trend","Michigan","Suburban","River Rouge","No","Formaldehyde","1.96260496503428","4.93474230399499","3.14506434777445","3.62582975228628","3.31922911746161","3.13024089902134","2.6507056136926","2.89595692322172","3.25850206920714","3.99162615318688","5.72651980000157","4.35782295259936","5.01385184129079","4.93245509266853","3.9930017153422","4.00611207177562","3.52680664459864","3.50897472520028","3.90381117982249","2.45773420131974"
"26-163-0015","Formaldehyde","42.3027877807617","-83.1065292358398","Detroit","","Commercial","","UATMP: SWMI; PILOT CITY: Southwest HS","meanRos_ug_m3","Yes","No Trend","Michigan","Urban And Center City","Southwestern H.S.","No","Formaldehyde","8.86280545342287","3.98224135637283","2.47717926104863","2.55955902461348","2.33903351000377","1.87450330058734","1.82014206147963","2.51523893043913","2.87142274777095","3.15084980484098","2.96845359956065","2.81760687033335","3.31915333072344","3.10705620242703","1.73789275575567","3.22692327730117","3.43066040674845","2.35598404407501","3.05830231212801","2.33647721074522"
"26-163-0033","Formaldehyde","42.3066749572754","-83.1487503051758","Dearborn","Detroit, MI","Industrial","Urban ","UATMP: DEMI; NATTS: Detroit, MI; PILOT CITY: Dearborn","meanRos_ug_m3","Yes","No Trend","Michigan","Suburban","PROPERTY OWNED BY DEARBORN PUBLIC SCHOOLS","Yes","Formaldehyde","4.07466866428202","3.78751838875228","5.43022169789364","2.83311960879299","","3.03409606350793","2.50669710514909","2.85405119856199","2.63577833339091","3.46648686230183","3.11557134937068","3.3417120155741","3.40315790772438","3.54255388212986","3.16359092421451","3.07687151822887","3.05061549941699","3.24232176385942","2.91996307443764","2.72835582006173"
"27-003-1002","Formaldehyde","45.1376800537109","-93.2076187133789","Blaine","","Commercial","","Anoka Airport6010","meanRos_ug_m3","No","No Trend","Minnesota","Suburban","Anoka County Airport","No","Formaldehyde","","","","","","","","","","2.03365335511226","1.8599515888426","1.78308063591349","1.69576968848705","1.95160350302855","1.96476385494073","","","","",""
"27-007-2303","Formaldehyde","47.8772201538086","-95.0122222900391","Red Lake","","Residential","","Red Lake","meanRos_ug_m3","No","Undetermined","Minnesota","Rural","Red Lake District","No","Formaldehyde","","","","","","","","","1.44180864324937","","","","","","","","","","",""
"27-017-7416","Formaldehyde","46.7052688598633","-92.5237731933594","Cloquet","","Forest","","Cloquet","meanRos_ug_m3","No","Undetermined","Minnesota","Rural","Fond du Lac Band 7416","No","Formaldehyde","","","","","","","","1.29425007998943","","","","","","","","","","","",""
"27-019-0052","Formaldehyde","44.8506546020508","-93.5918121337891","Chaska","","Residential","","CHASKA","meanRos_ug_m3","No","Undetermined","Minnesota","Rural","Chaska","No","Formaldehyde","1.1575827431576","0.843245039797492","1.51130054920327","1.23935220807286","","","","","","","","","","","","","","","",""
"27-021-0001","Formaldehyde","47.1599426269531","-94.1509857177734","Not In A City","","Residential","","Leech Lake","meanRos_ug_m3","No","Undetermined","Minnesota","Rural","Leech Lake Nation: Chatfield","No","Formaldehyde","","","","","","","","","1.07650899826264","","","","","","","","","","",""
"27-037-0020","Formaldehyde","44.7632293701172","-93.0325469970703","Not In A City","","Industrial","","FHR 420","meanRos_ug_m3","No","No Trend","Minnesota","Rural","Flint Hills Refinery 420","No","Formaldehyde","1.580215300899","2.13779549063023","2.45680021134726","1.63448758166412","1.36219231641862","1.4527739414147","1.9589748018879","2.3199659990052","1.96787309646606","2.23185661205879","2.04424720440271","1.79294906632375","1.87208234071732","2.17038986086845","2.22074060264181","","","","",""
"27-037-0423","Formaldehyde","44.7755317687988","-93.06298828125","Rosemount","","Industrial","","FHR 423","meanRos_ug_m3","No","No Trend","Minnesota","Rural","Flint Hills Refinery 423","No","Formaldehyde","1.12635922079024","0.988538834181699","2.31846246776874","1.74978645956307","1.20198133891346","1.26691849108012","1.34126530360367","1.81173124469695","1.91578498163394","1.99617766875487","1.47803218867265","1.75336052704666","1.71454409794374","1.67810897363557","2.38412605325381","","","","",""
"27-037-0441","Formaldehyde","44.7467994689941","-93.0261077880859","Rosemount","","Industrial","","FHR 441","meanRos_ug_m3","No","Undetermined","Minnesota","Rural","Flint Hills Refinery 441","No","Formaldehyde","1.67882078322685","1.37733821814632","2.62474485920293","1.76870873014806","","","","","","","","","","","","","","","",""
"27-037-0442","Formaldehyde","44.7385711669922","-93.0049591064453","Rosemount","","Agricultural","","FHR 442","meanRos_ug_m3","No","No Trend","Minnesota","Rural","Flint Hills Refinery 442","No","Formaldehyde","1.12522352803834","0.800589798935947","2.32505058278811","1.34693051973979","1.22167570087429","1.29437161503094","1.37133384694656","1.96158599364953","1.90533595638616","1.90889148528759","1.71278891519264","1.23616330247176","","","","","","","",""
"27-037-0443","Formaldehyde","44.745662689209","-93.0554122924805","Rosemount","","Industrial","","FHR 443","meanRos_ug_m3","No","No Trend","Minnesota","Rural","Flint Hills Refinery 443","No","Formaldehyde","","","","","","1.40267392992973","1.5245002835989","2.17251639664173","1.8891599020868","1.51503520385892","0.671657660866485","1.51538706381442","1.43865743329128","1.67360089260798","1.77137820422649","","","","",""
"27-037-0470","Formaldehyde","44.7384605407715","-93.2372512817383","Apple Valley","","Residential","","Apple Valley","meanRos_ug_m3","No","No Trend","Minnesota","Suburban","Apple Valley","No","Formaldehyde","1.31965704559916","1.03142402485266","2.13992502350699","1.71658889055252","1.33786530817633","1.29058364695973","1.66096513370673","2.22254837155342","1.8248671672561","2.02118677602095","1.94140572901125","1.77807697554429","1.73556584694929","1.79820633729299","1.92350844370908","","","","",""
"27-053-0050","Formaldehyde","45.0012283325195","-93.2671203613281","Minneapolis","","Commercial","","NE Fire Station","meanRos_ug_m3","No","Undetermined","Minnesota","Urban And Center City","Minneapolis Fire Station 2","No","Formaldehyde","1.70653433899085","1.53600867118752","3.0918222635723","2.47635516524315","","","","","","","","","","","","","","","",""
"27-053-0909","Formaldehyde","45.0121002197266","-93.2766952514648","Minneapolis","","Industrial","","Lowry Ave","meanRos_ug_m3","No","Undetermined","Minnesota","Urban And Center City","Lowry Avenue","No","Formaldehyde","","","","","","","","","","","","","2.81052335993997","3.26604468041453","3.75615832897333","","","","",""
"27-053-0961","Formaldehyde","44.8755111694336","-93.258918762207","Richfield","","Residential","","RICHFIELD INTERMEDIATE SCHOOL","meanRos_ug_m3","No","No Trend","Minnesota","Suburban","Richfield Intermediate School","No","Formaldehyde","","","","2.41733981642807","1.46491826511407","1.5646409806278","1.889838150254","2.9890227496624","2.52170648398223","2.7677053465293","2.31396309331972","1.85975078394016","1.8164598484834","2.68612505033098","2.61885558942269","","","","",""
"27-053-0962","Formaldehyde","44.9652404785156","-93.2547607421875","Minneapolis","","Residential","","Minneapolis Near Roadway NOx","meanRos_ug_m3","No","Undetermined","Minnesota","Urban And Center City","Near Road I-35/I-94","No","Formaldehyde","","","","","","","","","","","","2.59933810730775","2.85599068800608","2.84800177812576","3.13955424571859","","","","",""
"27-053-0963","Formaldehyde","44.9536590576172","-93.2582092285156","Minneapolis","","Residential","","HC Anderson School","meanRos_ug_m3","No","No Trend","Minnesota","Urban And Center City","Andersen School","No","Formaldehyde","1.54011976832556","2.19298597425222","3.00656149346454","2.08920322676174","1.48771070918498","1.5544023032774","2.31152375936508","2.5229532200782","2.10786083621799","2.48974281549454","2.7450595177986","2.43528154790401","2.12441459298134","2.46133652021145","2.83201950582965","","","","",""
"27-053-0964","Formaldehyde","44.8885498046875","-93.1953735351563","Not In A City","","Commercial","","MSP AIRPORT","meanRos_ug_m3","No","Undetermined","Minnesota","Suburban","MSP Airport","No","Formaldehyde","2.05778200899968","","","","","","","","","","","","","","","","","","",""
"27-053-0965","Formaldehyde","45.0044784545898","-93.2400436401367","Minneapolis","","Residential","","Putnam School","meanRos_ug_m3","No","Undetermined","Minnesota","Urban And Center City","Putnam Elementary School","No","Formaldehyde","1.74344403662924","1.84356809407473","2.78828835005269","2.18367076845005","","","","","","","","","","","","","","","",""
"27-053-0966","Formaldehyde","44.9794387817383","-93.2661285400391","Minneapolis","","Commercial","","UATMP: MIMN; City of Lakes Bldg","meanRos_ug_m3","No","Increasing","Minnesota","Urban And Center City","City of Lakes Building","No","Formaldehyde","1.30653557887879","1.27669231703988","2.52630006659914","1.99580542963059","1.62310553763279","1.76725241595081","2.26827138879082","2.63204125599428","2.23507160054786","2.47652749804889","2.29229853703426","2.56082970897357","2.16212551775625","2.76895991422362","2.78096695398462","","","","",""
"27-053-0968","Formaldehyde","44.8930053710938","-93.2332305908203","Minneapolis","","Commercial","","MSP Airport 968","meanRos_ug_m3","No","Undetermined","Minnesota","Urban And Center City","Metropolitan Airports Commission","No","Formaldehyde","","","2.62158450484276","2.23031808336576","","","","","","","","","","","","","","","",""
"27-053-0969","Formaldehyde","44.9005699157715","-93.23828125","Minneapolis","","Residential","","WENONAH SCHOOL","meanRos_ug_m3","No","No Trend","Minnesota","Suburban","Wenonah Elementary School","No","Formaldehyde","","","3.13197055790159","1.85024369905392","1.20080792934517","1.30960193396147","2.55083720437412","","","","","","","","","","","","",""
"27-053-1007","Formaldehyde","45.0397186279297","-93.2987365722656","Minneapolis","","Residential","","Humboldt Ave","meanRos_ug_m3","No","Increasing","Minnesota","Suburban","Humboldt Avenue","No","Formaldehyde","1.33775161877275","1.17959765690778","2.61186081373327","2.0833185395952","1.38388016646049","1.46112793427089","1.44684294637825","2.78676941990852","2.51461860940263","2.35819680874164","2.22397542882849","2.33567294629954","2.09030174078613","2.37954240043958","2.68055415153503","","","","",""
"27-053-1909","Formaldehyde","45.0136108398438","-93.2720489501953","Minneapolis","","Commercial","","Bottineau / Marshall Terrace","meanRos_ug_m3","No","Undetermined","Minnesota","Urban And Center City","Bottineau / Marshall Terrace","No","Formaldehyde","","","","","","","","","","","","","","","3.16689161556523","","","","",""
"27-053-2006","Formaldehyde","44.9480514526367","-93.343147277832","St. Louis Park","","Residential","","St. Louis Park","meanRos_ug_m3","No","No Trend","Minnesota","Suburban","St. Louis Park City Hall","No","Formaldehyde","","","","","","1.43766404344485","2.19887614575299","2.28274403341481","2.13042424619198","2.10677194824586","2.13779173791409","2.3540024638176","2.1396516536252","2.11228953301907","2.53858845450661","","","","",""
"27-075-0005","Formaldehyde","47.9486236572266","-91.4955749511719","Not In A City","","Unknown","","Fernberg Road","meanRos_ug_m3","No","Undetermined","Minnesota","Unknown","Boundary Waters","No","Formaldehyde","","","","","","","","1.17514739334583","","","","","","","","","","","",""
"27-095-3051","Formaldehyde","46.2052993774414","-93.7594528198242","Onamia","","Forest","","Mille Lacs","meanRos_ug_m3","No","Undetermined","Minnesota","Rural","Mille Lacs Band","No","Formaldehyde","","","","","","","","","","1.51081040725112","","","","","","","","","",""
"27-123-0017","Formaldehyde","44.9441337585449","-93.0651245117188","St. Paul","","Industrial","","Holman Field","meanRos_ug_m3","No","Undetermined","Minnesota","Suburban","Holman Field","No","Formaldehyde","1.61274979544468","1.45469118867602","2.62326175174011","2.31744769114559","","","","","","","","","","","","","","","",""
"27-123-0021","Formaldehyde","44.9655494689941","-93.0568389892578","St. Paul","","Commercial","","Ross Avenue","meanRos_ug_m3","No","Undetermined","Minnesota","Urban And Center City","Ross Avenue","No","Formaldehyde","1.5400409826734","1.45803887936902","2.17087200942353","","","","","","","","","","","","","","","","",""
"27-123-0868","Formaldehyde","44.9507217407227","-93.0982666015625","St. Paul","","Commercial","","Ramsey Health Center","meanRos_ug_m3","No","Increasing","Minnesota","Urban And Center City","Ramsey Health Center","No","Formaldehyde","","","","","1.68666851824252","1.69026458795582","2.53421442265864","2.87195770619279","2.26282022866336","2.58935636052719","2.55306373260639","2.61443041563034","2.51679123357191","3.06438933186612","3.13224972997393","","","","",""
"27-123-0871","Formaldehyde","44.9593887329102","-93.0358734130859","St. Paul","","Residential","","Harding High School","meanRos_ug_m3","No","No Trend","Minnesota","Suburban","Harding High School","No","Formaldehyde","","","","","","1.2058391680843","2.00717599412142","2.2848783351224","2.18341366733824","2.69699743390083","2.17461354202694","2.19247938807194","2.35837119817734","2.17100675429328","2.0771021703879","","","","",""
"27-123-1908","Formaldehyde","44.9730949401855","-93.1998825073242","St. Paul","","Residential","","South St. Anthony Park","meanRos_ug_m3","No","Undetermined","Minnesota","Urban And Center City","South St. Anthony Park","No","Formaldehyde","","","","","","","","","","","","","","2.8146919436374","","","","","",""
"27-137-7549","Formaldehyde","46.771068572998","-92.117317199707","Duluth","","Industrial","","Michigan St.","meanRos_ug_m3","No","Increasing","Minnesota","Urban And Center City","Michigan Street","No","Formaldehyde","1.05490100824585","0.919896829740277","1.83716886395758","1.47276044194981","1.1968021634867","1.16876528343859","1.41314027160406","2.25438892224739","2.30305152386427","2.36178478537774","1.75906413676692","1.79916000265186","1.62255205368174","1.56997751984103","2.04887449422053","","","","",""
"27-163-0436","Formaldehyde","44.8473701477051","-92.9953994750977","St. Paul","","Industrial","","MPC 436","meanRos_ug_m3","No","No Trend","Minnesota","Suburban","Saint Paul Park Refinery 436","No","Formaldehyde","1.53439892550646","1.21642026863992","2.11605334549018","2.02134807613389","1.80420730850392","1.8091084653681","2.83240937042449","2.28292241075943","2.3888149484992","3.20938400351084","2.73533946163249","1.94719591339429","1.78253754562345","2.01850350648165","2.21473200718562","","","","",""
"27-163-0438","Formaldehyde","44.8571090698242","-93.0035171508789","Newport","","Industrial","","MPC 438","meanRos_ug_m3","No","Increasing","Minnesota","Suburban","Saint Paul Park Refinery 438","No","Formaldehyde","1.453554119243","1.10196593273104","2.62357756369195","1.89243961048537","1.48336880605971","1.52981212620552","1.89925917883714","2.21728875500257","2.18767662698572","2.87040480742088","2.18434119674395","2.24232469877954","2.40647859593569","2.27752921338809","2.34052487693984","","","","",""
"27-163-0445","Formaldehyde","45.0187606811523","-92.7802734375","Bayport","","Residential","","Anderson School","meanRos_ug_m3","No","Undetermined","Minnesota","Suburban","Anderson School","No","Formaldehyde","","","","","1.31400242285365","","","","","","","","","","","","","","",""
"27-163-0446","Formaldehyde","45.0279808044434","-92.7741470336914","Bayport","","Industrial","","Point Rd.","meanRos_ug_m3","No","No Trend","Minnesota","Suburban","Point Road","No","Formaldehyde","","","","","","1.1850213424726","2.01818556243723","1.87243345432114","1.48541228443969","1.71978049009454","1.7586754209855","1.59764284602666","1.50388357962171","1.65181723184753","1.78945607469793","","","","",""
"28-043-0001","Formaldehyde","33.8344421386719","-89.7927780151367","Grenada","","Agricultural","","UATMP: GRMS","meanRos_ug_m3","No","Undetermined","Mississippi","Rural","Grenada","No","Formaldehyde","","2.87015836403288","","","","","","","","","","","","","","","","","",""
"28-047-0008","Formaldehyde","30.3903694152832","-89.0497817993164","Gulfport","","Commercial","","UATMP: GPMS; Katrina: GPMS; BP Oil site GPMS","meanRos_ug_m3","No","Undetermined","Mississippi","Rural","Gulfport Youth Court","No","Formaldehyde","1.79095663825671","1.13537093737851","","2.93719127816214","2.55895179990799","","","","","","","","","","","","","","",""
"28-049-0010","Formaldehyde","32.3857307434082","-90.1411972045898","Jackson","","Commercial","","UATMP: JAMS","meanRos_ug_m3","No","Undetermined","Mississippi","Suburban","Jackson FS19","No","Formaldehyde","2.65804218218244","0.801566896879155","","","","","","","","","","","","","","","","","",""
"28-059-0006","Formaldehyde","30.3782863616943","-88.5339279174805","Pascagoula","","Commercial","","UATMP: PGMS; Katrina: PGMS","meanRos_ug_m3","No","Undetermined","Mississippi","Urban And Center City","Pascagoula","No","Formaldehyde","3.03055027127266","","","","","","","","","","","","","","","","","","",""
"28-081-0005","Formaldehyde","34.2649154663086","-88.7662200927734","Tupelo","","Commercial","","UATMP: TUMS; Katrina: TUMS","meanRos_ug_m3","No","No Trend","Mississippi","Suburban","TUPELO AIRPORT NEAR OLD NWS OFFICE","No","Formaldehyde","2.41884138026545","1.53495225608349","1.1478553030527","1.5798702792066","3.19381469590911","","","","","","","","","","","","","","",""
"29-186-0005","Formaldehyde","37.9008407592773","-90.4238815307617","Bonne Terre","","Agricultural","","UATMP: BTMO","meanRos_ug_m3","No","Undetermined","Missouri","Rural","Bonne Terre","No","Formaldehyde","4.33608820681595","","","","","","","","","","","","","","","","","","",""
"29-510-0085","Formaldehyde","38.6564292907715","-90.1983489990234","St. Louis","St. Louis, MO","Residential","Urban ","UATMP: S4MO; NATTS: St. Louis, MO","meanRos_ug_m3","Yes","No Trend","Missouri","Urban And Center City","Blair Street","Yes","Formaldehyde","5.06986178531021","5.12316015504655","3.64864115168651","3.16668332991053","4.54305608669917","2.87556622425715","2.49069744543951","2.78065042804789","4.30802333961099","3.25287591629341","3.25913056486943","3.50200826426347","3.10184104939302","3.18586443066597","2.72820932161613","3.26678848364314","2.95023517530473","3.29904950459798","2.97568536990552","2.83163284278307"
"29-510-0087","Formaldehyde","38.6428565979004","-90.18505859375","St. Louis","","Industrial","","SLCI PM25 SITE LOCATED AT 2ND & MOUND STREET.","meanRos_ug_m3","No","No Trend","Missouri","Urban And Center City","SLCI PM25 SITE LOCATED AT 2ND & MOUND STREET.","No","Formaldehyde","","","5.86872402720772","2.74943970886737","5.04155396907488","4.29498730230033","6.91819990147922","10.5182228555238","","","","","","","","","","","",""
"29-510-0089","Formaldehyde","38.6018295288086","-90.2328872680664","St. Louis","","Residential","","UATMP: SLMO","meanRos_ug_m3","No","Undetermined","Missouri","Urban And Center City","","No","Formaldehyde","5.15566149191423","","","","","","","","","","","","","","","","","","",""
"33-011-0020","Formaldehyde","42.995777130127","-71.4625244140625","Manchester","","Commercial","","PEARL ST MUNICIPAL PARKING LOT","meanRos_ug_m3","No","Undetermined","New Hampshire","Urban And Center City","PEARL ST MUNICIPAL PARKING LOT","No","Formaldehyde","3.77267670035362","2.50669179381482","4.13920688827833","","","","","","","","","","","","","","","","",""
"33-013-1003","Formaldehyde","43.177303314209","-71.4620132446289","Pembroke","","Residential","","","meanRos_ug_m3","No","Undetermined","New Hampshire","Rural","","No","Formaldehyde","4.91779536625435","","","","","","","","","","","","","","","","","","",""
"33-013-1006","Formaldehyde","43.1324615478516","-71.4582443237305","Pembroke","","Residential","","PEMBROKE HIGHWAY DEPARTMENT","meanRos_ug_m3","No","Undetermined","New Hampshire","Suburban","PEMBROKE HIGHWAY DEPARTMENT","No","Formaldehyde","5.68302762707074","","","","","","","","","","","","","","","","","","",""
"33-015-0014","Formaldehyde","43.0753707885742","-70.7480163574219","Portsmouth","","Residential","","PORTSMOUTH - PEIRCE ISLAND","meanRos_ug_m3","No","Undetermined","New Hampshire","Urban And Center City","PORTSMOUTH - PEIRCE ISLAND","No","Formaldehyde","6.91927730000537","4.45234059979176","3.35608456134796","","","","","","","","","","","","","","","","",""
"33-019-0003","Formaldehyde","43.3645172119141","-72.3378677368164","Claremont","","Residential","","","meanRos_ug_m3","No","Undetermined","New Hampshire","Urban And Center City","","No","Formaldehyde","3.06751082340876","2.4274314727102","3.79718241393566","","","","","","","","","","","","","","","","",""
"34-007-0002","Formaldehyde","39.9344444274902","-75.1252899169922","Camden","","Industrial","","UATMP: CSNJ; Camden Spruce Street","meanRos_ug_m3","No","No Trend","New Jersey","Urban And Center City","Camden Spruce Street","No","Formaldehyde","","","","","","","","","","","5.09774308285471","4.59824722607931","3.65032050367129","4.2028128127257","4.01786287558281","2.92155254756411","2.95322976338452","3.88993326461676","4.53796590919613","3.5789404642784"
"34-007-0003","Formaldehyde","39.9230422973633","-75.0976181030273","Camden","","Residential","","UATMP: CANJ","meanRos_ug_m3","No","No Trend","New Jersey","Suburban","CAMDEN LAB","No","Formaldehyde","0.563592936138849","8.3582124111171","4.39050025723197","3.6026526794099","3.87478795177058","3.43245585222502","","","","","","","","","","","","","",""
"34-023-0006","Formaldehyde","40.4728240966797","-74.4224014282227","Not In A City","","Agricultural","","UATMP: NBNJ","meanRos_ug_m3","No","No Trend","New Jersey","Rural","New Brunswick","No","Formaldehyde","3.27939096619101","6.0956939458847","5.51097039313152","2.69089136507077","2.22520153053471","1.53874571621418","2.62982983355011","1.70407656096576","2.7687636498482","1.88235935866833","2.30248269054198","","3.39149100295568","","","","","","",""
"34-023-0011","Formaldehyde","40.4621810913086","-74.4294357299805","Not In A City","","Agricultural","","Rutgers University","meanRos_ug_m3","No","No Trend","New Jersey","Rural","Rutgers University","No","Formaldehyde","","","","","","","","","","","","","","2.51543519993623","1.86566923161348","2.51093914634303","1.85830865949392","1.67526385590837","2.29155341851509","2.07400958140691"
"34-027-3001","Formaldehyde","40.7876281738281","-74.6763000488281","Not In A City","","Agricultural","","UATMP: CHNJ","meanRos_ug_m3","Yes","Decreasing","New Jersey","Rural","Chester","No","Formaldehyde","3.20143783349415","3.44130115597336","2.46095226870643","1.92263735368334","2.3693697810173","2.28760376290001","2.45003473758698","1.63637385529987","2.37632370972243","2.48062249441301","2.1558584815166","2.09248753885428","","2.21999288151662","1.95913909210099","2.07105504508904","2.36191749320192","1.39059317950159","2.36601397259669","1.94284934524832"
"34-039-0004","Formaldehyde","40.6414413452148","-74.208366394043","Elizabeth","","Industrial","","UATMP: ELNJ; NADP: NJ54","meanRos_ug_m3","Yes","Decreasing","New Jersey","Suburban","Elizabeth Lab","No","Formaldehyde","4.09815426083172","4.76077656624681","4.89296644528707","4.59040143934347","4.83864914093699","3.31714850122278","3.91184823044011","4.58738853769787","3.5564206037365","4.00169167557701","5.05186131938559","4.60014926214687","4.49605474273364","4.58475724204642","3.95429438645722","4.09638505578041","3.59071581871783","3.08437310987049","3.7544828111031","2.42522303442486"
"35-045-5501","Formaldehyde","36.736328125","-108.417373657227","Fruitland","","Agricultural","","Nenahnezad, NM school (Nenmsch)","meanRos_ug_m3","No","Undetermined","New Mexico","Rural","Nenahnezad, NM school (Nenmsch)","No","Formaldehyde","","","","","","","","","2.99852906456217","","","","","","","","","","",""
"36-001-0013","Formaldehyde","42.6409301757813","-73.7565078735352","Albany","","Residential","","S. Pearl Street","meanRos_ug_m3","No","Decreasing","New York","Urban And Center City","S. Pearl Street","No","Formaldehyde","","","","","","","","","","","","","2.64370648591024","2.16151111438626","2.28053807202032","2.43797311773066","2.20540379244285","1.79080668356684","1.99901091275874","2.06434222225283"
"36-005-0083","Formaldehyde","40.8658485412598","-73.8808288574219","New York City","","Commercial","","UATMP: BXNY","meanRos_ug_m3","No","Undetermined","New York","Urban And Center City","BOTANICAL GARDEN","No","Formaldehyde","","2.00615796064719","1.46442765232764","2.38312717930215","","","","","","","","","","","","","","","",""
"36-005-0110","Formaldehyde","40.8160018920898","-73.9020004272461","New York City","Bronx, NY","Residential","Urban ","UATMP: MONY/BXNY; NATTS: Bronx, NY","meanRos_ug_m3","Yes","No Trend","New York","Urban And Center City","IS 52","Yes","Formaldehyde","","2.03299827668174","1.42619424667515","1.3308543629818","2.1144540069396","2.99060369921582","2.54152454485799","","2.72920500473543","2.74762861375455","3.22046607070499","2.48616234005475","3.10068625211716","2.86967410312759","3.24493309011999","3.40699336567863","2.66722826260687","1.41729991527291","2.29003479145467","2.29458194971085"
"36-005-0133","Formaldehyde","40.8679008483887","-73.8780899047852","New York City","","Commercial","","PFIZER LAB SITE; NADP: NY06","meanRos_ug_m3","No","No Trend","New York","Urban And Center City","PFIZER LAB SITE","No","Formaldehyde","","","","","2.09529153926898","2.2746877974934","2.00816153000902","2.61320052611626","1.95414252877235","2.66908208215446","2.34944388357519","2.71444094876448","2.86174430714713","2.16800514905831","2.19962106068288","2.89036298872995","3.07565546622042","2.34798450682355","2.18688378698296","2.06407815999672"
"36-029-0023","Formaldehyde","42.9211082458496","-78.7658233642578","Cheektowaga","","Mobile","","Buffalo Near-Road","meanRos_ug_m3","No","No Trend","New York","Urban And Center City","Buffalo Near-Road","No","Formaldehyde","","","","","","","","","","","","","2.61866753038607","2.40477606863756","2.25594404491328","2.02215165495873","1.76416150321726","2.05234250670574","2.27842368053374","1.91852339158456"
"36-029-0024","Formaldehyde","42.9047203063965","-78.8979568481445","Buffalo","","Urban And Center City","","PEACE BRIDGE","meanRos_ug_m3","No","Undetermined","New York","Residential","Busti Ave - Peace Bridge Study","No","Formaldehyde","","","","","","","","","","","","","2.43872561752796","","","","","","",""
"36-029-1013","Formaldehyde","42.9884414672852","-78.918586730957","Tonawanda","","Industrial","","UATMP: TONY; GRAND ISLE BOULDVARD","meanRos_ug_m3","No","Increasing","New York","Urban And Center City","GRAND ISLE BOULDVARD","No","Formaldehyde","","","","","","1.66234911995373","1.3555924461243","1.3880169362004","1.27825050304333","2.04800126270244","1.99421544972507","3.02726797331339","2.12900042524045","4.56013890893612","1.81649886552102","2.1427210958098","","","",""
"36-029-1014","Formaldehyde","42.9981307983398","-78.8992614746094","Tonawanda","","Residential","","BROOKSIDE TERRACE","meanRos_ug_m3","No","No Trend","New York","Suburban","BROOKSIDE TERRACE","No","Formaldehyde","","","","","","1.65725256267347","1.31475083430608","1.44375073430794","1.33114368194028","2.48523623582929","","","5.6124434987704","2.26670588546278","","2.03737373749415","1.40834526418418","2.63641638247693","1.42883618943336","1.45143167078495"
"36-031-0003","Formaldehyde","44.3930816650391","-73.8589019775391","Suny","","Forest","","WHITEFACE BASE","meanRos_ug_m3","Yes","No Trend","New York","Rural","WHITEFACE BASE","No","Formaldehyde","","","0.40085269508159","4.29296791765896","1.11632336427768","0.946883899755165","0.81146941063079","0.988148654003938","0.966045104097902","1.11582406005769","1.13045716207841","0.859992205779621","1.15844738312686","1.8296003190049","1.12706897002563","1.05727395686236","1.63780348567913","1.00395726545581","0.970780452176676","0.89201271062096"
"36-055-0015","Formaldehyde","43.1450119018555","-77.5572814941406","Rochester","","Mobile","","Rochester Near-Road","meanRos_ug_m3","No","No Trend","New York","Urban And Center City","Rochester Near-Road","No","Formaldehyde","","","","","","","","","","","","","3.34954300124584","2.72324462234974","1.63485156512651","2.55609148939451","1.8741990095478","1.90809146791208","1.64353586932023","1.75258857402645"
"36-055-1007","Formaldehyde","43.1461791992188","-77.5481719970703","Rochester","Rochester, NY","Residential","Urban ","UATMP: ROCH; NATTS: Rochester, NY; NADP: NY43","meanRos_ug_m3","Yes","No Trend","New York","Urban And Center City","ROCHESTER 2","Yes","Formaldehyde","","","1.26979374042436","1.00320051204075","1.52768801544842","2.76185626523537","1.50761521278426","1.59470802332674","1.78571498680573","1.76812496950042","1.72871814357738","1.39223994417437","1.7305703096991","2.3326531849661","2.30862284514864","1.9878801971674","1.65122032360952","1.49166906368537","1.53851248140921","1.81502218047778"
"36-061-0077","Formaldehyde","40.7562294006348","-73.9765701293945","New York City","","Commercial","","MIDTOWN","meanRos_ug_m3","No","Undetermined","New York","Urban And Center City","MADISON AVE","No","Formaldehyde","","","3.18353666682712","2.78144000310983","3.1284568379907","4.15827437671455","","","","","","","","","","","","","",""
"36-063-7001","Formaldehyde","43.0963745117188","-79.0114440917969","Niagara Falls","","Residential","","Packard Court Community Center","meanRos_ug_m3","No","No Trend","New York","Suburban","Packard Court Community Center","No","Formaldehyde","","","","","","","","","","","","","","","1.40035888038833","1.88685162895817","1.51667170641852","1.37692783652125","1.84947466923287","1.65733896415742"
"36-081-0124","Formaldehyde","40.736141204834","-73.821533203125","New York City","","Commercial","","PM Supersite: Queensborough","meanRos_ug_m3","Yes","No Trend","New York","Urban And Center City","QUEENS COLLEGE 2","No","Formaldehyde","","","2.81808410071093","2.50965073406696","2.20984990488399","2.41892369348427","2.14756765419787","2.60420370101929","1.99292031888451","2.412374977632","3.30528054705688","2.18867248197397","4.47941536704699","3.08561918536822","4.82886088119363","3.28364338835732","2.92244758040218","2.77957756817341","2.28368791984558","2.07802570362886"
"36-081-0125","Formaldehyde","40.7392654418945","-73.8176956176758","Flushing","","Mobile","","Queens College Near Road","meanRos_ug_m3","No","No Trend","New York","Urban And Center City","Queens College Near Road","No","Formaldehyde","","","","","","","","","","","","","","","3.7405484753686","3.29591355283382","2.92983423979556","3.50893057584763","2.82186792926689","2.51627816626283"
"36-085-0106","Formaldehyde","40.5781097412109","-74.1843032836914","New York City","","Industrial","","UNLOADING ZONE FRESHKILLLS LANDFILL","meanRos_ug_m3","No","Undetermined","New York","Urban And Center City","UNLOADING ZONE FRESHKILLLS LANDFILL","No","Formaldehyde","2.48777304589748","","","","","","","","","","","","","","","","","","",""
"36-085-0111","Formaldehyde","40.5802688598633","-74.1983184814453","New York City","","Commercial","","FRESHKILLS WEST","meanRos_ug_m3","Yes","No Trend","New York","Suburban","FRESHKILLS WEST","No","Formaldehyde","2.90061006475897","","6.35055713381684","2.282146267859","2.75451624504822","2.55514187226861","17.7496082935222","9.12990153630574","2.52711225840552","2.38365099712142","2.3640584998482","2.0121105655131","2.56065232040627","2.84646545382666","2.91100342056968","2.50245180520518","2.66138970949611","2.35559465906076","2.15702958045335","3.18336444497108"
"36-085-0131","Formaldehyde","40.5880584716797","-74.1688232421875","New York City","","Industrial","","FRESHKILLS EAST","meanRos_ug_m3","No","Undetermined","New York","Urban And Center City","FRESHKILLS EAST","No","Formaldehyde","3.88655167963009","","","","","","","","","","","","","","","","","","",""
"36-085-0132","Formaldehyde","40.5805587768555","-74.1517791748047","New York City","","Commercial","","LATOURETTE GOLF COURSE","meanRos_ug_m3","No","No Trend","New York","Suburban","LATOURETTE GOLF COURSE","No","Formaldehyde","","","10.8105843651969","4.98268332379728","1.53046397478492","2.56737945415437","2.24446475108465","3.74628047759716","3.22640941427513","1.96386801319964","","","","","","","","","",""
"36-103-0044","Formaldehyde","40.9610176086426","-73.139045715332","Old Field","","Residential","","Flax Pond","meanRos_ug_m3","No","Undetermined","New York","Rural","Flax Pond","No","Formaldehyde","","","","","","","","","","","","","","","","","1.72049977779388","","",""
"37-021-0035","Formaldehyde","35.5722198486328","-82.5588912963867","Asheville","","Commercial","","AB Tech","meanRos_ug_m3","No","Undetermined","North Carolina","Suburban","AB Tech","No","Formaldehyde","","","","","3.42896855699605","2.8623637006833","2.07235748238034","","","","","","","","","","","","",""
"37-063-0014","Formaldehyde","35.8928680419922","-78.8764419555664","Durham","","Commercial","","UATMP: RTPNC; NADP: NC99","meanRos_ug_m3","No","Undetermined","North Carolina","Suburban","","No","Formaldehyde","","","1.56115492405715","3.07564063771413","3.01898457787254","5.52495765686035","","","","","","","","","","","","","",""
"37-067-0022","Formaldehyde","36.1106948852539","-80.2264404296875","Winston-Salem","","Residential","","Hattie Avenue","meanRos_ug_m3","No","Undetermined","North Carolina","Urban And Center City","Hattie Avenue","No","Formaldehyde","","","","","3.8948007474343","3.04410810362209","2.78394597310286","","","","","","","","","","","","",""
"37-105-0002","Formaldehyde","35.4324989318848","-79.2886962890625","Sanford","","Agricultural","","Blackstone","meanRos_ug_m3","No","No Trend","North Carolina","Rural","Blackstone","No","Formaldehyde","","","","","","","","","","","","1.86183390509887","2.47297933250666","2.58482001324495","2.46502861185152","2.60620736564909","","","",""
"37-119-0041","Formaldehyde","35.2401008605957","-80.7856826782227","Charlotte","","Residential","","Garinger High School","meanRos_ug_m3","No","Undetermined","North Carolina","Urban And Center City","Garinger High School","No","Formaldehyde","","","","","","4.25918712154512","3.66880033756125","","","","","","","","","","","","",""
"37-123-0001","Formaldehyde","35.2631988525391","-79.8366165161133","Candor","","Forest","","UATMP: CANC","meanRos_ug_m3","No","No Trend","North Carolina","Rural","Candor: EPA CASTNet Site","No","Formaldehyde","","1.930273724099","1.18845648594477","2.12607283890247","2.31049972479404","2.31273727170352","","","","","","1.91450823666686","2.34293380031983","2.41406743327777","2.35144778092702","2.33218671527125","2.20589609053291","1.78486221857735","1.83822289605935","2.55802972883475"
"37-129-0010","Formaldehyde","34.2358283996582","-77.9546966552734","Wilmington","","Agricultural","","BATTLESHIP","meanRos_ug_m3","No","Undetermined","North Carolina","Rural","Eagles Island","No","Formaldehyde","","","","","2.34307286540667","1.83484382259435","1.65800026669328","","","","","","","","","","","","",""
"37-183-0014","Formaldehyde","35.8561096191406","-78.5741653442383","Raleigh","","Residential","","Millbrook Middle School","meanRos_ug_m3","No","No Trend","North Carolina","Suburban","Millbrook School","No","Formaldehyde","","","","","3.57958934545517","","2.53081809591364","","","","","2.50608083804448","3.02338804105918","3.06871033509572","3.25822332038962","2.77468814651171","3.17567082182054","2.46419362483486","3.28054001927376","3.22244951933149"
"39-049-0034","Formaldehyde","40.0027351379395","-82.9944076538086","Columbus","","Commercial","","UATMP: COOH","meanRos_ug_m3","No","Undetermined","Ohio","Urban And Center City","Fairgrounds","No","Formaldehyde","","","","","","2.90541157222563","","","","","","","","","","","","","",""
"40-017-0101","Formaldehyde","35.4792137145996","-97.7515029907227","Yukon","","Commercial","","UATMP: YUOK; OKC WEST-(YUKON)","meanRos_ug_m3","No","No Trend","Oklahoma","Suburban","OKC WEST-(YUKON)","No","Formaldehyde","","","","","","","","","","","","2.85690099000931","2.63297998602107","2.55822420022527","2.96677225120997","3.41315770149231","3.15943282445272","","",""
"40-051-0065","Formaldehyde","34.8770637512207","-97.7078018188477","Bradley","","Residential","","","meanRos_ug_m3","No","Undetermined","Oklahoma","Rural","","No","Formaldehyde","","","","","","","","","","","","","4.80232304930687","2.02122123241425","","","","","",""
"40-097-0187","Formaldehyde","36.2929420471191","-95.3034057617188","Pryor","","Industrial","","UATMP: PROK","meanRos_ug_m3","No","Undetermined","Oklahoma","Suburban","","No","Formaldehyde","","","","","","","7.91384930193424","2.61558589736621","3.79177526153367","3.51456538836161","","","","","","","","","",""
"40-109-0041","Formaldehyde","35.4376411437988","-97.3872528076172","Midwest City","","Commercial","","UATMP:MWOK","meanRos_ug_m3","No","Undetermined","Oklahoma","Urban And Center City","","No","Formaldehyde","","","","","","","2.54811780957075","2.48485411306222","3.899670808443","","","","","","","","","","",""
"40-109-0042","Formaldehyde","35.3803176879883","-97.4057235717773","Oklahoma City","","Commercial","","UATMP: ADOK","meanRos_ug_m3","No","Undetermined","Oklahoma","Urban And Center City","ADOK","No","Formaldehyde","","","","","","","","","","2.9863781655421","","","","","","","","","",""
"40-109-0097","Formaldehyde","35.5030708312988","-97.5779800415039","Oklahoma City","","Commercial","","Near Road","meanRos_ug_m3","No","Undetermined","Oklahoma","Urban And Center City","Near Road","No","Formaldehyde","","","","","","","","","","","","","","3.51674892086732","3.39073987205823","3.55111805597941","3.66030446472375","","",""
"40-109-1037","Formaldehyde","35.6141319274902","-97.4750823974609","Oklahoma City","","Residential","","UATMP: OCOK","meanRos_ug_m3","No","No Trend","Oklahoma","Suburban","OKC NORTH","No","Formaldehyde","","","","","","","2.71891893713902","2.42436347454786","3.89278441419204","3.374950136741","2.57374510804161","2.55152549445629","3.05584329863389","2.63678234616915","2.78846321731317","3.48846286137899","2.7455183972915","2.82459664642811","3.12578147161202","3.45084491714102"
"40-121-0417","Formaldehyde","34.8853302001953","-95.9488983154297","Haywood","","Residential","","Haywood Toxics","meanRos_ug_m3","No","Undetermined","Oklahoma","Rural","Haywood Toxics","No","Formaldehyde","","","","","","","","","","","","","","","","2.13296760084494","2.11152146824382","","",""
"40-143-0172","Formaldehyde","36.1645278930664","-95.985481262207","Tulsa","","Residential","","UATMP: TSOK","meanRos_ug_m3","No","Undetermined","Oklahoma","Suburban","EMMERSON SCHOOL","No","Formaldehyde","","","","","2.99993572152894","2.79230925658854","","","","","","","","","","","","","",""
"40-143-0179","Formaldehyde","36.1548309326172","-96.0158462524414","Tulsa","","Industrial","","UATMP: TROK","meanRos_ug_m3","No","No Trend","Oklahoma","Urban And Center City","","No","Formaldehyde","","","","","","","","","","","2.75944341303872","2.7750946381053","2.64590545225952","2.88910135577937","2.64444907766874","2.9171288658361","2.99648295524644","","",""
"40-143-0191","Formaldehyde","36.1416969299316","-95.9837951660156","Tulsa","","Residential","","UATMP: TUOK","meanRos_ug_m3","No","Undetermined","Oklahoma","Urban And Center City","CINCINNATI","No","Formaldehyde","","","","","3.2380921928609","2.74463904845087","","","","","","","","","","","","","",""
"40-143-0235","Formaldehyde","36.1269454956055","-95.9989395141602","Tulsa","","Industrial","","UATMP: TOOK","meanRos_ug_m3","No","No Trend","Oklahoma","Urban And Center City","CENTER OF PARKING LOT OF PUBLIC WORKS BUILDING 1/4 MI N OF SINCLAIR","No","Formaldehyde","","","","3.65643514692783","2.98961848899966","2.95109250822238","2.71862357758707","3.11135071615378","3.67663855637823","3.38345514360021","2.8595468714589","2.93694375675233","2.81197159687678","3.3005767552579","2.90387791199762","3.42755479890792","2.8231765806675","3.21817579769319","3.33700692313058",""
"40-143-1127","Formaldehyde","36.2049026489258","-95.9765396118164","Tulsa","Tulsa, OK","Residential","Urban ","UATMP: TMOK","meanRos_ug_m3","No","Decreasing","Oklahoma","Urban And Center City","NORTH TULSA - FIRE STATION#24","Yes","Formaldehyde","","","","","","","3.43778050243855","3.33746591210365","3.85629604585835","3.58241948636912","3.19785283823482","3.41895537318722","2.6984096566836","3.12991905808449","2.40238657902027","2.89556489323006","2.7420679223342","2.597861329394","2.35092962544599","3.51822193662326"
"41-003-0015","Formaldehyde","44.5351676940918","-123.252838134766","","","","","","meanRos_ug_m3","No","Undetermined","Oregon","","","No","Formaldehyde","","","","","","","","","","","","","","","","","","","","1.75672804767435"
"41-009-0004","Formaldehyde","45.7685317993164","-122.772102355957","Not In A City","","Agricultural","","SAUVIE ISLAND-SIS","meanRos_ug_m3","No","Undetermined","Oregon","Rural","SAUVIE ISLAND-SIS","No","Formaldehyde","","","","","1.2307510651648","","","","","","","","","","","","","","",""
"41-017-0123","Formaldehyde","44.0547981262207","-121.29419708252","Bend","","Residential","","","meanRos_ug_m3","No","Undetermined","Oregon","Urban And Center City","","No","Formaldehyde","","","","","","","","","","","","","","","","","","","2.66133636023317","9.64532354367631"
"41-029-0133","Formaldehyde","42.3141098022461","-122.87922668457","Medford","","Residential","","Medford - Grant & Belmont Sts. (MGB)","meanRos_ug_m3","No","Undetermined","Oregon","Urban And Center City","Medford - Grant & Belmont Sts. (MGB)","No","Formaldehyde","","","","","","2.36807381094627","2.137468168291","1.66129430471841","","","","","","","","","","","",""
"41-029-1001","Formaldehyde","42.5359573364258","-122.876152038574","Central Point","","Agricultural","","","meanRos_ug_m3","No","Undetermined","Oregon","Rural","","No","Formaldehyde","","","","","","1.83155440986156","","","","","","","","","","","","","",""
"41-029-2129","Formaldehyde","42.3315505981445","-122.880264282227","Medford","","Residential","","Medford, Welch and Jackson.","meanRos_ug_m3","No","No Trend","Oregon","Urban And Center City","Medford, Welch and Jackson.","No","Formaldehyde","","","","","","","","","","3.20077707182686","","","","","","","3.62795352084296","3.28356039524078","3.33549254028885","3.53958205223083"
"41-035-0004","Formaldehyde","42.1902961730957","-121.731369018555","Klamath Falls","","Residential","","PETERSON ELEM","meanRos_ug_m3","No","Undetermined","Oregon","Suburban","Klamath Falls - Peterson School","No","Formaldehyde","","","","","","","","","2.48773349655999","","","","","","","","","","",""
"41-039-0059","Formaldehyde","44.0672225952148","-123.14134979248","Eugene","","Residential","","Eugene - Hwy 99 (E99)","meanRos_ug_m3","No","No Trend","Oregon","Urban And Center City","Eugene - Hwy 99 (E99)","No","Formaldehyde","","","","","","","","","","","","","","","","1.75160802602768","1.55850251019001","1.79492332268569","1.63377281757338","1.85319996855476"
