"site_id","parameter_desc","latitude","longitude","city_name","location","land_use_type","setting","site_name","stat","used_in_nat_agg","trend","state_name","location_setting","local_site_name","natts","toxic_name_alias","2003","2004","2005","2006","2007","2008","2009","2010","2011","2012","2013","2014","2015","2016","2017","2018","2019","2020","2021","2022"
"01-073-5502","Tetrachloroethylene","33.5447998046875","-86.8238983154297","Birmingham","","Commercial","","Lewis Elementary School","meanRos_ug_m3","No","Undetermined","Alabama","Urban And Center City","Lewis Elementary School","No","Tetrachloroethylene","","","","","","","","","","0.22256115930421","","","","","","","","","",""
"01-073-5503","Tetrachloroethylene","33.5684013366699","-86.8029022216797","Birmingham","","Commercial","","Riggins School","meanRos_ug_m3","No","Undetermined","Alabama","Urban And Center City","Riggins School","No","Tetrachloroethylene","","","","","","","","","","0.19722608409615","","","","","","","","","",""
"01-073-5505","Tetrachloroethylene","33.5566329956055","-86.8054656982422","Birmingham","","Residential","","Hudson K-8","meanRos_ug_m3","No","Undetermined","Alabama","Urban And Center City","Hudson K-8","No","Tetrachloroethylene","","","","","","","","","","0.145630543785436","","","","","","","","","",""
"01-073-6004","Tetrachloroethylene","33.5652770996094","-86.79638671875","Birmingham","","Residential","","UATMP: SIAL; Sloss Industries","meanRos_ug_m3","No","Undetermined","Alabama","Urban And Center City","Sloss Shuttlesworth","No","Tetrachloroethylene","","","","","","","","","","0.149282132111052","","","","","","","","","",""
"01-097-3102","Tetrachloroethylene","30.7089004516602","-88.0519027709961","Mobile","","Residential","","","meanRos_ug_m3","No","Undetermined","Alabama","Suburban","","No","Tetrachloroethylene","0.238641235468878","","","","","","","","","","","","","","","","","","",""
"02-020-0018","Tetrachloroethylene","61.2058601379395","-149.824600219727","Anchorage","","Residential","","UATMP: ANAK","meanRos_ug_m3","No","Undetermined","Alaska","Suburban","GARDEN/TRINITY CHRISTIAN CHURCH","No","Tetrachloroethylene","","","","","","","0.181739114001393","","","","0.159992066910555","","","","","","","","",""
"02-185-NBRW","Tetrachloroethylene","71.322998046875","-156.610992431641","Barrow","","","","NOAA: Barrow, Alaska","meanRos_ug_m3","Yes","Decreasing","Alaska","Remote","","No","Tetrachloroethylene","0.0293662565975235","0.0267211870040472","0.0247259625818494","0.0237183617427945","0.0230772760696709","0.0267195572343005","0.0221080358222156","0.0227181851217637","0.0179402736015618","0.018076755752673","0.0183011207910231","0.0178534765906918","0.0191405593381765","0.0185465700207995","0.018984495010227","0.0165009849010983","0.017309938903012","0.0160272940456008","0.0151586539786225","0.0147030281894296"
"04-013-4003","Tetrachloroethylene","33.4031600952148","-112.075332641602","Phoenix","","Residential","","UATMP: SPAZ","meanRos_ug_m3","Yes","No Trend","Arizona","Urban And Center City","SOUTH PHOENIX","No","Tetrachloroethylene","0.196914596259675","0.49946421616442","1.30279748790955","","","0.245720683442719","0.284420547188426","0.322142447377073","0.405306351182565","0.214872774490988","0.158838065763938","0.149902155029771","0.217285009058949","0.192905817563921","0.207698271906329","0.294068786090818","0.166499446591811","0.234464961314394","0.192532346942967","0.239593011717642"
"04-013-4009","Tetrachloroethylene","33.406421661377","-112.144340515137","Phoenix","","Industrial","","UATMP: MCAZ","meanRos_ug_m3","No","Undetermined","Arizona","Urban And Center City","WEST 43RD AVENUE","No","Tetrachloroethylene","0.576941320787092","","","","","","","","","","","","","","","","","","",""
"04-013-9997","Tetrachloroethylene","33.503833770752","-112.095764160156","Phoenix","Phoenix, AZ","Residential","Urban ","UATMP: PXSS; NATTS: Phoenix, AZ; IMPROVE: PHOE1","meanRos_ug_m3","Yes","Decreasing","Arizona","Urban And Center City","JLG SUPERSITE","Yes","Tetrachloroethylene","0.95151467616029","1.09926473957631","1.32354325428605","1.08414759872989","0.832317666424911","0.455688213213132","0.450772297029433","0.395420924182913","0.538025348758049","0.450587058173894","0.264830106204842","0.254244949712937","0.262574558751772","0.282655290374895","0.298952521945713","0.294517415022274","0.270258652646158","0.237388808460486","0.229002399796682","0.16951775400114"
"04-021-8001","Tetrachloroethylene","33.2934646606445","-111.285591125488","Queen Valley","","Desert","","UATMP: QVAZ, IMPROVE: QUVA1","meanRos_ug_m3","No","Undetermined","Arizona","Rural","QUEEN VALLEY","No","Tetrachloroethylene","","0.134925822705792","0.179734865736379","","","","","","","","","","","","","","","","",""
"06-001-0006","Tetrachloroethylene","37.7102279663086","-122.116897583008","San Leandro","","Residential","","San Leandro","meanRos_ug_m3","No","No Trend","California","Suburban","San Leandro","No","Tetrachloroethylene","0.151656683894896","0.156611072768768","0.186764461619239","0.13751376040387","0.140040565453688","","","","","","","","","","","","","","",""
"06-001-0007","Tetrachloroethylene","37.6875267028809","-121.784217834473","Livermore","","Commercial","","REPLACES OLD SITE 06-001-0003 THAT WAS LOCATED AT 2614 OLD 1ST. ST.","meanRos_ug_m3","No","No Trend","California","Urban And Center City","Livermore","No","Tetrachloroethylene","0.145452445553195","0.131162905941407","0.144935454812742","0.176904444353294","0.166408874830452","0.099754047935438","0.0850492795278231","0.0986715052716696","0.107025592005083","0.0990052814595401","0.0978011525448161","0.148332397715625","0.0602754475082251","","","","","","",""
"06-001-0008","Tetrachloroethylene","37.8171195983887","-122.280456542969","Oakland","","Residential","","OAKLAND FILBERT ST","meanRos_ug_m3","No","Decreasing","California","Urban And Center City","Oakland - Filbert St.","No","Tetrachloroethylene","0.347424176671813","0.300978052367767","0.245185765287568","0.279205849148519","0.205570309112469","0.158375128822904","","","","","","","","","","","","","",""
"06-001-0009","Tetrachloroethylene","37.7430648803711","-122.169937133789","Oakland","","Residential","","Oakland East","meanRos_ug_m3","No","Decreasing","California","Urban And Center City","Oakland","No","Tetrachloroethylene","","","","","","0.187805115992847","0.134967174650758","0.183895943212369","0.226639995291348","0.156806557625532","0.192653651199033","0.125505849525474","0.106247189635601","0.0440966501153291","","","","","0.0410976559651956","0.0481688408916785"
"06-001-0011","Tetrachloroethylene","37.8147811889648","-122.282348632813","Oakland","","Residential","","Oakland-West","meanRos_ug_m3","No","Decreasing","California","Urban And Center City","Oakland West","No","Tetrachloroethylene","","","","","","","","0.192150961828693","0.223593071485693","0.144843273237348","0.229604145932582","0.105383809297807","0.109030186016511","","","","","","0.0418502085493988","0.070269928616776"
"06-001-0012","Tetrachloroethylene","37.7936248779297","-122.263374328613","Oakland","","Commercial","","Laney College","meanRos_ug_m3","No","Undetermined","California","Urban And Center City","Laney College","No","Tetrachloroethylene","","","","","","","","","","","","0.0661792880488525","0.0334594654535066","","","","","","",""
"06-001-1001","Tetrachloroethylene","37.535831451416","-121.961822509766","Fremont","","Residential","","Fremont - Chapel Way","meanRos_ug_m3","No","No Trend","California","Suburban","Fremont - Chapel Way","No","Tetrachloroethylene","0.283593156794871","0.205190793378873","0.211411056739814","0.176762689779559","0.251617591486163","0.594279295350064","0.158103474441542","","","","","","","","","","","","",""
"06-001-2004","Tetrachloroethylene","37.8777923583984","-122.301292419434","Berkeley","","Commercial","","Berkeley 6th and Camelia","meanRos_ug_m3","No","Undetermined","California","Urban And Center City","Berkeley","No","Tetrachloroethylene","","","","","","0.140703879479936","0.0718586269319567","0.127431430321738","","","","","","","","","","","",""
"06-007-0002","Tetrachloroethylene","39.7573699951172","-121.843284606934","Chico","","Commercial","","468 MANZANITA AVE, CHICO","meanRos_ug_m3","No","Decreasing","California","Suburban","Chico-Manzanita Ave.","No","Tetrachloroethylene","0.104215766261571","0.0959562702303051","0.214465900215206","0.0690478262567385","0.0751999837735233","0.0728277861507025","0.0617846783660167","0.0612159781337505","","","","","","","","","","","",""
"06-007-0008","Tetrachloroethylene","39.7615394592285","-121.841621398926","Chico","","Commercial","","Chico - East Avenue","meanRos_ug_m3","No","Undetermined","California","Suburban","Chico-East Avenue","No","Tetrachloroethylene","","","","","","","","","","","","0.0499361687260526","0.0767777923765858","","","","","","",""
"06-013-0002","Tetrachloroethylene","37.9360122680664","-122.026153564453","Concord","","Residential","","Concord","meanRos_ug_m3","No","Decreasing","California","Suburban","Concord","No","Tetrachloroethylene","0.190621349840395","0.257028892379383","0.115260857022046","0.075008231723041","0.121828463967474","0.129937462388508","0.0875130384773972","0.127287503408433","0.171731203674309","0.128927213822802","0.135502148941685","0.0690994981355492","0.0628099020619617","","","","","","0.0506857740011776","0.053797656979074"
"06-013-0006","Tetrachloroethylene","37.9481735229492","-122.364852905273","Richmond","","Industrial","","Richmond - 7th St","meanRos_ug_m3","No","No Trend","California","Urban And Center City","Richmond - 7th St.","No","Tetrachloroethylene","0.122387681765603","0.125298202424453","0.130749757360473","0.0732187945011833","0.0903783715743847","0.0577049922062323","0.042359693945456","0.0835268034150757","0.0925223504412591","0.108965970318893","0.0778116691751681","0.037753208674749","","","","","","","",""
"06-013-1001","Tetrachloroethylene","38.0549201965332","-122.23323059082","Crockett","","Industrial","","Crockett - Kendall Ave","meanRos_ug_m3","No","No Trend","California","Suburban","Crockett - Kendall Ave","No","Tetrachloroethylene","0.0812887963076058","0.0833298634897445","","0.0676882702505406","0.0660256397180535","0.0428555632607073","0.0198952495781465","0.047150025447808","0.0591686320673978","0.0447529632084329","0.0573229556002592","0.0935281634264492","","","","","","","",""
"06-013-1002","Tetrachloroethylene","38.0063095092773","-121.641914367676","Bethel Island","","Agricultural","","Bethel Island","meanRos_ug_m3","No","Decreasing","California","Rural","Bethel Island","No","Tetrachloroethylene","0.0895454652377383","0.150804124533496","0.105004183914424","0.0709877357734953","0.0759578062065462","0.046636942457781","0.0252221693867807","0.0617978686261388","0.0595198848094188","0.0588855321208636","","0.0301925725241278","","","","","","","",""
"06-013-1004","Tetrachloroethylene","37.9603996276855","-122.356811523438","San Pablo","","Commercial","","SAN PABLO RUMRILL","meanRos_ug_m3","No","Decreasing","California","Urban And Center City","San Pablo","No","Tetrachloroethylene","0.22016589093903","0.253000937997588","0.207240759788464","0.114473509948432","0.121606195537966","0.0636355104674707","","","0.0589065917297992","0.0649918997660279","0.0676551629614964","0.0332698673884406","","","","","","","",""
"06-013-2001","Tetrachloroethylene","38.0128173828125","-122.134468078613","Martinez","","Residential","","Martinez - Jones St.","meanRos_ug_m3","No","Decreasing","California","Urban And Center City","Martinez - Jones St.","No","Tetrachloroethylene","0.106626081130197","0.103506177663803","0.117999320083643","0.0826387174711758","0.0795807587167764","0.0458655047592801","0.0344592408981785","0.0642130669190562","0.0637582406339245","0.0491419681756093","0.0688983936503201","0.0286005956249558","","","","","","","",""
"06-013-3001","Tetrachloroethylene","38.0292587280273","-121.896865844727","Pittsburg","","Residential","","Pittsburg - W 10th St.","meanRos_ug_m3","No","No Trend","California","Urban And Center City","Pittsburg - W 10th St.","No","Tetrachloroethylene","0.164066149582786","0.211872905941935","0.113952164383919","0.156710611988534","0.0995975223019053","","","","","","","","","","","","","","",""
"06-019-0008","Tetrachloroethylene","36.7813339233398","-119.773193359375","Fresno","","Residential","","PM Supersite: Fresno","meanRos_ug_m3","No","Decreasing","California","Suburban","3425 N FIRST ST, FRESNO","No","Tetrachloroethylene","0.215409214059234","0.152509837907119","0.199217549016758","0.139617190000494","0.113330207306255","0.100949135783696","0.0932043597455583","0.0858899620175045","0.0946202211356494","","","","","","","","","","",""
"06-019-0011","Tetrachloroethylene","36.7853202819824","-119.77417755127","Fresno","","Commercial","","Fresno - Garland","meanRos_ug_m3","No","No Trend","California","Urban And Center City","Fresno - Garland","No","Tetrachloroethylene","","","","","","","","","","0.0578740182686868","0.05874046438301","0.0607756187381364","0.0550266939443073","","","0.0535809002399775","0.0557279360402052","","",""
"06-019-3002","Tetrachloroethylene","36.6071701049805","-119.540679931641","Parlier","","Agricultural","","PARLIER","meanRos_ug_m3","No","Undetermined","California","Urban And Center City","PARLIER","No","Tetrachloroethylene","","","","0.0598907294825085","","","","","","","","","","","","","","","",""
"06-023-NTHD","Tetrachloroethylene","41.0540008544922","-124.151000976563","Trinidad","","","","NOAA: Trinidad Head, California","meanRos_ug_m3","Yes","Decreasing","California","Remote","","No","Tetrachloroethylene","0.0305409602930441","0.0280454186722636","0.0254323291923612","0.0249857307564107","0.0245026987248741","0.0261325771203893","0.0215333970423298","0.0219591600142948","0.0199019474623761","0.0181037820496152","0.0183135650477037","0.0174462712365938","0.0184144745886593","0.0171132277604974","0.0173455915712935","0.0165721217433531","0.0168219210341244","0.0158540852157158","0.0157214698285526","0.0148629533846368"
"06-025-0005","Tetrachloroethylene","32.6761856079102","-115.484146118164","Calexico","","Residential","","CALEXICO HIGH SCHOOL  ARB (#1300698)","meanRos_ug_m3","Yes","Decreasing","California","Suburban","Calexico-Ethel Street","No","Tetrachloroethylene","0.365199538094543","0.22394316314975","0.43291852684399","0.364250478755578","0.309813735183429","0.279742873462499","0.139181104797742","0.25356631271049","0.267727612123459","0.224863406798544","0.158223540243431","0.133047559594005","0.178054023963576","0.148300728697938","0.116176725206087","0.113997695434513","0.0999907189562139","","","0.088336363102101"
"06-029-0014","Tetrachloroethylene","35.3566017150879","-119.063545227051","Bakersfield","","Mobile","","Bakersfield-California Avenue","meanRos_ug_m3","Yes","Decreasing","California","Urban And Center City","Bakersfield-California","No","Tetrachloroethylene","0.260379225914848","0.268848622475071","0.301874717118686","0.382015824141091","0.275185135496439","0.289078191838414","0.196616093133017","0.134554197579448","0.12022211001174","0.104753627474837","0.0872676156566219","","0.0953472878393321","0.188784153975396","0.0502996766007787","","0.0683428451172432","","0.0749411487214565","0.078037247721892"
"06-037-0002","Tetrachloroethylene","34.1365013122559","-117.92391204834","Azusa","","Residential","","Azusa","meanRos_ug_m3","Yes","Decreasing","California","Suburban","Azusa","No","Tetrachloroethylene","0.708362815228585","0.447519789934804","0.505413551492799","0.316918393310609","0.347788493942331","0.349883605859109","0.22783582314491","0.295903224833667","0.209714157588974","0.187697879069944","0.21137174882904","0.284455395241578","0.223373640690923","0.251620878947924","0.116136953325304","0.14406868760968","0.139826334572466","","0.072879529641474","0.0668719647283258"
"06-037-1002","Tetrachloroethylene","34.1760482788086","-118.317123413086","Burbank","","Commercial","","MATES: Burbank","meanRos_ug_m3","No","Decreasing","California","Urban And Center City","Burbank","No","Tetrachloroethylene","1.09123054834513","0.814751056581736","0.696774142611304","0.542231456184449","0.55513415973762","0.420304947843154","0.418095743584056","0.367871691440714","0.444174805725062","0.338777665121883","0.343570212220273","","","","","","","","",""
"06-037-1103","Tetrachloroethylene","34.0665893554688","-118.22688293457","Los Angeles","Los Angeles, CA","Residential","Urban ","UATMP: CELA; NATTS: Los Angeles, CA; MATES: Central Los Angeles","meanRos_ug_m3","Yes","Decreasing","California","Urban And Center City","Los Angeles-North Main Street","Yes","Tetrachloroethylene","0.730244532741349","0.423750336865645","0.404759579058737","0.446005588122564","0.334220652451969","0.260393422917794","0.261101053859242","0.244285117556806","0.24432120120882","0.204744174961507","0.196790320422893","0.140437160266467","0.132052534220909","0.153942248227503","0.224133712574751","0.175696016004608","0.163450655922041","0.12108782701465","0.073105260191673","0.101256192644886"
"06-037-1302","Tetrachloroethylene","33.9013900756836","-118.205001831055","Compton","","Residential","","MATES: Compton","meanRos_ug_m3","No","Undetermined","California","Urban And Center City","Compton","No","Tetrachloroethylene","","0.86601637385622","0.835466621160027","","","","","","","","","","","","","0.432698150819582","","","",""
"06-037-1601","Tetrachloroethylene","34.0140686035156","-118.060562133789","Pico Rivera","","Commercial","","MATES: Pico Rivera","meanRos_ug_m3","No","Undetermined","California","Suburban","","No","Tetrachloroethylene","","0.437086479083912","0.47370551835473","","","","","","","","","","","","","","","","",""
"06-037-4002","Tetrachloroethylene","33.8237609863281","-118.189208984375","Long Beach","","Residential","","UATMP: LBHCA; MATES: North Long Beach","meanRos_ug_m3","No","Decreasing","California","Suburban","Long Beach (North)","No","Tetrachloroethylene","0.52121032498501","0.318210722481167","0.293312618942264","0.332809126572418","0.299677226676924","0.340787552690815","0.281271678097123","0.199242329927327","0.199412147621617","0.147653668186472","0.118535138657817","","","","","","","","",""
"06-037-L0HP","Tetrachloroethylene","33.9832496643066","-118.230697631836","Huntington Park","","","","MATES: Huntington Park","meanRos_ug_m3","No","Undetermined","California","","","No","Tetrachloroethylene","","0.585317773278803","","","","","","","","","","","","","","","","","",""
"06-037-LWLB","Tetrachloroethylene","33.7924194335938","-118.215896606445","Long Beach","","","","MATES: West Long Beach","meanRos_ug_m3","No","Undetermined","California","Urban And Center City","","No","Tetrachloroethylene","","0.232594266970946","0.276538845779355","0.302771475726519","","","","","","","","","","","","","","","",""
"06-041-0001","Tetrachloroethylene","37.9723091125488","-122.520004272461","San Rafael","","Commercial","","San Rafael","meanRos_ug_m3","No","Decreasing","California","Urban And Center City","San Rafael","No","Tetrachloroethylene","0.551639024416606","0.637550025184949","0.529468452257495","0.461206396917502","0.501901079217593","0.368189143280038","0.303918907023111","0.27559888403832","0.120719432132319","0.123053540413578","0.126469444918136","0.0957679533291571","0.0740535426590277","","","","","","",""
"06-041-0004","Tetrachloroethylene","37.8327255249023","-122.527656555176","Not In A City","","Forest","","FORT CRONKHITE","meanRos_ug_m3","No","Decreasing","California","Rural","Ft. Cronkhite","No","Tetrachloroethylene","0.0681493914583793","0.126873271612126","0.0618841822577511","0.0678244680166243","0.0427543609470428","","","0.0298189216065124","0.0356109808786789","0.0297472437260499","0.0411341108727128","0.0211860996113857","","","","","","","",""
"06-055-0003","Tetrachloroethylene","38.3109436035156","-122.296188354492","Napa","","Commercial","","Napa - Jefferson St.","meanRos_ug_m3","No","Decreasing","California","Urban And Center City","Napa","No","Tetrachloroethylene","0.158170890423559","0.31441774768337","0.14726980890222","0.10493415874634","0.144664495014107","0.0819872166758295","0.0711689565020725","0.0961598295308934","0.137805894602671","0.0692496949856308","0.0902420415949817","0.0723505937634476","0.0227159509749498","","","","","","",""
"06-059-0001","Tetrachloroethylene","33.8213539123535","-117.914268493652","Anaheim","","Residential","","MATES: Anaheim","meanRos_ug_m3","No","Undetermined","California","Suburban","Anaheim (1010 Harbor Blvd)","No","Tetrachloroethylene","","0.366183021092499","0.390551895031184","","","","","","","","","","","","","","","","",""
"06-061-0006","Tetrachloroethylene","38.7457275390625","-121.266311645508","Roseville","","Mobile","","Roseville-N Sunrise Blvd","meanRos_ug_m3","No","Decreasing","California","Suburban","Roseville-N Sunrise Ave","No","Tetrachloroethylene","0.158993478275902","0.114584120755978","0.1033853621872","0.123624386549611","0.0836342676231745","0.0506441635298774","0.0395671277621777","0.0630713992028877","0.0711875933595649","","","0.0676192063504488","0.0485413030909432","","","","","","",""
"06-065-8001","Tetrachloroethylene","33.9995803833008","-117.416007995605","Rubidoux","Rubidoux, CA","Residential","Urban ","UATMP: RUCA; NATTS: Rubidoux, CA; MATES: Rubidoux","meanRos_ug_m3","Yes","Decreasing","California","Suburban","Rubidoux","Yes","Tetrachloroethylene","0.38897083774209","0.256342292755329","0.216242431344026","0.221694771241874","0.198067337198924","0.160333540007978","0.168506688273492","0.133400247262673","0.130952316443334","0.109491330092599","0.129321322916141","0.134329005802861","0.108351903113194","0.118562634724657","0.138512231287316","0.124540734715882","0.130075382648921","0.0844953413201595","0.058330212101487","0.0862407049417514"
"06-071-2002","Tetrachloroethylene","34.1000213623047","-117.492012023926","Fontana","","Industrial","","MATES: Inland Valley San Bernardino","meanRos_ug_m3","No","Undetermined","California","Suburban","Fontana","No","Tetrachloroethylene","","0.336603077051843","0.317900381133779","","","","","","","","","","","","","0.376396978665896","","","",""
"06-073-0001","Tetrachloroethylene","32.6312294006348","-117.059074401855","Chula Vista","","Residential","","Chula Vista","meanRos_ug_m3","Yes","Decreasing","California","Suburban","Chula Vista","No","Tetrachloroethylene","0.221373674592801","0.215143397412968","0.250562473048895","0.243979606912165","0.16656321710369","0.147279347119974","0.140415087758599","0.119626258860267","0.0781312359724715","0.0820206396109829","0.0790494528793611","0.075461301382228","0.116111563302596","0.0806876129963391","","0.0517382875126854","0.0356375474104199","","0.0545869851530556","0.0431701603739405"
"06-073-0003","Tetrachloroethylene","32.7911949157715","-116.942092895508","El Cajon","","Commercial","","El Cajon","meanRos_ug_m3","No","Decreasing","California","Suburban","El Cajon","No","Tetrachloroethylene","0.382050924003124","0.297180639857737","0.291996669368996","0.279735876643121","0.228246093211939","0.173018462765626","0.855336561118356","0.181905503521665","0.122162888997968","0.104922409729743","0.0569842431886191","","","","","","","","",""
"06-073-1002","Tetrachloroethylene","33.1277122497559","-117.075325012207","Escondido","","Commercial","","Escondido","meanRos_ug_m3","No","Decreasing","California","Urban And Center City","Escondido","No","Tetrachloroethylene","","","","","","","0.162795047998587","0.138804523023485","0.117995815925921","0.0751359655445854","0.0800936720582726","0.0500885034533582","0.0546513037691275","","","","","","",""
"06-073-1010","Tetrachloroethylene","32.7014923095703","-117.14965057373","San Diego","","Commercial","","Downtown","meanRos_ug_m3","No","Decreasing","California","Urban And Center City","San Diego - Beardsley Street","No","Tetrachloroethylene","","","","","","","0.167393133044243","0.129700463949803","0.114899140666784","0.0583322694393199","0.0586366379506594","0.042582193160763","0.048924999075109","","","","","","",""
"06-073-1014","Tetrachloroethylene","32.5793609619141","-116.929489135742","Otay Mesa","","Commercial","","Donovan","meanRos_ug_m3","No","No Trend","California","Rural","Donovan","No","Tetrachloroethylene","","","","","","","","","","","","","0.0808116132221688","","0.0633375038138845","0.0652936969844935","0.0995504360255455","0.107277304634297","0.0562126855288487",""
"06-073-1018","Tetrachloroethylene","32.8179779052734","-116.968132019043","El Cajon","","Commercial","","El Cajon - Floyd Smith Drive","meanRos_ug_m3","No","Undetermined","California","Suburban","El Cajon - Floyd Smith Dr.","No","Tetrachloroethylene","","","","","","","","","","","","","0.135867054279591","","","","","","",""
"06-073-1022","Tetrachloroethylene","32.7895622253418","-116.944221496582","El Cajon","","Commercial","","El Cajon - Lexington Elementary School","meanRos_ug_m3","No","Undetermined","California","Suburban","El Cajon - Lexington Elementary School","No","Tetrachloroethylene","","","","","","","","","","","","","","","","0.0666029329763904","0.0549858845681762","","",""
"06-073-1026","Tetrachloroethylene","32.7101783752441","-117.14266204834","San Diego","","Commercial","","San Diego - Sherman Elementary School","meanRos_ug_m3","No","Undetermined","California","Urban And Center City","San Diego - Sherman Elementary School","No","Tetrachloroethylene","","","","","","","","","","","","","","","","","","0.0701043874231456","0.0391498402999589",""
"06-073-2007","Tetrachloroethylene","32.5521621704102","-116.937774658203","San Diego","","Mobile","","Otay Mesa","meanRos_ug_m3","No","No Trend","California","Rural","Otay Mesa","No","Tetrachloroethylene","","","","","","","0.290804123963977","0.245636335309336","0.247793072701565","0.188334249553424","0.19177540470284","0.248577996199208","","","","","","","",""
"06-075-0005","Tetrachloroethylene","37.7659454345703","-122.399040222168","San Francisco","","Industrial","","San Francisco - Arkansas St.","meanRos_ug_m3","Yes","Decreasing","California","Urban And Center City","San Francisco","No","Tetrachloroethylene","0.253309674510693","0.296589294337879","0.214617919504052","0.24349113485791","0.270675884018983","0.144147123856197","0.153644290182133","0.160749067657238","0.139795462931356","0.0847564343983928","0.121431618808739","0.0717710454665508","0.0872149580287893","0.0703478988359796","","0.0638690464679884","","","0.054803287022001","0.0383313620771479"
"06-077-1002","Tetrachloroethylene","37.950740814209","-121.268524169922","Stockton","","Residential","","HAZELTON-HD, STOCKTON","meanRos_ug_m3","No","Decreasing","California","Urban And Center City","Stockton-Hazelton","No","Tetrachloroethylene","0.198897314025813","0.161220532818499","0.165947566642002","0.126789754455072","0.149062570483224","0.110042009973017","0.0963006582458612","0.0756964460501","0.0770091928929245","0.0660120272689258","0.0856844040298936","0.0651873665623881","0.0618218613099331","0.107127651784695","","","0.0479437478926098","","",""
"06-077-1003","Tetrachloroethylene","37.9615783691406","-121.281410217285","Stockton","","","","Stockton - University Park","meanRos_ug_m3","No","Undetermined","California","","Stockton - University Park","No","Tetrachloroethylene","","","","","","","","","","","","","","","","","","","","0.0497241692977557"
"06-081-1001","Tetrachloroethylene","37.4829330444336","-122.203369140625","Redwood City","","Industrial","","Redwood City","meanRos_ug_m3","No","No Trend","California","Suburban","Redwood City","No","Tetrachloroethylene","0.271061461539038","0.196368978338667","0.218092974337055","0.184121736291784","0.17606503474632","0.162306094688767","0.118839923399872","0.27138345036212","0.327232953213874","0.128079718621127","0.272785365806808","0.11212023365626","0.0446626658076211","0.0630398418937304","","","","","","0.167789681721872"
"06-085-0005","Tetrachloroethylene","37.3484954833984","-121.894897460938","San Jose","San Jose, CA","Commercial","Urban ","UATMP: SJCA; NATTS: San Jose, CA","meanRos_ug_m3","No","No Trend","California","Urban And Center City","San Jose - Jackson","Yes - Former","Tetrachloroethylene","0.269541636161303","0.296560143927733","0.269652852322906","0.207184647600497","0.229642930583885","0.406888187298032","0.225475304290733","0.261270036615553","0.285976815377436","0.214353182082695","0.239140918343585","0.375465376894143","0.693302535992807","0.356331323036054","0.158945732304638","0.0459151974584124","","","","0.0622514160863116"
"06-085-0006","Tetrachloroethylene","37.338134765625","-121.849784851074","San Jose","","Mobile","","San Jose Knox Ave.","meanRos_ug_m3","No","Undetermined","California","Urban And Center City","San Jose - Knox Avenue","No","Tetrachloroethylene","","","","","","","","","","","","","0.0293434276593787","","","","","","",""
"06-085-2007","Tetrachloroethylene","37.3554763793945","-122.050842285156","Sunnyvale","","Residential","","LOCATED NEAR TICONDEROGA & MARY STREETS IN SUNNAYVALE.","meanRos_ug_m3","No","No Trend","California","Urban And Center City","Sunnyvale - Ticonderoga","No","Tetrachloroethylene","0.195991921527632","0.209443082898166","0.211479916687935","0.144260801543919","0.135915844494585","0.114020442730925","","","","","","","","","","","","","",""
"06-085-2008","Tetrachloroethylene","37.4022445678711","-122.066596984863","Mountain View","","Residential","","MT VIEW-WHISMAN PARK","meanRos_ug_m3","No","Undetermined","California","Suburban","MT VIEW-WHISMAN PARK","No","Tetrachloroethylene","","","0.251276452416111","","","","","","","","","","","","","","","","",""
"06-085-2009","Tetrachloroethylene","37.3184356689453","-122.069702148438","Cupertino","","Residential","","Cupertino Monta Vista","meanRos_ug_m3","No","Undetermined","California","Suburban","Cupertino Monta Vista","No","Tetrachloroethylene","","","","","","","","","0.0520599155001149","0.0596892938750689","0.0644279078855282","","","","","","","","",""
"06-095-0004","Tetrachloroethylene","38.1025085449219","-122.237976074219","Vallejo","","Commercial","","Vallejo - Tuolumne St.","meanRos_ug_m3","No","Decreasing","California","Urban And Center City","Vallejo","No","Tetrachloroethylene","0.135268845842437","0.229284393571437","0.145323712507199","0.0783512249567501","0.115170665267575","0.0523224701102233","0.033473828582498","0.0703699247542196","0.0974820242764223","0.0587358612567186","0.0909476226397612","0.0436477754842664","","","","","","","","0.0326050699512101"
"06-095-0006","Tetrachloroethylene","38.065601348877","-122.150703430176","Benicia","","Residential","","Benicia - VIP","meanRos_ug_m3","No","Undetermined","California","Suburban","Benicia - VIP","No","Tetrachloroethylene","","","","","0.0677898543911372","0.03174565651126","","","","","","","","","","","","","",""
"06-097-0003","Tetrachloroethylene","38.4435043334961","-122.710166931152","Santa Rosa","","Commercial","","Santa Rosa - 5th St","meanRos_ug_m3","No","Decreasing","California","Urban And Center City","Santa Rosa - 5th St","No","Tetrachloroethylene","0.116352625671894","0.172938218604245","0.151807297275629","0.117161978182367","0.120521153987046","0.0755002695233704","0.0554449078846177","0.0525015391214368","0.0629146585377496","0.0533294613207025","0.0660726654600894","","","","","","","","",""
"06-097-0004","Tetrachloroethylene","38.4037666320801","-122.818290710449","Sebastopol","","Commercial","","Sebastopol","meanRos_ug_m3","No","Undetermined","California","Urban And Center City","Sebastopol","No","Tetrachloroethylene","","","","","","","","","","","","0.0266482582445524","","","","","","","",""
"06-111-2002","Tetrachloroethylene","34.2763633728027","-118.683753967285","Simi Valley","","Residential","","SIMI VALLEY","meanRos_ug_m3","No","Decreasing","California","Suburban","Simi Valley-Cochran Street","No","Tetrachloroethylene","0.271834010799085","0.243848598056039","0.249247751366439","0.209853217452712","0.200596176864735","0.160550578018035","0.114445521361371","0.143606314693761","0.212604475352572","","0.0886843478062982","0.100172740809214","0.0609855709124289","0.0870075580677115","","","0.0510658750509247","","",""
"08-013-NNWR","Tetrachloroethylene","40.0530014038086","-105.585998535156","Boulder","","","","NOAA: Niwot Ridge, Colorado","meanRos_ug_m3","Yes","Decreasing","Colorado","Remote","","No","Tetrachloroethylene","0.0237913171812478","0.0211991368902518","0.0240121234208345","0.0199791513205994","0.0198992888132731","0.0229818318233256","0.018874270831048","0.0194050612328939","0.0190388361604045","0.0147144317579193","0.0177790005755038","0.0170321396541308","0.0164621130348747","0.0167517764021685","0.018056799436695","0.0161935608308128","0.0157158548306478","0.0139262851327658","0.0151703805302098","0.0152851741347048"
"08-077-0018","Tetrachloroethylene","39.0642890930176","-108.561546325684","Grand Junction","Grand Junction, CO","Commercial","Urban ","UATMP: GPCO; NATTS: Grand Junction, CO","meanRos_ug_m3","Yes","Decreasing","Colorado","Urban And Center City","GRAND JUNCTION - PITKIN","Yes","Tetrachloroethylene","","0.274870805541705","0.21333392092666","0.305353726835796","0.278104481941816","0.285660977918545","0.376591793056262","0.348769338929961","0.235338945422176","0.281778979986425","0.241163893311631","0.202785432762311","0.133827640992026","0.128742943002241","0.119223831357449","0.160198620097204","0.147031392776197","0.134570957634781","0.185242788412244","0.14357040176789"
"10-001-0002","Tetrachloroethylene","38.9866714477539","-75.5568008422852","Not In A City","","Agricultural","","PROPERTY OF KILLENS POND STATE PARK; BEHIND FARM BUILDINGS","meanRos_ug_m3","No","Undetermined","Delaware","Rural","PROPERTY OF KILLENS POND STATE PARK; BEHIND FARM BUILDINGS","No","Tetrachloroethylene","0.110839644992569","0.0851751225130415","0.200884812113071","","","","","","","","","","","","","","","","",""
"10-003-1007","Tetrachloroethylene","39.5513000488281","-75.7320022583008","Not In A City","","Agricultural","","PAMS: Lums Pond; NADP: DE99","meanRos_ug_m3","No","Undetermined","Delaware","Rural","Lums Pond","No","Tetrachloroethylene","0.142300607609816","0.12316279175416","0.153498403707407","","","","","","","","","","","","","","","","",""
"10-003-1008","Tetrachloroethylene","39.5776786804199","-75.6035995483398","Delaware City","","Agricultural","","Route 9 Delaware City","meanRos_ug_m3","No","No Trend","Delaware","Rural","Route 9 Delaware City","No","Tetrachloroethylene","0.151154201389774","0.115325824780781","0.174312296095785","0.112702064237963","0.189358468550403","0.116792273547324","0.110882853352515","0.107002018322778","0.0939570007762257","0.146897205961802","0.121658840328796","0.16521818171709","0.101001034342405","","","","","","",""
"10-003-2004","Tetrachloroethylene","39.739444732666","-75.5580596923828","Wilmington","","Commercial","","CORNER OF MLK BLVD AND JUSTISON ST, NO TRAFFIC DATA AVAILABLE","meanRos_ug_m3","Yes","Decreasing","Delaware","Urban And Center City","MLK  CORNER OF MLK BLVD AND JUSTISON ST","No","Tetrachloroethylene","0.557417601860803","0.470531075479216","0.658814181191999","0.468664827917157","0.610814075433526","0.310108379862949","0.242631691706036","0.188348452299833","0.169517576569385","0.234668203487301","0.157848987374887","0.234261916394819","0.18207844730336","","0.157786606810987","0.915238005435208","0.0975574675136617","0.124236564220595","",""
"10-005-1002","Tetrachloroethylene","38.6539001464844","-75.6106033325195","Seaford","","Residential","","Seaford Shipley State Service Center","meanRos_ug_m3","No","Undetermined","Delaware","Suburban","Seaford Shipley State Service Center","No","Tetrachloroethylene","0.183435840168177","0.155943259086602","0.173629353912081","","","","","","","","","","","","","","","","",""
"11-001-0043","Tetrachloroethylene","38.9218482971191","-77.0131759643555","Washington","Washington, DC","Commercial","Urban ","UATMP: WADC; NATTS: Washington, D.C.","meanRos_ug_m3","Yes","Decreasing","District of Columbia","Urban And Center City","MCMILLAN  NCore-PAMS","Yes","Tetrachloroethylene","","0.392229538175546","0.439473510285219","0.366329048012124","0.426973053057799","0.340570044657432","0.329127461375978","0.298147847124359","0.188307615591705","0.485766486601938","0.342785872316021","0.287784182846331","0.313592615338629","0.259438147774156","0.22575654454627","0.123987485692233","0.0902347337587651","0.103779337558906","0.0711341377279684",""
"12-011-0010","Tetrachloroethylene","26.1286106109619","-80.1672210693359","Fort Lauderdale","","Residential","","SITE # 28","meanRos_ug_m3","No","No Trend","Florida","Suburban","Lincoln Park Elementary","No","Tetrachloroethylene","","","","","","","","0.178908278169491","0.155965248373313","0.116122831508545","0.12969236683403","","0.145368152396999","","","","","","",""
"12-011-0033","Tetrachloroethylene","26.0735359191895","-80.3384475708008","Davie","","Residential","","Vista View Park","meanRos_ug_m3","No","Undetermined","Florida","Suburban","Vista View Park","No","Tetrachloroethylene","","","","","","","","","","","","","0.144595396217749","","","","","","",""
"12-011-0034","Tetrachloroethylene","26.0538883209229","-80.2569427490234","Davie","","Residential","","Daniela Banu NCORE","meanRos_ug_m3","No","No Trend","Florida","Suburban","Daniela Banu NCORE","No","Tetrachloroethylene","","","","","","","","","","","","","","","0.226405503950557","0.142962312323094","0.103628573988002","0.146498723014202","0.176669776852451","0.123935395384415"
"12-011-1002","Tetrachloroethylene","26.0831432342529","-80.2375869750977","Davie","","Commercial","","UATMP: FLFL","meanRos_ug_m3","No","Decreasing","Florida","Suburban","U of F Ag Research Center","No","Tetrachloroethylene","","","0.770807631449266","0.55662331565962","0.26691640642689","0.165352296952843","0.212584327683562","0.162127862166211","0.203169732781403","0.144088885888815","0.143903263467534","","","","","","","","",""
"12-011-2004","Tetrachloroethylene","26.2175827026367","-80.1275482177734","Pompano Beach","","Commercial","","UATMP: FLFL(2)","meanRos_ug_m3","No","Undetermined","Florida","Suburban","","No","Tetrachloroethylene","","","0.567140662953967","0.614324064304431","0.413814791511708","","","","","","","","","","","","","","",""
"12-011-3002","Tetrachloroethylene","26.0012016296387","-80.1603240966797","Holleywood","","Commercial","","SITE #18","meanRos_ug_m3","No","Undetermined","Florida","Suburban","","No","Tetrachloroethylene","","","","0.51362335054498","0.2227381378533","","","","","","","","","","","","","","",""
"12-011-5005","Tetrachloroethylene","26.2941665649414","-80.1763916015625","Coconut Creek","","Residential","","UATMP: CCFL; SITE #30","meanRos_ug_m3","No","Decreasing","Florida","Suburban","Coconut Creek","No","Tetrachloroethylene","","","0.583076580515448","0.457609431621814","0.266479937115237","0.166323286110011","0.178448562733613","0.141405123343601","0.147548871485991","","","","","","","","","","",""
"12-011-8002","Tetrachloroethylene","26.0884208679199","-80.1111907958984","J.U. Lloyd State Park","","Residential","","SITE # 25","meanRos_ug_m3","No","No Trend","Florida","Suburban","Dr. Von Mizell-Eula Johnson State Park (prev. John U Lloyd State Park)","No","Tetrachloroethylene","","","","","","","","0.130592338719152","0.114051711794668","0.0912946274831795","0.110018067591152","","0.150076137996093","","","","","","",""
"12-057-1065","Tetrachloroethylene","27.8925228118896","-82.5384292602539","Tampa","","Commercial","","UATMP: GAFL; NADP: FL18; PILOT CITY: Gandy","meanRos_ug_m3","No","No Trend","Florida","Suburban","USMC Reserve Center (Gandy)","No","Tetrachloroethylene","0.1854975703696","0.150245085155825","0.156840441764777","0.168185321910377","0.121444984139608","0.131547378575695","","","","","","","","","","","","","",""
"12-057-1075","Tetrachloroethylene","28.0502967834473","-82.3778686523438","Tampa","","Residential","","UATMP: LEFL; PILOT CITY: Lewis","meanRos_ug_m3","No","Undetermined","Florida","Urban And Center City","WHITEWAY DRIVE TAMPA","No","Tetrachloroethylene","0.173825123236484","","","","","","","","","","","","","","","","","","",""
"12-057-3002","Tetrachloroethylene","27.9656505584717","-82.2304000854492","Plant City","Tampa, FL","Residential","Urban ","UATMP: SYFL; NATTS: Tampa, FL","meanRos_ug_m3","Yes","Decreasing","Florida","Rural","SYDNEY","Yes","Tetrachloroethylene","","0.147312829840188","0.136385170856096","0.151188609324098","0.090063216890824","0.0804157298679153","0.0735661917534031","0.057445578195194","0.0495129113447106","0.0485277958353797","0.0280523273736463","0.0609493727824552","0.0466476567100282","0.0760158834823428","0.0658125795424339","0.0656875164602445","0.0388582768416976","0.040317993469536","0.0403729929215125","0.0379661279885719"
"12-073-0012","Tetrachloroethylene","30.4397220611572","-84.3463897705078","Tallahassee","","Commercial","","Tallahassee Community College","meanRos_ug_m3","No","No Trend","Florida","Suburban","Tallahassee Community College","No","Tetrachloroethylene","","","","","0.193415049304242","0.12788522433479","0.398669018614101","0.301838067380984","0.20951913310908","","","","","","","","","","",""
"12-086-0032","Tetrachloroethylene","25.8758296966553","-80.25830078125","Miami","","Commercial","","","meanRos_ug_m3","No","Undetermined","Florida","Urban And Center City","","No","Tetrachloroethylene","","0.502952659741426","","","","","","","","","","","","","","","","","",""
"12-095-2002","Tetrachloroethylene","28.5963897705078","-81.3625030517578","Winter Park","","Commercial","","UATMP: ORFL","meanRos_ug_m3","No","Decreasing","Florida","Urban And Center City","WINTER PARK","No","Tetrachloroethylene","","","0.413531498111401","0.367375232842419","0.165852162055671","0.187484004236055","","0.234769433645196","0.129881375942562","0.131991047349017","0.135371832110431","0.176141326946614","","0.134857427121864","","","","","",""
"12-103-0004","Tetrachloroethylene","27.9466876983643","-82.7317657470703","Clearwater","","Commercial","","UATMP: CWFL","meanRos_ug_m3","No","Undetermined","Florida","Suburban","St. Petersburg College","No","Tetrachloroethylene","0.265773603674426","","","","","","","","","","","","","","","","","","",""
"12-103-0018","Tetrachloroethylene","27.7858657836914","-82.739875793457","St. Petersburg","","Residential","","UATMP: AZFL; PILOT CITY: Azalea Park","meanRos_ug_m3","Yes","Decreasing","Florida","Suburban","Azalea Park","No","Tetrachloroethylene","0.224977317755433","0.163988296947302","0.165621121481293","0.167824688782858","0.117616459367829","0.143733504426772","0.0953416167834743","0.0981523492768154","0.0745050407819601","0.068829738496332","0.058076773334498","0.0948014787789341","0.0684525340423162","0.0946968388947722","0.0964035558987808","0.0713878560410725","0.0673196633517869","0.0704813356386619","0.0498466106399818","0.0505670051458483"
"12-103-0026","Tetrachloroethylene","27.8503475189209","-82.7144622802734","Pinellas Park","Pinellas County, FL","Residential","Urban ","UATMP: SKFL; NATTS: Pinellas County, FL","meanRos_ug_m3","Yes","Decreasing","Florida","Suburban","Skyview","Yes","Tetrachloroethylene","","","0.244986346538779","0.263698435522439","0.180121647730722","0.186602352994184","0.129732015008321","0.120004587296036","0.089445848201142","0.0818390470128833","0.0722484224963214","0.106319739871439","0.0882990405862701","0.107945957618521","0.125873034598969","0.135221249391807","0.0803324972264102","0.06630365890228","0.0664495434313039","0.0581377396598809"
"13-021-0012","Tetrachloroethylene","32.805362701416","-83.5435180664063","Macon","","Industrial","","Macon SE","meanRos_ug_m3","No","Undetermined","Georgia","Rural","Macon-Forestry","No","Tetrachloroethylene","","","","","","","","","","","","","0.166809956379674","0.154665477730085","0.0671024816837973","0.119007687974455","","","",""
"13-051-0021","Tetrachloroethylene","32.0691833496094","-81.0487442016602","Savannah","","Commercial","","Savannah-E. President Street","meanRos_ug_m3","No","Undetermined","Georgia","Suburban","Savannah-E. President","No","Tetrachloroethylene","","","","","","","","","","","","","","0.120108295947325","0.07339071480046","0.114114995346422","","","",""
"13-069-0002","Tetrachloroethylene","31.513126373291","-82.7500076293945","Douglas","","Agricultural","","General Coffee","meanRos_ug_m3","No","Undetermined","Georgia","Rural","General Coffee","No","Tetrachloroethylene","","","","","","","","","","","","","","","","0.0890207216068026","","","",""
"13-089-0002","Tetrachloroethylene","33.6880798339844","-84.2901763916016","Decatur","Atlanta, GA","Residential","Urban ","UATMP: SDGA; NATTS: South DeKalb, GA; PAMS: South DeKalb; IMPROVE: ATLA1","meanRos_ug_m3","No","Decreasing","Georgia","Suburban","South DeKalb","Yes","Tetrachloroethylene","","","0.227592502270388","0.174103436950024","0.132050247910167","0.106060016666681","0.126819901468188","","","","","","0.149346202716926","0.185098983183852","0.100494868438906","0.146567271608826","0.117585878544411","0.0935625900824865","0.108856560559152","0.0860090319555802"
"13-089-0003","Tetrachloroethylene","33.6985511779785","-84.2726669311523","Atlanta","","Commercial","","DMRC","meanRos_ug_m3","No","No Trend","Georgia","Suburban","NR-285","No","Tetrachloroethylene","","","","","","","","","","","","","0.172244792700823","0.150974736468487","0.0950214695650885","0.151886885560855","0.113884741376186","0.0997655924649969","0.11271378036567","0.0940455435625007"
"13-115-0004","Tetrachloroethylene","34.263313293457","-85.1787261962891","Rome","","Commercial","","","meanRos_ug_m3","No","No Trend","Georgia","Urban And Center City","","No","Tetrachloroethylene","","0.581471362301115","0.631840083087893","0.436864747278597","0.739653668534298","0.404925176650484","","","","","","","","","","","","","",""
"13-121-0020","Tetrachloroethylene","33.7412528991699","-84.5526962280273","Utoy Creek","","Industrial","","Utoy Creek","meanRos_ug_m3","No","Undetermined","Georgia","Suburban","","No","Tetrachloroethylene","","","0.218846317655864","0.251621164870926","0.347085824204433","0.159017199014428","","","","","","","","","","","","","",""
"13-139-0003","Tetrachloroethylene","34.2993316650391","-83.8134078979492","Gainesville","","Residential","","MONITOR LOCATED ON TOP OF SCHOOL","meanRos_ug_m3","No","Undetermined","Georgia","Suburban","Gainesville","No","Tetrachloroethylene","","","0.270687999240412","","","","","","","","","","","","","","","","",""
"13-153-0001","Tetrachloroethylene","32.6055564880371","-83.5980529785156","Warner Robins","","Commercial","","LOCATED NEAR ROBBINS AIR FORCE BASE","meanRos_ug_m3","No","Undetermined","Georgia","Suburban","Warner Robins","No","Tetrachloroethylene","","","","0.394769316570749","","0.0821250063356868","","","","","","","","","","","","","",""
"13-215-5000","Tetrachloroethylene","32.5032730102539","-84.9420318603516","Columbus","","Commercial","","","meanRos_ug_m3","No","Undetermined","Georgia","Suburban","","No","Tetrachloroethylene","","","","0.129012941934623","","","","","","","","","","","","","","","",""
"13-223-0003","Tetrachloroethylene","33.9285011291504","-85.0453414916992","Yorkville","","Agricultural","","PAMS: Yorkville (Near Rockmart)","meanRos_ug_m3","No","Undetermined","Georgia","Rural","Yorkville, King Farm","No","Tetrachloroethylene","","","","","","","","","","","","","","0.0998301700625707","","","","","",""
"13-245-0092","Tetrachloroethylene","33.4323539733887","-81.9913711547852","Augusta","","Industrial","","","meanRos_ug_m3","No","Undetermined","Georgia","Suburban","","No","Tetrachloroethylene","","","","0.211514264576469","","","","","","","","","","","","","","","",""
"15-001-NKUM","Tetrachloroethylene","19.5200004577637","-154.820007324219","Pahoa","","","","NOAA: Cape Kumukahi, Hawaii","meanRos_ug_m3","Yes","Decreasing","Hawaii","Remote","","No","Tetrachloroethylene","0.020256908569071","0.0176127817778086","0.0164896515483151","0.0169747362242025","0.0157828985198223","0.0154550396932327","0.0148933707280275","0.0144653027622881","0.0123588508582499","0.0116134261652986","0.0117655821141832","0.0123540235508699","0.0127849088422954","0.0126357670136107","0.012495502491719","0.0112586664941369","0.0120417398595533","0.0115017975089935","0.0112327395370596",""
"15-001-NMLO","Tetrachloroethylene","19.5359992980957","-155.57600402832","Kaulapuu","","","","NOAA: Mauna Loa, Hawaii","meanRos_ug_m3","Yes","Decreasing","Hawaii","Remote","","No","Tetrachloroethylene","0.015718999337405","0.0139967562174615","0.0131226785294712","0.0122281868049564","0.0122314649447799","0.011791040702742","0.0115939240472821","0.0108785007033184","0.00962074762940699","0.00907577980309725","0.0100376847731889","0.0110871795332059","0.0100361148771994","0.0101824832428247","0.00968929444439709","0.0100466439389955","0.00974423838062928","0.0091607637066198","0.0100037302438389","0.00849826898465448"
"16-069-0006","Tetrachloroethylene","46.4295616149902","-116.99242401123","Lewiston","","Industrial","","","meanRos_ug_m3","No","Undetermined","Idaho","Suburban","","No","Tetrachloroethylene","","","","0.394198152877531","","","","","","","","","","","","","","","",""
"16-069-0009","Tetrachloroethylene","46.4177780151367","-117.018608093262","Lewiston","","Commercial","","","meanRos_ug_m3","No","Undetermined","Idaho","Urban And Center City","","No","Tetrachloroethylene","","","","0.17937505689531","","","","","","","","","","","","","","","",""
"16-069-0012","Tetrachloroethylene","46.4083518981934","-116.992530822754","Lewiston","","Residential","","SUNSET PARK LOCATION, BETWEEN CITY CENTER AND POTLACH CORP.,","meanRos_ug_m3","No","Undetermined","Idaho","Suburban","SUNSET PARK LOCATION, BETWEEN CITY CENTER AND POTLACH CORP.,","No","Tetrachloroethylene","","","","0.112561645804937","","","","","","","","","","","","","","","",""
"16-069-0013","Tetrachloroethylene","46.3972015380859","-116.806198120117","Lapwei","","Residential","","","meanRos_ug_m3","No","Undetermined","Idaho","Rural","","No","Tetrachloroethylene","","","","0.0628302531130746","","","","","","","","","","","","","","","",""
"16-069-0222","Tetrachloroethylene","46.4380874633789","-116.905181884766","Not In A City","","Commercial","","","meanRos_ug_m3","No","Undetermined","Idaho","Rural","","No","Tetrachloroethylene","","","","0.149501064644569","","","","","","","","","","","","","","","",""
"17-031-3103","Tetrachloroethylene","41.9651947021484","-87.8762664794922","Schiller Park","","Mobile","","UATMP: SPIL","meanRos_ug_m3","Yes","Increasing","Illinois","Suburban","IEPA TRAILER","No","Tetrachloroethylene","0.737829621281536","0.53359295313761","0.39402391149676","0.750505898000791","0.397630227087387","0.345026942352645","0.257669610243718","0.331899965309198","0.318183789464009","0.348079968648867","0.426540270152575","1.47173631665382","1.32203540044526","0.845092861559884","0.644911717503302","0.930732450552235","5.50937577935516","5.47141765920739","4.83421355441177","4.20063633312072"
"17-031-4201","Tetrachloroethylene","42.1399955749512","-87.7992248535156","Northbrook","Chicago, IL","Residential","Urban ","UATMP: NBIL; NATTS: Chicago, IL","meanRos_ug_m3","Yes","Decreasing","Illinois","Suburban","NORTHBROOK WATER PLANT","Yes","Tetrachloroethylene","0.521783928037471","0.360399510543412","0.270455203229323","0.342660831738067","0.251894262410212","0.201326251151156","0.193173538823633","0.217523419105594","0.357629088842546","0.15098878270468","0.395626501693698","0.20090487158862","0.164767897767046","0.13254013946006","1.94187404209244","0.192989404145323","0.115267109995059","0.136250688711965","0.15315161793331","0.136927778185424"
"17-119-9010","Tetrachloroethylene","38.8483810424805","-90.076416015625","Roxana","","Industrial","","UATMP: ROIL; Phillips 66 Wood River Refinery","meanRos_ug_m3","No","Undetermined","Illinois","Suburban","Phillips 66 Wood River Refinery","No","Tetrachloroethylene","","","","","","","","","","","0.0901156559826218","0.0827579533953489","","","","","","","",""
"18-003-0004","Tetrachloroethylene","41.0949668884277","-85.1018142700195","Fort Wayne","","Commercial","","Ft. Wayne- Beacon St.","meanRos_ug_m3","No","Undetermined","Indiana","Suburban","Ft. Wayne- Beacon St.","No","Tetrachloroethylene","","0.0593600196748349","0.0644809549660136","0.0639123780859974","0.0692311435860123","","","","","","","","","","","","","","",""
"18-019-0009","Tetrachloroethylene","38.276683807373","-85.7637634277344","Clarksville","","Residential","","Clarksville","meanRos_ug_m3","No","Decreasing","Indiana","Urban And Center City","Clarksville","No","Tetrachloroethylene","","","","","","0.112566041456306","0.111748405797551","0.502565364245309","0.143516223785398","0.142538110387223","0.0768490258711366","0.0765181765168838","0.121600115367946","0.0722582305186347","0.0551065302192824","0.0641811585809964","0.0597128028319758","0.0523861900385537","0.0549825749109431","0.0493373714731819"
"18-039-0003","Tetrachloroethylene","41.6678276062012","-85.9694442749023","Elkhart","","Commercial","","SAMPLERS ARE ON THE ROOF ON THE WEST SIDE OF THE SCHOOL","meanRos_ug_m3","No","No Trend","Indiana","Urban And Center City","SAMPLERS ARE ON THE ROOF ON THE WEST SIDE OF THE SCHOOL","No","Tetrachloroethylene","0.0673716617584204","0.0543305432253863","0.0832997198959391","0.0655585800118815","0.0963235610671236","","","","","","","","","","","","","","",""
"18-089-0022","Tetrachloroethylene","41.6066818237305","-87.3047256469727","Gary","","Industrial","","UATMP: INDEM","meanRos_ug_m3","Yes","No Trend","Indiana","Urban And Center City","Gary-IITRI/ 1219.5 meters east of Tennessee St.- old ammuntion bunker","No","Tetrachloroethylene","0.0551052272402683","0.0575624477731561","0.0518897280063538","0.0670661020418638","0.0585542606509344","","0.0677187041804149","0.0835149392102201","0.0693643086973996","0.0715817856380145","0.0665565846842118","0.060828709741205","0.0542722637310863","0.0743829829299855","0.0466611417126115","0.0480665815554637","","","0.143728535068151",""
"18-089-0023","Tetrachloroethylene","41.6527404785156","-87.4395523071289","East Chicago","","Industrial","","East Chicago Water Flitration Plant","meanRos_ug_m3","No","No Trend","Indiana","Urban And Center City","SITE MOVED FROM EAST CHICAGO FIELD SCHOOL","No","Tetrachloroethylene","0.0908823304921633","0.0668435936170386","0.0910195196212369","0.0760742501998122","0.0749557414069622","","0.0930337361507128","0.132331066805442","0.146650855860042","0.0622031617014905","","","","","","","","","",""
"18-089-0030","Tetrachloroethylene","41.6814002990723","-87.4947357177734","Whiting","","Residential","","Whiting- Whiting HS","meanRos_ug_m3","No","Increasing","Indiana","Urban And Center City","Whiting- Whiting HS","No","Tetrachloroethylene","","0.0915742226099323","0.0754738339482883","0.0708483320569927","0.0864443385729956","","0.0890113291690033","0.280443839555919","0.331376898416406","0.0979702989737674","0.505272150569842","0.250363893255863","0.137602821234085","","","","","","",""
"18-089-0034","Tetrachloroethylene","41.6534805297852","-87.4355850219727","East Chicago","","Commercial","","East Chicago-Marina","meanRos_ug_m3","No","No Trend","Indiana","Urban And Center City","East Chicago-Marina","No","Tetrachloroethylene","","","","","","","","","","","0.187871368981682","0.0913063503010572","0.0642796875663091","0.0519646270543782","0.0471735278657806","0.0687755552336999","","0.0430739859323625","0.0637661006054481",""
"18-089-0035","Tetrachloroethylene","41.6813926696777","-87.490234375","Whiting","","Residential","","Whiting- Center St.","meanRos_ug_m3","No","No Trend","Indiana","Urban And Center City","Whiting- Center St.","No","Tetrachloroethylene","","","","","","","","","","","","","","0.0833427970861276","0.177169243387444","0.0971615066293541","0.107534392179492","0.216981741715039","0.0909066259151918",""
"18-089-2008","Tetrachloroethylene","41.639461517334","-87.4936218261719","Hammond","","Commercial","","HAMMOND CAAP- Hammond- 141st St.","meanRos_ug_m3","Yes","Decreasing","Indiana","Suburban","HAMMOND CAAP- Hammond- 141st St.","No","Tetrachloroethylene","0.0807953570214942","0.0672818655681925","0.0886961912809127","0.0815897437960886","0.180355149109019","0.0494633881534189","0.092161124800369","0.180936245740884","0.163249826889032","0.0736775766382498","0.0799366421701755","0.288245211082175","0.314192081156799","0.0597018613746429","0.0469520562970339","0.0502054326544125","0.064210407231527","0.058360520509337","0.0585641050701311","0.0391004803149408"
"18-097-0057","Tetrachloroethylene","39.7490196228027","-86.1863174438477","Indianapolis","","Residential","","UATMP: ININ","meanRos_ug_m3","No","Undetermined","Indiana","Urban And Center City","Indpls- Harding St.","No","Tetrachloroethylene","","","","","0.265477059503124","0.182487054485162","","","","","","","","","","","","","",""
"18-097-0078","Tetrachloroethylene","39.8110961914063","-86.1144714355469","Indianapolis","","Residential","","UATMP: WPIN","meanRos_ug_m3","Yes","Decreasing","Indiana","Suburban","Indpls- Washington Park/  in parking lot next to police station","No","Tetrachloroethylene","0.137695916698707","0.0831048228814206","0.0827162529293941","0.087123674994507","0.135346816764834","0.0708917016165001","0.0951935512480723","0.12877496785208","0.124067721682216","0.197998598346415","0.139321910360368","0.367566703858671","0.128237860644638","0.0854211347816742","0.0585175410430781","0.0535066284914671","0.0787986125378838","0.0500265486757662","0.0530297595659845","0.0760316770582543"
"18-097-0084","Tetrachloroethylene","39.7588539123535","-86.1154174804688","Indianapolis","","Residential","","Indpls-  School 21/ Florence Fay School 21","meanRos_ug_m3","No","Undetermined","Indiana","Urban And Center City","Indpls-  School 21/ Florence Fay School 21","No","Tetrachloroethylene","0.152129989569343","0.0591213069192365","","","","","","","","","","","","","","","","","",""
"18-097-0085","Tetrachloroethylene","39.7403831481934","-86.2259521484375","Indianapolis","","Military Reservation","","UATMP: IDIN","meanRos_ug_m3","No","Undetermined","Indiana","Urban And Center City","Stout Field 2","No","Tetrachloroethylene","","","","","0.236820252578897","0.162984905397854","","","","","","","","","","","","","",""
"18-097-0087","Tetrachloroethylene","39.7879333496094","-86.1308822631836","Indianapolis (Remainder)","","Residential","","Indpls.- I 70","meanRos_ug_m3","No","No Trend","Indiana","Urban And Center City","Indpls.- I 70","No","Tetrachloroethylene","","","","","","","","","","","","","","0.119669509375884","0.0733172063216114","0.0604185237087004","0.0793565727549897","0.0711855520663109","0.0796420864622273","0.0881470309325247"
"18-127-0024","Tetrachloroethylene","41.6175575256348","-87.1992492675781","Not In A City","","Residential","","Ogden Dunes- Water Treatment Plant","meanRos_ug_m3","Yes","Increasing","Indiana","Suburban","Ogden Dunes- Water Treatment Plant","No","Tetrachloroethylene","0.0467994177064735","0.053336166772557","0.0471109177447637","0.0557417753321928","0.0821823890525725","","0.057251735388406","0.0878280868100209","0.0658206659702301","0.0519583104406752","0.0524055106277339","0.198695795180164","0.438202638461089","1.09475744842751","0.238368499448803","1.00759944722789","0.0763816966372174","","0.0490795027519728","0.0680849044459468"
"18-157-0008","Tetrachloroethylene","40.431640625","-86.8525009155273","Lafayette","","Industrial","","Lafayette- Greenbush St./ Cinergy Substation","meanRos_ug_m3","No","Undetermined","Indiana","Suburban","Lafayette- Greenbush St./ Cinergy Substation","No","Tetrachloroethylene","","","","","","","0.0734960430718237","0.0848039293523969","0.158345280827555","0.0667586677010821","","","","","","","","","",""
"18-163-0016","Tetrachloroethylene","37.974437713623","-87.5322875976563","Evansville","","Commercial","","Evansville- U of E/  University of Evansville-Carson Center","meanRos_ug_m3","No","No Trend","Indiana","Urban And Center City","Evansville- U of E/  University of Evansville-Carson Center","No","Tetrachloroethylene","0.0616828214294391","0.0561411760865107","0.103541089786093","0.0640452136861114","0.0476760611213522","0.0714794766125961","0.0745772957953393","0.128004641695564","0.0779357515992693","0.0605449843725112","0.0465126288029726","0.0568845769173825","0.0720132715695929","0.0765446479979958","","","0.0421851683989258","","",""
"18-167-0025","Tetrachloroethylene","39.5076866149902","-87.3744430541992","Terre Haute","","Commercial","","Terre Haute-Fort Harrison Rd.","meanRos_ug_m3","No","Undetermined","Indiana","Urban And Center City","Terre Haute-Fort Harrison Rd.","No","Tetrachloroethylene","","","","","","","","","","","","0.0466849673589761","0.06132719353758","0.0619679917902623","0.0462972991036907","","","","",""
"19-113-0040","Tetrachloroethylene","41.9767684936523","-91.6876602172852","Cedar Rapids","","Residential","","Public Health","meanRos_ug_m3","No","Undetermined","Iowa","Urban And Center City","Public Health","No","Tetrachloroethylene","","","","","","0.219456963774225","","","","","","","","","","","","","",""
"19-153-0030","Tetrachloroethylene","41.6031608581543","-93.6431198120117","Des Moines","","Commercial","","UATMP: DMIA","meanRos_ug_m3","No","No Trend","Iowa","Urban And Center City","CARPENTER","No","Tetrachloroethylene","0.53843158985043","","","","","","","0.778184802776198","0.266588474575724","","","0.174114298075401","0.141867308538153","","","","","","",""
"19-163-0015","Tetrachloroethylene","41.5300102233887","-90.5876083374023","Davenport","","Residential","","UATMP: DAIA","meanRos_ug_m3","No","No Trend","Iowa","Urban And Center City","DAVENPORT, JEFFERSON SCH.","No","Tetrachloroethylene","0.183873930398621","0.300361088252502","","","","0.439013781950035","","0.352704372447693","","0.333510228171305","","0.228836593701548","","","","","","","",""
"21-019-0017","Tetrachloroethylene","38.4593391418457","-82.6404113769531","Ashland","","Residential","","UATMP: ASKY","meanRos_ug_m3","No","No Trend","Kentucky","Suburban","ASHLAND PRIMARY (FIVCO)","No","Tetrachloroethylene","","","","","","","","","","0.0739267002791327","0.0784212240556728","0.103331359753769","0.101047026656727","0.0748428931763169","0.083395310914389","0.0792787983420374","","","",""
"21-043-0500","Tetrachloroethylene","38.2388687133789","-82.9880981445313","Hazard/Grayson Lake","Grayson Lake, KY","Residential","Rural ","UATMP: HAKY/GLKY; NATTS: Hazard/Grayson Lake, KY","meanRos_ug_m3","No","No Trend","Kentucky","Rural","GRAYSON LAKE","Yes","Tetrachloroethylene","","","","","","","","","0.0531952755812786","0.0398249203305128","0.0369783316842558","0.0398807594441344","0.0395369462714785","0.0347805137113518","0.0415477749448825","0.0487385955839109","0.0355798371281361","0.0329651517061863","0.0226271126635862","0.0491062448455324"
"21-067-0012","Tetrachloroethylene","38.0650291442871","-84.4976119995117","Lexington-Fayette","","Residential","","UATMP: LEKY","meanRos_ug_m3","No","Undetermined","Kentucky","Suburban","LEXINGTON PRIMARY","No","Tetrachloroethylene","","","","","","","","","","0.0487184129164065","0.0733215475272974","0.0888785208564729","0.076819263350496","","","","","","",""
"21-139-0004","Tetrachloroethylene","37.0715103149414","-88.3338928222656","Not In A City","","Agricultural","","UATMP: BLKY","meanRos_ug_m3","No","Increasing","Kentucky","Rural","BLOODWORTH","No","Tetrachloroethylene","","","","","","","","","","0.0215484716916736","0.0523677118338112","0.0533959559269357","0.0474427393469452","0.0589322728707232","0.0637417400944838","0.0576541144585475","","","",""
"21-157-0014","Tetrachloroethylene","37.0452003479004","-88.3308715820313","Grand Rivers","","Industrial","","UATMP: TVKY; TVA SUBSTATION","meanRos_ug_m3","No","No Trend","Kentucky","Suburban","TVA SUBSTATION","No","Tetrachloroethylene","","","","","","","","","","0.0485478908886143","0.0674601273272632","0.0870556487203896","0.0564645014296894","0.0715417387957148","0.0783137971270314","0.0796414448798145","","","",""
"21-157-0016","Tetrachloroethylene","37.0417594909668","-88.3540725708008","Grand Rivers","","Industrial","","UATMP: ATKY; ATMOS ENERGY","meanRos_ug_m3","No","No Trend","Kentucky","Suburban","ATMOS ENERGY","No","Tetrachloroethylene","","","","","","","","","","0.0703513226525454","0.0624588936678785","0.0767850105722341","0.0775734235258966","0.0854140329418044","","","","","",""
"21-157-0018","Tetrachloroethylene","37.0270195007324","-88.3438720703125","Calvert City","","Residential","","UATMP: CCKY; CALVERT CITY ELEMENTARY","meanRos_ug_m3","No","No Trend","Kentucky","Suburban","CALVERT CITY ELEMENTARY","No","Tetrachloroethylene","","","","","","","","","","0.0334641964649317","0.0564356034949644","0.0698526091546797","","","","","","","0.0321578448508887","0.201348885962053"
"21-157-0019","Tetrachloroethylene","37.037181854248","-88.3341064453125","Calvert City","","Residential","","UATMP: LAKY; Lazy Daz","meanRos_ug_m3","No","Undetermined","Kentucky","Suburban","LAZY DAZ","No","Tetrachloroethylene","","","","","","","","","","0.0475450590226702","0.0709743980249828","0.0687125291351536","","","","","","","",""
"21-157-0020","Tetrachloroethylene","37.041202545166","-88.3518753051758","","","Industrial","","Johnson-Riley Road","meanRos_ug_m3","No","Undetermined","Kentucky","Suburban","Johnson-Riley Road","No","Tetrachloroethylene","","","","","","","","","","","","","","","","","","","0.0562043401686323","0.0996468852691609"
"21-157-0021","Tetrachloroethylene","37.0479125976563","-88.3383255004883","","","Industrial","","LWD","meanRos_ug_m3","No","Undetermined","Kentucky","Suburban","LWD","No","Tetrachloroethylene","","","","","","","","","","","","","","","","","","","0.117332014075067","0.0990698811026417"
"22-005-0004","Tetrachloroethylene","30.2296524047852","-90.9656295776367","Not In A City","","Agricultural","","Dutchtown","meanRos_ug_m3","No","No Trend","Louisiana","Rural","Dutchtown","No","Tetrachloroethylene","","","","","","","","0.0890579407345093","0.188582268395385","0.0913489495908567","0.058636543695716","0.07001616491583","0.125089156760972","0.0961702330964876","0.130905363102572","0.0879622665704104","0.0628819966295378","0.0670654660629713","0.0591493518767513","0.107659390670156"
"22-015-0008","Tetrachloroethylene","32.5362739562988","-93.7489395141602","Shreveport","","Commercial","","Shreveport / Airport","meanRos_ug_m3","No","Decreasing","Louisiana","Urban And Center City","Shreveport / Airport","No","Tetrachloroethylene","","","","","","","","0.0981920177072732","0.203341596393482","0.0889937737785839","0.100219048641911","0.0998207266216144","0.092350117005794","0.110255621087204","0.0732625603093454","0.068927252804252","0.0941673897064782","0.0621257529311113","0.0628420416498399","0.092780514703833"
"22-019-0008","Tetrachloroethylene","30.2626037597656","-93.2850875854492","Westlake","","Industrial","","Westlake","meanRos_ug_m3","No","Increasing","Louisiana","Rural","Westlake","No","Tetrachloroethylene","","","","","","","","0.137117749661363","0.263097704306996","0.149156821056561","0.165812749609112","0.192678037583494","0.167290460599236","0.389962289723093","0.67695326919006","0.205293207414605","0.260065295031682","0.362358478650019","0.649650359388338","0.648842149102288"
"22-019-SPE3","Tetrachloroethylene","30.2156066894531","-93.3120498657227","","","","","","meanRos_ug_m3","No","Increasing","Louisiana","","","No","Tetrachloroethylene","","","","","","","","0.202665117452311","0.177584703948737","0.150799347184338","0.181965463428494","0.297923657895874","0.440881901760428","0.452279895990713","0.282886586741877","0.293197818239351","0.296020454341427","0.486974417212347","0.477426354235082","0.270190108802372"
"22-033-0003","Tetrachloroethylene","30.4198055267334","-91.182014465332","","","","","LSU","meanRos_ug_m3","No","No Trend","Louisiana","","LSU","No","Tetrachloroethylene","","","","","","","","0.0827094884967851","0.273343442370338","0.0771598741774799","0.055937535252057","0.103933660715393","0.108381737950753","0.064368574570417","0.0652947189348147","0.0668230965057028","","0.209669603556088","0.0658870342422163","0.0940198796734886"
"22-033-0009","Tetrachloroethylene","30.4619808197021","-91.1792221069336","Baton Rouge","","Commercial","","UATMP: B2LA","meanRos_ug_m3","No","Decreasing","Louisiana","Urban And Center City","Capitol","No","Tetrachloroethylene","","","","","","","","0.12722573421365","0.275658822146402","0.115577026578591","0.131995558894358","0.112364106016197","0.0987344702249993","0.147492347406612","0.0976843088360915","0.105466588640612","0.0942836813133499","0.057688981613798","0.0869764878295325","0.110586530551495"
"22-033-0013","Tetrachloroethylene","30.7008953094482","-91.0560684204102","Zachary","","Agricultural","","Pride","meanRos_ug_m3","No","No Trend","Louisiana","Rural","Pride","No","Tetrachloroethylene","","","","","","","","","0.111706971188854","0.0368269015580316","","0.0378059379790587","0.0459738435894785","","0.053914746637234","","","","","0.0500767895559114"
"22-033-2002","Tetrachloroethylene","30.5256481170654","-91.1862716674805","","","","","","meanRos_ug_m3","No","No Trend","Louisiana","","","No","Tetrachloroethylene","","","","","","","","0.0730944600684588","0.128854948754088","0.0752130327406889","0.0444511260953129","0.063743737531149","0.0591295781978884","0.0548419193693653","0.108375564563959","0.0768703903863654","0.0585543882493704","0.0585789941731763","0.0578913830470005","0.154584336094625"
"22-047-0009","Tetrachloroethylene","30.2212543487549","-91.3154144287109","Not In A City","","Agricultural","","Bayou Plaquemine","meanRos_ug_m3","No","No Trend","Louisiana","Rural","Bayou Plaquemine","No","Tetrachloroethylene","","","","","","","","0.0511740677727998","0.183493862422989","0.075526293612614","0.0438491597768703","0.0741705791129721","0.0552154318536979","0.064002157167231","0.0809809574077615","0.0382305763669854","","","0.0739706135474705","0.0965659097012089"
"22-047-0012","Tetrachloroethylene","30.2042179107666","-91.1260375976563","Carville","","","","Carville","meanRos_ug_m3","No","No Trend","Louisiana","","Carville","No","Tetrachloroethylene","","","","","","","","0.0522459431550948","0.179130187731713","0.0732812021410061","0.042145021752595","0.0713301813994758","0.0692532925226829","0.0986636600715142","0.0586913473608279","0.0566978095106463","","0.0544772942436666","0.0475320801992022","0.0595314908559803"
"22-051-1001","Tetrachloroethylene","30.04123878479","-90.2728271484375","Kenner","","Residential","","Katrina: KELA","meanRos_ug_m3","No","No Trend","Louisiana","Suburban","Kenner","No","Tetrachloroethylene","","","","0.0532880498910708","","","","","","","","","","","0.0702202204296293","0.0950494461587941","0.0581304999905535","0.0636244239142888","0.0452652932106439","0.071903129658701"
"22-051-2001","Tetrachloroethylene","29.8832855224609","-90.089958190918","Marrero","","Residential","","Katrina: MALA","meanRos_ug_m3","No","No Trend","Louisiana","Suburban","Marrero","No","Tetrachloroethylene","","","","","","","","","","","","","","","","0.111268899649844","0.0942473697941441","0.0739712177603529","0.126784227536079","0.12973287718105"
"22-073-0004","Tetrachloroethylene","32.5099601745605","-92.0461959838867","Monroe","","Industrial","","Monroe / Airport","meanRos_ug_m3","No","No Trend","Louisiana","Urban And Center City","Monroe / Airport","No","Tetrachloroethylene","","","","","","","","0.0663846207534058","0.15581405960078","0.0744338416227224","","0.0511782616942658","0.0596564879952084","0.0646259586423769","0.0575939096306211","0.0745854045705601","","0.0543611748005512","0.045968833488781","0.0660453060076869"
"22-077-0001","Tetrachloroethylene","30.6817188262939","-91.3662490844727","","","","","New Roads","meanRos_ug_m3","No","No Trend","Louisiana","","New Roads","No","Tetrachloroethylene","","","","","","","","0.0456334647008988","0.12583280881838","0.0430021719478645","","0.0454428972066758","0.0487526113540729","0.0515200038514728","","0.0490214675768146","","0.0464394837474325","0.0517294461861697","0.0672926395926193"
"22-087-0007","Tetrachloroethylene","29.9431648254395","-89.9762496948242","","","","","Chalmette Vista","meanRos_ug_m3","No","No Trend","Louisiana","","Chalmette Vista","No","Tetrachloroethylene","","","","","","","","0.0898883504501725","0.205945228341051","0.0828498920322482","0.0387017242698019","0.0642307448015378","0.0623349188011124","0.130634878450743","0.0744510024083361","0.0730473879028887","0.066558983035304","0.0879910512292202","0.0599960545742612","0.111074072123863"
"22-087-0009","Tetrachloroethylene","29.9369087219238","-89.9557037353516","","","","","Chalmette High School","meanRos_ug_m3","No","Undetermined","Louisiana","","Chalmette High School","No","Tetrachloroethylene","","","","","","","","0.0779321997151806","","","","","","","","","","","",""
"22-089-0003","Tetrachloroethylene","29.9843711853027","-90.4106369018555","Hahnville","","Industrial","","UATMP: HALA","meanRos_ug_m3","No","No Trend","Louisiana","Rural","Hahnville","No","Tetrachloroethylene","","","","","","","","0.0877254557759237","0.123315115220592","0.0743567987848256","0.0473489040902337","0.126083809903212","0.154127578822967","","","","","","",""
"22-089-7000","Tetrachloroethylene","29.9541835784912","-90.3264465332031","","","","","","meanRos_ug_m3","No","No Trend","Louisiana","","","No","Tetrachloroethylene","","","","","","","","","","","","","","","","0.0641786915722605","0.054890323782832","0.0415305046713629","0.049500056161632","0.0685665242529486"
"22-103-0002","Tetrachloroethylene","30.4293804168701","-90.1996765136719","Madisonville","","","","Madisonville","meanRos_ug_m3","No","No Trend","Louisiana","","Madisonville","No","Tetrachloroethylene","","","","","","","","0.0609771488782493","0.114769238898777","0.0612996220756742","","0.0698557156066345","","0.0462668629911644","0.042448629732331","0.0544101557927187","","0.0363636582587944","0.0473050130393108","0.0601012323276457"
"22-121-0001","Tetrachloroethylene","30.5006427764893","-91.2135543823242","Port Allen","","Commercial","","PORT ALLEN","meanRos_ug_m3","No","No Trend","Louisiana","Suburban","Port Allen","No","Tetrachloroethylene","","","","","","","","0.111002514024902","0.196771256803032","0.111690633600212","0.0429264552983859","0.0845161184953814","0.0820347866224292","0.0794399264546591","0.0868495763218966","0.0636506700327277","","0.0670547655284156","0.079061003167735","0.110342591194753"
"23-001-0011","Tetrachloroethylene","44.0894050598145","-70.2142181396484","Lewiston","","Commercial","","LEWISTON","meanRos_ug_m3","Yes","No Trend","Maine","Urban And Center City","COUNTRY KITCHEN BAKERY PARKING LOT","No","Tetrachloroethylene","","","0.246170567969481","","0.146021192587167","0.255055075511336","0.335138986751401","0.291592284266291","0.179763158585163","0.336133593436459","0.329389162154912","0.335065736674099","0.314238801615299","0.284139479135047","0.211074008666381","0.212404004242671","0.195690122880936","0.132643516777188","0.140821328522698","0.154651053091303"
"23-003-1011","Tetrachloroethylene","46.682300567627","-68.0161972045898","Presque Isle","","Commercial","","RIVERSIDE STREET MONITORING SHELTER","meanRos_ug_m3","No","No Trend","Maine","Urban And Center City","RIVERSIDE","No","Tetrachloroethylene","","","","","0.141258395943074","0.110956498214159","0.198192902160092","0.113173488720208","0.0869408173986325","0.263228567355141","0.297922666682753","","0.265387689682129","0.155749081169139","0.18064166828753","0.19556873070016","0.188383180347508","0.0959274280447716","0.109956866015115",""
"23-005-0029","Tetrachloroethylene","43.6602478027344","-70.2689666748047","Portland","","Commercial","","PDO - Portland Deering Oaks","meanRos_ug_m3","No","No Trend","Maine","Urban And Center City","PDO - Portland Deering Oaks","No","Tetrachloroethylene","","","","","","","0.143791630499713","0.101226694881757","0.0772354422369972","0.220955330328863","0.242689036943464","0.194242975329267","0.23860578178031","0.201495977419046","0.180159895888319","0.174913436549461","0.147807320527071","0.13498220649816","0.232129135946631","0.10047859203115"
"23-005-2003","Tetrachloroethylene","43.5610427856445","-70.2073211669922","Cape Elizabeth","","Residential","","CETL - Cape Elizabeth Two Lights (State Park)","meanRos_ug_m3","No","No Trend","Maine","Rural","CETL - Cape Elizabeth Two Lights (State Park)","No","Tetrachloroethylene","","","","","","","","","","","","0.156829894461153","0.156544342186301","0.190880398194551","0.118842888076363","0.144527395263147","","","",""
"23-005-5501","Tetrachloroethylene","43.6366653442383","-70.2519454956055","","","Commercial","","","meanRos_ug_m3","No","Undetermined","Maine","Urban And Center City","","No","Tetrachloroethylene","","","","","","","","","","","","","","","","","","0.11147172693601","0.0948074173753512",""
"23-005-5502","Tetrachloroethylene","43.6530570983887","-70.2347259521484","","","Commercial","","","meanRos_ug_m3","No","Undetermined","Maine","Urban And Center City","","No","Tetrachloroethylene","","","","","","","","","","","","","","","","","","0.106163951453973","0.114477642801294","0.16960298900202"
"23-005-5503","Tetrachloroethylene","43.6227760314941","-70.2683334350586","","","Residential","","","meanRos_ug_m3","No","Undetermined","Maine","Suburban","","No","Tetrachloroethylene","","","","","","","","","","","","","","","","","","0.110979032449294","0.107631167226471",""
"23-005-5504","Tetrachloroethylene","43.6261100769043","-70.303337097168","","","Residential","","","meanRos_ug_m3","No","Undetermined","Maine","Suburban","","No","Tetrachloroethylene","","","","","","","","","","","","","","","","","","0.114271092878738","",""
"23-005-5505","Tetrachloroethylene","43.6377792358398","-70.3180541992188","","","Residential","","","meanRos_ug_m3","No","Undetermined","Maine","Suburban","","No","Tetrachloroethylene","","","","","","","","","","","","","","","","","","0.110787974572442","0.10452116965077","0.0862931123915086"
"23-005-5506","Tetrachloroethylene","43.6389694213867","-70.2690505981445","","","","","","meanRos_ug_m3","No","Undetermined","Maine","","","No","Tetrachloroethylene","","","","","","","","","","","","","","","","","","","0.127239609067422","0.223664679217631"
"23-005-6606","Tetrachloroethylene","43.6605567932129","-70.2455520629883","","","Commercial","","","meanRos_ug_m3","No","Undetermined","Maine","Urban And Center City","","No","Tetrachloroethylene","","","","","","","","","","","","","","","","","","0.130262512629334","0.132570353835371","0.0729196765312295"
"23-005-6607","Tetrachloroethylene","43.6455574035645","-70.2622222900391","","","Commercial","","","meanRos_ug_m3","No","Undetermined","Maine","Urban And Center City","","No","Tetrachloroethylene","","","","","","","","","","","","","","","","","","0.120048315873843","0.172912808189034","0.124709360062704"
"23-017-2011","Tetrachloroethylene","44.5514183044434","-70.5463180541992","Rumford","","Industrial","","IN 8 X 8 ECTO SHELTER LOCATED IN PARKING LOT EAST OF RUMFORD AVENUE.","meanRos_ug_m3","No","No Trend","Maine","Rural","Rumford Avenue Parking Lot (RAP)","No","Tetrachloroethylene","","","0.114836125251125","","0.0701854207653391","0.123569184769439","0.13569554015009","0.0745653647303122","0.0483345652163686","0.167979392080994","0.196617635355761","0.166740234854784","0.160864208016067","0.150081157031422","0.136774428455246","0.16471745776163","0.110908566751379","","",""
"23-019-0002","Tetrachloroethylene","44.7988586425781","-68.7696762084961","Bangor","","Commercial","","BANGOR","meanRos_ug_m3","No","Increasing","Maine","Urban And Center City","KENDUSKEAG PUMP STATION (BUILDING ROOF)","No","Tetrachloroethylene","","","","","0.12655855644001","0.111058579476878","","0.14340052206037","0.0800804653145531","0.225094442566236","0.282059698156941","0.166061661610199","0.227460709824441","0.198933341915111","0.194063259822289","0.522677533211416","","","",""
"23-019-0017","Tetrachloroethylene","44.8173980712891","-68.7727584838867","Bangor","","Residential","","Mary Snow School","meanRos_ug_m3","No","Undetermined","Maine","Urban And Center City","Mary Snow School","No","Tetrachloroethylene","","","","","","","","","","","","","","","","0.162961150613482","0.118981011287543","","",""
"24-003-0019","Tetrachloroethylene","39.1011123657227","-76.7294464111328","Fort Meade","","Commercial","","PAMS: Fort Meade","meanRos_ug_m3","No","Undetermined","Maryland","Suburban","FT MEADE LAT/LONG POINT IS OF THE SAMPLING INLET","No","Tetrachloroethylene","0.339068563645337","0.260650140136766","","","","","","","","","","","","","","","","","",""
"24-005-3001","Tetrachloroethylene","39.3108329772949","-76.4744415283203","Essex","","Residential","","PAMS: Essex","meanRos_ug_m3","Yes","Decreasing","Maryland","Suburban","Essex","No","Tetrachloroethylene","0.353964889297883","0.282876886080249","0.372844513811049","0.341609328861038","0.348058584635292","0.350626779302249","0.819880780260094","0.292028710455885","0.114777832442901","0.25708405138437","0.340389159419704","0.229798334162802","0.275410556744936","0.284518271742825","0.230459542066669","0.155249133814005","0.264169323759443","0.347245836041772","0.113907987928676",""
"24-027-0006","Tetrachloroethylene","39.1431312561035","-76.8461074829102","North Laurel","","Residential","","Howard County Near Road","meanRos_ug_m3","No","No Trend","Maryland","Suburban","Howard County Near Road","No","Tetrachloroethylene","","","","","","","","","","","","0.191746838100962","0.220671082734707","0.244446728931033","0.162339847872762","0.0758417871762868","0.134150013120015","0.0845686886195262","",""
"24-033-0030","Tetrachloroethylene","39.0552787780762","-76.8783340454102","Beltsville","","Residential","","HU-Beltsville","meanRos_ug_m3","Yes","Decreasing","Maryland","Suburban","HU-Beltsville","No","Tetrachloroethylene","","","0.269219545962752","0.252421389221861","0.324746068910371","0.262786525240186","0.234373611398041","0.185981456571414","0.130714621250821","0.223770571949721","0.187264100311366","0.176244251952882","0.182061795521606","0.185463205161058","0.148351999603449","0.11073255159734","0.189661290440761","0.128200736293637","0.0635943430944629",""
"24-510-0006","Tetrachloroethylene","39.3405570983887","-76.5822219848633","Baltimore","","Residential","","Northeast Police","meanRos_ug_m3","No","No Trend","Maryland","Suburban","Northeast Police","No","Tetrachloroethylene","0.341672510157029","0.271499842111359","0.314227805312338","0.279558079763068","0.297769025403685","0.261999996712507","0.583301895491357","0.17655706465814","0.128732266971436","","","","","","","","","","",""
"24-510-0040","Tetrachloroethylene","39.2977333068848","-76.604606628418","Baltimore","","Residential","","Oldtown","meanRos_ug_m3","Yes","Decreasing","Maryland","Urban And Center City","Oldtown","No","Tetrachloroethylene","0.599061540873914","0.428346474667296","0.439548650823393","0.380553641589079","0.389803781780087","0.345009829123061","0.296376043204534","0.264644360895884","0.217038617902742","0.469280041540924","0.277490395029367","0.2714959262412","0.301414981777737","0.305672340166249","0.2762168666597","0.162849031078472","0.19312593792286","0.146422329405624","0.178753348865532",""
"25-009-2006","Tetrachloroethylene","42.4746437072754","-70.970817565918","Lynn","","Commercial","","LYNN WATER TREATMENT PLANT","meanRos_ug_m3","Yes","Decreasing","Massachusetts","Urban And Center City","LYNN WATER TREATMENT PLANT","No","Tetrachloroethylene","0.266971441537694","0.257936365366966","0.185194911484723","0.155618714863349","0.135504803930419","0.180188423761263","0.152356960520637","0.0944364603425636","0.0994183552130812","0.0916407072761407","0.087047824729234","0.0849643330089748","0.095049240657965","0.0821929561646014","0.0755781523917836","0.0652070544912653","0.0622040995171872","0.0622395533213361","0.0783831810811213","0.0532685408119647"
"25-021-2004","Tetrachloroethylene","42.2458648681641","-70.9627685546875","North Weymouth","","Industrial","","Weymouth","meanRos_ug_m3","No","Undetermined","Massachusetts","Suburban","Weymouth","No","Tetrachloroethylene","","","","","","","","","","","","","","","","","","0.0612904867887789","",""
"25-021-2005","Tetrachloroethylene","42.2412300109863","-70.9633483886719","","","","","","meanRos_ug_m3","No","Undetermined","Massachusetts","","","No","Tetrachloroethylene","","","","","","","","","","","","","","","","","","","0.0829450319719264","0.0582876142081139"
"25-025-0042","Tetrachloroethylene","42.3294982910156","-71.0826034545898","Boston","Roxbury, MA","Commercial","Urban ","UATMP: BOMA; NATTS: Roxbury, MA","meanRos_ug_m3","Yes","Decreasing","Massachusetts","Urban And Center City","DUDLEY SQUARE ROXBURY","Yes","Tetrachloroethylene","0.45917020064707","0.43259617511183","0.257294886925241","0.231396980795232","0.213382408938418","0.265686769527001","0.189559971577809","0.122570384950301","0.138199960223089","0.149936443387434","0.12822059047271","0.108508229634519","0.114444860683407","0.124098975577804","0.0780549303594011","0.0752833642531186","0.130104118399322","0.159219812248544","0.0927510998151016","0.124907674790736"
"25-025-1004","Tetrachloroethylene","42.3872222900391","-71.0261077880859","","","","","","meanRos_ug_m3","No","Undetermined","Massachusetts","","","No","Tetrachloroethylene","","","","","","","","","","","","","","","","","","","0.124910065724539","0.08635936465049"
"25-027-NHFM","Tetrachloroethylene","42.5379981994629","-72.1709976196289","Petersham","","","","NOAA: Harvard Forest, Massachusetts","meanRos_ug_m3","Yes","Decreasing","Massachusetts","Regional","","No","Tetrachloroethylene","","","0.0796621007223924","0.0786806254647672","0.0647692864930088","0.0519299337337183","0.0503809373934937","0.0572533741430973","0.047522569425356","0.0392954789690281","0.0517252409173285","0.0428795638215561","0.0441048694257107","0.0389002921962828","0.0413016786844265","0.0338710636715405","0.0403887955471873","0.0421469024648624","0.0351036909545508","0.0271803894031205"
"26-077-0901","Tetrachloroethylene","42.2164306640625","-85.5525054931641","Kalamazoo","","Industrial","","","meanRos_ug_m3","No","Undetermined","Michigan","Suburban","","No","Tetrachloroethylene","0.220715735090975","0.108160824748007","0.122494153072584","","","","","","","","","","","","","","","","",""
"26-111-0955","Tetrachloroethylene","43.589469909668","-84.2210998535156","Midland","","Industrial","","WOOD PLATFORM","meanRos_ug_m3","No","No Trend","Michigan","Rural","WOOD PLATFORM","No","Tetrachloroethylene","1.35598253597568","","","","","","","1.41801827018191","1.67748914992827","1.62286705811189","","1.19073582275507","0.239516377624361","","","","","","",""
"26-111-0960","Tetrachloroethylene","43.6000213623047","-84.2001419067383","Midland","","Commercial","","","meanRos_ug_m3","No","Undetermined","Michigan","Rural","","No","Tetrachloroethylene","","","","","","","","","","1.4767692987216","1.34163663035565","","0.610645383017282","","","","","","",""
"26-161-0008","Tetrachloroethylene","42.2405662536621","-83.5996017456055","Ypsilanti","","Commercial","","PILOT CITY: Ypsilanti","meanRos_ug_m3","No","Undetermined","Michigan","Urban And Center City","TOWNER ST, SOUTH; 2 LANE RESIDENIAL - HOSPITAL","No","Tetrachloroethylene","","","","0.345611841180142","","","","","","","","","","","","","","","",""
"26-163-0015","Tetrachloroethylene","42.3027877807617","-83.1065292358398","Detroit","","Commercial","","UATMP: SWMI; PILOT CITY: Southwest HS","meanRos_ug_m3","No","No Trend","Michigan","Urban And Center City","Southwestern H.S.","No","Tetrachloroethylene","","","","0.178177918007295","","","","","","","","","","","","4.92634445591992","3.45143061795884","","0.143197846787423","0.25292839456735"
"26-163-0027","Tetrachloroethylene","42.2922325134277","-83.106803894043","Detroit","","Industrial","","UATMP: YFMI; PILOT CITY: Yellow Freight","meanRos_ug_m3","No","Undetermined","Michigan","Urban And Center City","Yellow Freight","No","Tetrachloroethylene","","","0.470231305838032","","","","","","","","","","","","","","","","",""
"26-163-0033","Tetrachloroethylene","42.3066749572754","-83.1487503051758","Dearborn","Detroit, MI","Industrial","Urban ","UATMP: DEMI; NATTS: Detroit, MI; PILOT CITY: Dearborn","meanRos_ug_m3","Yes","No Trend","Michigan","Suburban","PROPERTY OWNED BY DEARBORN PUBLIC SCHOOLS","Yes","Tetrachloroethylene","13.727746946951","5.19275579087534","2.43535400746081","0.866054288418737","0.308266470477888","0.231679988049567","0.182765832973594","0.219946362595708","0.260033793095727","0.427092831339899","0.395846833384806","0.258996764812841","0.183996160960043","0.213315425722344","0.193777051692208","0.296822192945651","0.264776586265913","0.698617659380724","0.403898521862296","0.429680081187851"
"27-003-1002","Tetrachloroethylene","45.1376800537109","-93.2076187133789","Blaine","","Commercial","","Anoka Airport6010","meanRos_ug_m3","No","No Trend","Minnesota","Suburban","Anoka County Airport","No","Tetrachloroethylene","","","","","","","","","","0.0860301147877782","0.0567840662249106","0.0808170300042441","0.0586719577601326","0.124219560673201","0.0954350500211288","","","","",""
"27-007-2303","Tetrachloroethylene","47.8772201538086","-95.0122222900391","Red Lake","","Residential","","Red Lake","meanRos_ug_m3","No","Undetermined","Minnesota","Rural","Red Lake District","No","Tetrachloroethylene","","","","","","","","","0.673120284900465","","","","","","","","","","",""
"27-017-7416","Tetrachloroethylene","46.7052688598633","-92.5237731933594","Cloquet","","Forest","","Cloquet","meanRos_ug_m3","No","Undetermined","Minnesota","Rural","Fond du Lac Band 7416","No","Tetrachloroethylene","","","","","","","","0.0273377243591788","","","","","","","","","","","",""
"27-019-0052","Tetrachloroethylene","44.8506546020508","-93.5918121337891","Chaska","","Residential","","CHASKA","meanRos_ug_m3","No","No Trend","Minnesota","Rural","Chaska","No","Tetrachloroethylene","4.73556578966258","12.1845666227016","5.00215320087038","6.31364979520088","0.714521372161221","","","","","","","","","","","","","","",""
"27-021-0001","Tetrachloroethylene","47.1599426269531","-94.1509857177734","Not In A City","","Residential","","Leech Lake","meanRos_ug_m3","No","Undetermined","Minnesota","Rural","Leech Lake Nation: Chatfield","No","Tetrachloroethylene","","","","","","","","","0.0527267393150093","","","","","","","","","","",""
"27-037-0020","Tetrachloroethylene","44.7632293701172","-93.0325469970703","Not In A City","","Industrial","","FHR 420","meanRos_ug_m3","No","No Trend","Minnesota","Rural","Flint Hills Refinery 420","No","Tetrachloroethylene","0.0897801669581646","0.157998496107757","0.111110070941695","0.136920005643602","0.167750209504575","0.0578375631978489","0.066115646543442","0.0693125508420555","0.0650226270912094","0.0329881037449741","0.0293815501231382","0.0624222219387185","0.0714610422147307","0.0599474592032541","0.177925275984495","","","","",""
"27-037-0423","Tetrachloroethylene","44.7755317687988","-93.06298828125","Rosemount","","Industrial","","FHR 423","meanRos_ug_m3","No","No Trend","Minnesota","Rural","Flint Hills Refinery 423","No","Tetrachloroethylene","0.078717220354045","0.141732670051061","0.0911773122536639","0.14367036298784","0.163209112842792","0.0551042418185346","0.0581830590095182","0.0430959514290933","0.0615978782354788","0.0495341133209611","0.0238294285720304","0.0859515784295465","0.0416816809095487","0.142761311388258","0.115243568396142","","","","",""
"27-037-0441","Tetrachloroethylene","44.7467994689941","-93.0261077880859","Rosemount","","Industrial","","FHR 441","meanRos_ug_m3","No","No Trend","Minnesota","Rural","Flint Hills Refinery 441","No","Tetrachloroethylene","0.0668207645593677","0.132039963963781","0.0887718331832133","0.129791112030567","0.254658527856798","","","","","","","","","","","","","","",""
"27-037-0442","Tetrachloroethylene","44.7385711669922","-93.0049591064453","Rosemount","","Agricultural","","FHR 442","meanRos_ug_m3","No","Decreasing","Minnesota","Rural","Flint Hills Refinery 442","No","Tetrachloroethylene","0.0726883994126892","0.11309592766636","0.0846885986768214","0.103413419941355","0.212162417552338","0.0504576778681628","0.0562550777853546","0.0422944680708855","0.0579127573764132","0.0352107865243608","0.028546677380215","","","","","","","","",""
"27-037-0443","Tetrachloroethylene","44.745662689209","-93.0554122924805","Rosemount","","Industrial","","FHR 443","meanRos_ug_m3","No","Increasing","Minnesota","Rural","Flint Hills Refinery 443","No","Tetrachloroethylene","","","","","","0.0497091771279118","0.0562000768181557","0.0557555957092789","0.0650821674524763","0.055137088255017","0.0314793683876","0.0776947575429381","0.0568238160486482","0.13496404117778","0.109232285821151","","","","",""
"27-037-0470","Tetrachloroethylene","44.7384605407715","-93.2372512817383","Apple Valley","","Residential","","Apple Valley","meanRos_ug_m3","No","Decreasing","Minnesota","Suburban","Apple Valley","No","Tetrachloroethylene","0.117640634410684","0.216479073012514","0.112722861456881","0.146769283727183","0.193838562535227","0.0794711488299072","0.078284562773693","0.0913614824831743","0.0912230060389928","0.0580115272167431","0.0388642189561245","0.110136840913324","0.0565582310963481","0.0494555553196264","0.0632204586651131","","","","",""
"27-053-0050","Tetrachloroethylene","45.0012283325195","-93.2671203613281","Minneapolis","","Commercial","","NE Fire Station","meanRos_ug_m3","No","Undetermined","Minnesota","Urban And Center City","Minneapolis Fire Station 2","No","Tetrachloroethylene","0.18394915943763","0.257174306692412","0.215709082595108","0.185375096053312","","","","","","","","","","","","","","","",""
"27-053-0909","Tetrachloroethylene","45.0121002197266","-93.2766952514648","Minneapolis","","Industrial","","Lowry Ave","meanRos_ug_m3","No","Undetermined","Minnesota","Urban And Center City","Lowry Avenue","No","Tetrachloroethylene","","","","","","","","","","","","","0.0872248406145741","0.142757969703748","0.0676494640529271","","","","",""
"27-053-0961","Tetrachloroethylene","44.8755111694336","-93.258918762207","Richfield","","Residential","","RICHFIELD INTERMEDIATE SCHOOL","meanRos_ug_m3","No","Decreasing","Minnesota","Suburban","Richfield Intermediate School","No","Tetrachloroethylene","","","","0.263927949322878","0.168600581281564","0.101947330645409","0.116142042679712","0.126001579551992","0.0731362983739624","0.0673687114846346","0.0382696365414286","0.0802997952751379","0.100915227684643","0.104145069548739","0.053928892630283","","","","",""
"27-053-0962","Tetrachloroethylene","44.9652404785156","-93.2547607421875","Minneapolis","","Residential","","Minneapolis Near Roadway NOx","meanRos_ug_m3","No","Undetermined","Minnesota","Urban And Center City","Near Road I-35/I-94","No","Tetrachloroethylene","","","","","","","","","","","","0.168903109261218","0.0883270651250449","0.0717958302795375","0.061262517780208","","","","",""
"27-053-0963","Tetrachloroethylene","44.9536590576172","-93.2582092285156","Minneapolis","","Residential","","HC Anderson School","meanRos_ug_m3","No","Decreasing","Minnesota","Urban And Center City","Andersen School","No","Tetrachloroethylene","0.383024976889049","0.659376395334091","0.488917585889824","0.459337410156242","0.284176609254993","0.141916973920504","0.271110804181482","0.156023622703565","0.176382505388644","0.112809362022694","0.0744536460436539","0.14744416323799","0.116505921612767","0.104000022414074","0.112232183213614","","","","",""
"27-053-0964","Tetrachloroethylene","44.8885498046875","-93.1953735351563","Not In A City","","Commercial","","MSP AIRPORT","meanRos_ug_m3","No","Undetermined","Minnesota","Suburban","MSP Airport","No","Tetrachloroethylene","0.104514976829928","","","","","","","","","","","","","","","","","","",""
"27-053-0965","Tetrachloroethylene","45.0044784545898","-93.2400436401367","Minneapolis","","Residential","","Putnam School","meanRos_ug_m3","No","Undetermined","Minnesota","Urban And Center City","Putnam Elementary School","No","Tetrachloroethylene","0.232258222335853","1.34283177757211","0.182053314037856","0.16588597337575","","","","","","","","","","","","","","","",""
"27-053-0966","Tetrachloroethylene","44.9794387817383","-93.2661285400391","Minneapolis","","Commercial","","UATMP: MIMN; City of Lakes Bldg","meanRos_ug_m3","No","Decreasing","Minnesota","Urban And Center City","City of Lakes Building","No","Tetrachloroethylene","0.187481308462473","0.31704010596534","0.177140584828812","0.191007915366864","0.308243752770319","0.0948738482607118","0.121691049987516","0.114473939152821","0.184808097560099","0.101926064073968","0.074606719803205","0.13288865847104","0.0909550752092436","0.105716768705534","0.0804502653600436","","","","",""
"27-053-0968","Tetrachloroethylene","44.8930053710938","-93.2332305908203","Minneapolis","","Commercial","","MSP Airport 968","meanRos_ug_m3","No","Undetermined","Minnesota","Urban And Center City","Metropolitan Airports Commission","No","Tetrachloroethylene","","","0.14490588013935","0.243615277714098","","","","","","","","","","","","","","","",""
"27-053-0969","Tetrachloroethylene","44.9005699157715","-93.23828125","Minneapolis","","Residential","","WENONAH SCHOOL","meanRos_ug_m3","No","No Trend","Minnesota","Suburban","Wenonah Elementary School","No","Tetrachloroethylene","","","0.165556666884749","0.168553153101404","0.289471155478188","0.102674734468261","0.0932541721451439","","","","","","","","","","","","",""
"27-053-1007","Tetrachloroethylene","45.0397186279297","-93.2987365722656","Minneapolis","","Residential","","Humboldt Ave","meanRos_ug_m3","No","Decreasing","Minnesota","Suburban","Humboldt Avenue","No","Tetrachloroethylene","0.128886281352984","0.267513056189591","0.169030009475415","0.225979670674427","0.263633204985275","0.0854441681199453","0.13051371963229","0.129644630742925","0.0874835773547356","0.0577894000650896","0.0550723444344551","0.106455348447685","0.0797247603740462","0.0789756210497542","0.0831544071778164","","","","",""
"27-053-1909","Tetrachloroethylene","45.0136108398438","-93.2720489501953","Minneapolis","","Commercial","","Bottineau / Marshall Terrace","meanRos_ug_m3","No","Undetermined","Minnesota","Urban And Center City","Bottineau / Marshall Terrace","No","Tetrachloroethylene","","","","","","","","","","","","","","","0.0744658304857238","","","","",""
"27-053-2006","Tetrachloroethylene","44.9480514526367","-93.343147277832","St. Louis Park","","Residential","","St. Louis Park","meanRos_ug_m3","No","Decreasing","Minnesota","Suburban","St. Louis Park City Hall","No","Tetrachloroethylene","","","","","","0.113849467931772","0.116401892477032","0.22259002391042","0.13693135418972","0.0663458459887605","0.0516086669994064","0.0730509822930652","0.0610751734541401","0.0627022735831526","0.0574163726293504","","","","",""
"27-075-0005","Tetrachloroethylene","47.9486236572266","-91.4955749511719","Not In A City","","Unknown","","Fernberg Road","meanRos_ug_m3","No","Undetermined","Minnesota","Unknown","Boundary Waters","No","Tetrachloroethylene","","","","","","","","0.0152792756233504","","","","","","","","","","","",""
"27-095-3051","Tetrachloroethylene","46.2052993774414","-93.7594528198242","Onamia","","Forest","","Mille Lacs","meanRos_ug_m3","No","Undetermined","Minnesota","Rural","Mille Lacs Band","No","Tetrachloroethylene","","","","","","","","","","0.0368994741782849","","","","","","","","","",""
