"site_id","parameter_desc","latitude","longitude","city_name","location","land_use_type","setting","site_name","stat","used_in_nat_agg","trend","state_name","city_name","location_setting","local_site_name","natts","toxic_name_alias","2003","2004","2005","2006","2007","2008","2009","2010","2011","2012","2013","2014","2015","2016","2017","2018"
"01-097-3101","Acetaldehyde","30.7703","-88.0875","MOBILE","","RESIDENTIAL","","","meanRos_ug_m3","No","Undetermined","Alabama","Mobile","Suburban","","No","Acetaldehyde","0.762068931209414","","","","","","","","","","","","","","",""
"01-097-3102","Acetaldehyde","30.7089","-88.0519","MOBILE","","RESIDENTIAL","","","meanRos_ug_m3","No","Undetermined","Alabama","Mobile","Suburban","","No","Acetaldehyde","0.880485883189572","","","","","","","","","","","","","","",""
"01-097-3103","Acetaldehyde","30.9383","-88.025","MOBILE","","RESIDENTIAL","","","meanRos_ug_m3","No","Undetermined","Alabama","Mobile","Rural","","No","Acetaldehyde","0.472367170991169","","","","","","","","","","","","","","",""
"01-097-3104","Acetaldehyde","30.6156","-88.3444","MOBILE","","RESIDENTIAL","","","meanRos_ug_m3","No","Undetermined","Alabama","Mobile","Rural","","No","Acetaldehyde","0.624483921875556","","","","","","","","","","","","","","",""
"01-097-3105","Acetaldehyde","30.5764","-88.1403","MOBILE","","COMMERCIAL","","","meanRos_ug_m3","No","Undetermined","Alabama","Mobile","Suburban","","No","Acetaldehyde","0.655933647520012","","","","","","","","","","","","","","",""
"04-013-4003","Acetaldehyde","33.40316","-112.07533","Phoenix","","RESIDENTIAL","","UATMP: SPAZ","meanRos_ug_m3","No","Undetermined","Arizona","Phoenix","Urban And Center City","SOUTH PHOENIX","No","Acetaldehyde","2.94173802467103","2.67235888655369","2.99903662999471","","","","","","","","","","","","",""
"05-091-0096","Acetaldehyde","33.18763","-94.024072","TEXARKANA","","RESIDENTIAL","","UATMP: GREY","meanRos_ug_m3","No","Undetermined","Arkansas","Not in a city","Rural","GREY SITE","No","Acetaldehyde","","","","","","","","","","","","","","","",""
"05-119-0007","Acetaldehyde","34.756189","-92.281296","NORTH LITTLE ROCK","","COMMERCIAL","","UATMP: PARR","meanRos_ug_m3","No","Undetermined","Arkansas","North Little Rock","Urban And Center City","PARR","No","Acetaldehyde","","","","","","","","","","","","","","","",""
"06-001-1001","Acetaldehyde","37.535833","-121.961823","Fremont","","RESIDENTIAL","","Fremont - Chapel Way","meanRos_ug_m3","No","No Trend","California","Fremont","Suburban","Fremont - Chapel Way","No","Acetaldehyde","1.27497717353605","1.30952679802631","1.31110348384227","1.1266570503513","1.0311103154873","0.984487349467893","1.11451672430038","","","","","","","","",""
"06-001-2004","Acetaldehyde","37.877794","-122.30129","Berkeley","","COMMERCIAL","","Berkeley 6th and Camelia","meanRos_ug_m3","No","Undetermined","California","Berkeley","Urban And Center City","Berkeley","No","Acetaldehyde","","","","","","1.0956016974371","1.00797089152649","1.05804686440576","","","","","","","",""
"06-007-0002","Acetaldehyde","39.757371","-121.843286","Chico","","COMMERCIAL","","468 MANZANITA AVE, CHICO","meanRos_ug_m3","No","No Trend","California","Not in a city","Suburban","Chico-Manzanita Ave.","No","Acetaldehyde","2.053285341109","2.45482548475265","2.58817927202871","1.81708138883114","2.11392118533452","2.18659964396108","1.84602523090378","1.7572488506635","1.95786504495528","","","","","","",""
"06-007-0008","Acetaldehyde","39.761538","-121.84162","Chico","","COMMERCIAL","","Chico - East Avenue","meanRos_ug_m3","No","No Trend","California","Chico","Suburban","Chico-East Avenue","No","Acetaldehyde","","","","","","","","","","","2.12523477981167","1.64343889653683","1.95861775080363","1.96916525624692","1.51076791463236","2.19946218882838"
"06-013-0002","Acetaldehyde","37.936013","-122.026154","CONCORD","","RESIDENTIAL","","Concord","meanRos_ug_m3","No","Undetermined","California","Concord","Suburban","Concord","No","Acetaldehyde","","","","","","","","","","","","","","","",""
"06-013-0003","Acetaldehyde","37.949924","-122.357193","RICHMOND","","COMMERCIAL","","Richmond-13th St.","meanRos_ug_m3","No","Undetermined","California","Richmond","Suburban","Richmond-13th St.","No","Acetaldehyde","","","","","","","","","","","","","","","",""
"06-013-1003","Acetaldehyde","37.9642","-122.3403","SAN PABLO","","COMMERCIAL","","San Pablo - El Portal Center","meanRos_ug_m3","No","Undetermined","California","San Pablo","Urban And Center City","San Pablo - El Portal Center","No","Acetaldehyde","","","","","","","","","","","","","","","",""
"06-019-0008","Acetaldehyde","36.781333","-119.77319","Fresno","","RESIDENTIAL","","PM Supersite: Fresno","meanRos_ug_m3","No","No Trend","California","Fresno","Suburban","3425 N FIRST ST, FRESNO","No","Acetaldehyde","3.08164458383213","2.27954465343106","2.99284929037094","2.89121671069053","2.50889775256316","2.61501922210058","2.26399041858126","2.78313938091541","2.74282045518198","","","","","","",""
"06-019-0011","Acetaldehyde","36.785322","-119.774174","Fresno","","COMMERCIAL","","Fresno - Garland","meanRos_ug_m3","No","No Trend","California","Fresno","Urban And Center City","Fresno - Garland","No","Acetaldehyde","","","","","","","","","","2.77981833120187","3.23763467459118","2.56742858489354","2.76771186343555","2.64639900128047","2.57988198050137","2.40710530802608"
"06-019-3002","Acetaldehyde","36.607171","-119.540683","PARLIER","","AGRICULTURAL","","PARLIER","meanRos_ug_m3","No","Undetermined","California","Parlier","Urban And Center City","PARLIER","No","Acetaldehyde","","","","3.07296952055051","","","","","","","","","","","",""
"06-025-0005","Acetaldehyde","32.676186","-115.484144","Calexico","","RESIDENTIAL","","CALEXICO HIGH SCHOOL  ARB (#1300698)","meanRos_ug_m3","Yes","Decreasing","California","Calexico","Suburban","Calexico-Ethel Street","No","Acetaldehyde","2.69615534461778","2.14857301218756","2.86550154661139","2.50254326164722","2.69848625401453","1.79508285214659","2.02808376780539","2.03887778276945","1.6816185893757","2.13646863400936","1.93783499829231","1.67616102483317","2.00318455119287","2.31951079902978","1.66927556974267","1.80496144849842"
"06-029-0004","Acetaldehyde","35.374959","-119.022602","BAKERSFIELD","","RESIDENTIAL","","Bakersfield-Chester Ave.","meanRos_ug_m3","No","Undetermined","California","Bakersfield","Urban And Center City","Bakersfield-Chester Ave.","No","Acetaldehyde","","","","","","","","","","","","","","","",""
"06-029-0009","Acetaldehyde","35.36107","-119.060103","BAKERSFIELD","","COMMERCIAL","","BAKERSFIELD","meanRos_ug_m3","No","Undetermined","California","Bakersfield","Urban And Center City","BAKERSFIELD","No","Acetaldehyde","","","","","","","","","","","","","","","",""
"06-029-0014","Acetaldehyde","35.356601","-119.063542","Bakersfield","","MOBILE","","Bakersfield-California Avenue","meanRos_ug_m3","Yes","No Trend","California","Bakersfield","Urban And Center City","Bakersfield-California","No","Acetaldehyde","2.69089426170103","2.24061433911324","2.99677283053889","2.60087849418907","2.24828640168363","2.17955402930578","2.3952742805404","2.46008465516156","2.32909143064171","2.6005221113111","2.18980453163385","","2.88239870034158","3.43795875377125","2.55091287421458","2.55040969392833"
"06-037-0002","Acetaldehyde","34.1365","-117.92391","Azusa","","RESIDENTIAL","","Azusa","meanRos_ug_m3","Yes","No Trend","California","Azusa","Suburban","Azusa","No","Acetaldehyde","2.51718904495239","2.82268502410585","3.22683510617387","","2.01182810564836","1.87981797953447","2.04283862524553","1.5915030535357","2.20196984495435","2.46186454693476","2.14258640812289","2.29928089678288","2.37236973841985","2.67513342634324","2.00757089654605","2.02949175834656"
"06-037-1002","Acetaldehyde","34.17605","-118.31712","BURBANK","","COMMERCIAL","","MATES: Burbank","meanRos_ug_m3","No","Decreasing","California","Burbank","Urban And Center City","Burbank","No","Acetaldehyde","8.08038991993787","5.30843687894052","4.35015513869849","7.78412066896756","10.1582267734042","8.11262813341968","6.14715346880257","4.0282130882144","4.27774753561243","4.14420136077768","2.5734691574718","","","","",""
"06-037-1601","Acetaldehyde","34.01407","-118.06056","Pico Rivera","","COMMERCIAL","","MATES: Pico Rivera","meanRos_ug_m3","No","Undetermined","California","Pico Rivera","Suburban","MATES: Pico Rivera","No","Acetaldehyde","4.49659688415981","5.01247147357825","","","","","","","","","","","","","",""
"06-037-1602","Acetaldehyde","34.01194","-118.06995","PICO RIVERA","","COMMERCIAL","","Pico Rivera #2","meanRos_ug_m3","No","No Trend","California","Pico Rivera","Suburban","Pico Rivera #2","No","Acetaldehyde","","","","5.5880397144629","4.7858066326657","5.05227757330801","7.04312555543308","6.45602858268609","3.76138355493546","3.3797754945918","","2.55953131282054","","","","2.8738967426892"
"06-037-4002","Acetaldehyde","33.82376","-118.18921","Long Beach","","RESIDENTIAL","","UATMP: LBHCA; MATES: North Long Beach","meanRos_ug_m3","No","Decreasing","California","Long Beach","Suburban","Long Beach (North)","No","Acetaldehyde","1.97665324211121","2.26672339850459","2.44253568573597","1.74173937583792","1.47963105638822","1.61318618059158","1.48260906764439","","","1.4176909012927","1.3675563125997","","","","",""
"06-037-6012","Acetaldehyde","34.38344","-118.5284","Santa Clarita","","COMMERCIAL","","Santa Clarita","meanRos_ug_m3","Yes","Decreasing","California","Santa Clarita","Suburban","Santa Clarita","No","Acetaldehyde","5.20389204352448","4.8521180834089","5.5698932581223","4.62076125580531","7.41149773235832","5.1318029654026","3.64443916904515","3.21162846330869","3.45717594316712","3.63908019532328","","3.06430091063182","","3.22640330857643","2.90376354246855","2.89302786885833"
"06-061-0006","Acetaldehyde","38.745726","-121.266312","Roseville","","MOBILE","","Roseville-N Sunrise Blvd","meanRos_ug_m3","Yes","No Trend","California","Roseville","Suburban","Roseville-N Sunrise Ave","No","Acetaldehyde","1.6815727603051","1.65208043312204","1.62134570280711","1.54305987419753","1.50171627463966","1.3741825778376","1.38569372991721","1.45229319731394","1.09060029626241","1.30283045058618","1.57423531432306","1.21241440574328","1.67692103879205","1.62341352047459","1.55674888094266","1.55838057994843"
"06-065-0012","Acetaldehyde","33.92086","-116.85841","Banning","","COMMERCIAL","","Banning Airport","meanRos_ug_m3","No","No Trend","California","Banning","Suburban","Banning Airport","No","Acetaldehyde","3.81376749010228","3.36761002270681","4.4875677460331","3.78829923096825","3.41755635657553","2.72624699749164","","","","","","","","","",""
"06-071-1004","Acetaldehyde","34.10374","-117.62914","Upland","","RESIDENTIAL","","Upland","meanRos_ug_m3","No","Undetermined","California","Upland","Urban And Center City","Upland","No","Acetaldehyde","","","","","","","","","","","","","","","",""
"06-071-2002","Acetaldehyde","34.10002","-117.49201","Fontana","","INDUSTRIAL","","MATES: Inland Valley San Bernardino","meanRos_ug_m3","No","Undetermined","California","Fontana","Suburban","Fontana","No","Acetaldehyde","","","","","","","","","","","","","","","",""
"06-073-0001","Acetaldehyde","32.631231","-117.059075","Chula Vista","","RESIDENTIAL","","Chula Vista","meanRos_ug_m3","Yes","No Trend","California","Chula Vista","Suburban","Chula Vista","No","Acetaldehyde","1.30840815844074","1.38614951571021","1.56288583874702","1.31707057020357","1.2806283056736","1.30701308051745","1.42647833112747","1.35019153594971","1.4814361333847","1.39313042561213","0.988874632120132","1.06590223552719","1.2984966635704","1.65334670300837","1.18190603454908","1.06554894389645"
"06-073-0003","Acetaldehyde","32.791194","-116.942092","El Cajon","","COMMERCIAL","","El Cajon","meanRos_ug_m3","No","No Trend","California","El Cajon","Suburban","El Cajon","No","Acetaldehyde","2.83277956105895","2.29918582886489","2.32196185340484","2.70224148035049","2.44238546440999","2.40323553606868","2.74275729781197","2.62830014142298","2.68011138737202","3.46505329257152","2.90616910656293","","","","",""
"06-073-0006","Acetaldehyde","32.836461","-117.128752","San Diego","","COMMERCIAL","","Kearny Mesa","meanRos_ug_m3","No","Increasing","California","San Diego","Suburban","Kearny Mesa","No","Acetaldehyde","2.29941167682409","2.0531652978173","2.11860830357614","2.10278518343794","2.47038289552906","2.8313644528389","2.61823053340443","2.84753470538092","2.68577759585729","","","","","","",""
"06-073-1009","Acetaldehyde","32.698663","-117.133087","San Diego","","RESIDENTIAL","","BARRIO LOGAN ROVER - SPECIAL STUDY","meanRos_ug_m3","No","Undetermined","California","San Diego","Urban And Center City","San Diego-Barrio Logan","No","Acetaldehyde","","","","","","","","","","","","","","","",""
"06-073-1010","Acetaldehyde","32.701492","-117.149653","SAN DIEGO","","COMMERCIAL","","Downtown","meanRos_ug_m3","No","Undetermined","California","San Diego","Urban And Center City","San Diego - Beardsley Street","No","Acetaldehyde","","","","","","","","","","","1.45501098655305","","1.65827204160771","","",""
"06-073-1018","Acetaldehyde","32.817978","-116.968133","El Cajon","","COMMERCIAL","","El Cajon - Floyd Smith Drive","meanRos_ug_m3","No","Undetermined","California","El Cajon","Suburban","El Cajon - Floyd Smith Dr.","No","Acetaldehyde","","","","","","","","","","","","","2.49188867571025","","",""
"06-073-1022","Acetaldehyde","32.789561","-116.944222","El Cajon","","COMMERCIAL","","El Cajon - Lexington Elementary School","meanRos_ug_m3","No","Undetermined","California","El Cajon","Suburban","El Cajon - Lexington Elementary School","No","Acetaldehyde","","","","","","","","","","","","","","","","1.39224816330018"
"06-075-0005","Acetaldehyde","37.765946","-122.399044","San Francisco","","INDUSTRIAL","","San Francisco - Arkansas St.","meanRos_ug_m3","Yes","No Trend","California","San Francisco","Urban And Center City","San Francisco","No","Acetaldehyde","1.21342438848351","1.26103572159924","1.20769288831113","1.01872947649215","0.900190521930826","0.73268616994222","1.09413122313638","1.25854198692957","1.26733883420626","0.947414069598191","1.08847642858182","0.933913850784302","1.23181809186935","1.8873384753863","1.19520133634408","1.06896468014689"
"06-077-1002","Acetaldehyde","37.950741","-121.268523","Stockton","","RESIDENTIAL","","HAZELTON-HD, STOCKTON","meanRos_ug_m3","Yes","No Trend","California","Stockton","Urban And Center City","Stockton-Hazelton","No","Acetaldehyde","1.56317970035849","1.59254553960636","1.80909106797642","1.7092780322261","1.75636738957837","1.23245243547541","1.61791934082","1.43183553732675","1.76606313511729","1.56066956222057","2.12102735042572","1.61022261361922","1.78850598777494","2.1286967843771","1.97119364526964","1.70703849941492"
"06-083-0010","Acetaldehyde","34.421386","-119.702079","SANTA BARBARA","","MOBILE","","Santa Barbara-W. Carrillo St.","meanRos_ug_m3","No","Undetermined","California","Santa Barbara","Urban And Center City","Santa Barbara-W. Carrillo St.","No","Acetaldehyde","","","","","","","","","","","","","","","",""
"06-085-0004","Acetaldehyde","37.339666","-121.888575","San Jose","","RESIDENTIAL","","San Jose - 4th St.","meanRos_ug_m3","No","Undetermined","California","San Jose","Urban And Center City","San Jose - 4th St.","No","Acetaldehyde","","","","","","","","","","","","","","","",""
"06-085-2009","Acetaldehyde","37.318435","-122.069705","CUPERTINO","","RESIDENTIAL","","Cupertino Monta Vista","meanRos_ug_m3","No","Undetermined","California","Cupertino","Suburban","Cupertino Monta Vista","No","Acetaldehyde","","","","","","","","","1.24743209070847","0.999746642510096","1.19095869997486","","","","",""
"06-095-0006","Acetaldehyde","38.0656","-122.1507","Benicia","","RESIDENTIAL","","Benicia - VIP","meanRos_ug_m3","No","Undetermined","California","Benicia","Suburban","Benicia - VIP","No","Acetaldehyde","","","","","","0.862390587564375","","","","","","","","","",""
"06-099-0002","Acetaldehyde","37.648819","-120.997712","MODESTO","","RESIDENTIAL","","Modesto-Courthouse","meanRos_ug_m3","No","Undetermined","California","Modesto","Urban And Center City","Modesto-Courthouse","No","Acetaldehyde","","","","","","","","","","","","","","","",""
"06-099-0005","Acetaldehyde","37.641583","-120.994622","MODESTO","","COMMERCIAL","","Modesto-14th Street","meanRos_ug_m3","No","Undetermined","California","Modesto","Urban And Center City","Modesto-14th Street","No","Acetaldehyde","","","","","","","","","","","","","","","",""
"06-111-2002","Acetaldehyde","34.276362","-118.683757","Simi Valley","","RESIDENTIAL","","SIMI VALLEY","meanRos_ug_m3","Yes","No Trend","California","Simi Valley","Suburban","Simi Valley-Cochran Street","No","Acetaldehyde","2.05653150668804","1.73182377857821","1.96713009990495","1.4785025258859","1.44581092072416","1.38889551209736","1.40484621679078","1.6311810266587","1.42069492529704","1.63949939219199","1.54501845639027","1.39521773617414","1.56727804342906","1.87248886761994","1.29263455768426","1.29074365188999"
"08-013-7001","Acetaldehyde","40.013783","-105.25405","Boulder","","COMMERCIAL","","Boulder Fire Station","meanRos_ug_m3","No","Undetermined","Colorado","Boulder","Rural","Boulder Fire Station","No","Acetaldehyde","","","","","1.54869244778793","","","","","","","","","","",""
"08-013-7002","Acetaldehyde","40.1489","-105.059233","NOT IN A CITY","","RESIDENTIAL","","Longmont","meanRos_ug_m3","No","Undetermined","Colorado","Not in a city","Suburban","Longmont","No","Acetaldehyde","","","","","1.45870078207878","","","","","","","","","","",""
"08-013-7003","Acetaldehyde","40.204183","-105.248233","NOT IN A CITY","","RESIDENTIAL","","Lyons","meanRos_ug_m3","No","Undetermined","Colorado","Not in a city","Suburban","Lyons","No","Acetaldehyde","","","","","1.22355192834916","","","","","","","","","","",""
"08-013-7004","Acetaldehyde","40.03625","-105.543383","NOT IN A CITY","","FOREST","","Niwot Ridge; NADP: CO90","meanRos_ug_m3","No","Undetermined","Colorado","Not in a city","Rural","Niwot Ridge","No","Acetaldehyde","","","","","0.656850587961206","","","","","","","","","","",""
"08-013-7005","Acetaldehyde","39.9572","-105.23847","NOT IN A CITY","","AGRICULTURAL","","ALONG SOUTH BOULDER CREEK NEXT TO LAFAYETTE WATER TREATMENT PLANT","meanRos_ug_m3","No","Undetermined","Colorado","Not in a city","Rural","ALONG SOUTH BOULDER CREEK NEXT TO LAFAYETTE WATER TREATMENT PLANT","No","Acetaldehyde","","","","","1.05962361785237","","","","","","","","","","",""
"08-031-0002","Acetaldehyde","39.751184","-104.987625","Denver","","COMMERCIAL","","UATMP: DECO","meanRos_ug_m3","No","Undetermined","Colorado","Denver","Urban And Center City","DENVER - CAMP","No","Acetaldehyde","","","","","","","","","","","","","","","",""
"08-045-0005","Acetaldehyde","39.453654","-108.053259","PARACHUTE","","RESIDENTIAL","","UATMP: PACO; PARACHUTE - HIGH SCHOOL","meanRos_ug_m3","No","Decreasing","Colorado","Parachute","Urban And Center City","PARACHUTE - HIGH SCHOOL","No","Acetaldehyde","","","","","","0.959703811283769","0.854498439033826","0.777832306921482","","0.586676926248603","0.658642813265324","0.484472966492176","","0.508692241819768","0.523471163264636","0.852588014677167"
"08-045-0007","Acetaldehyde","39.531813","-107.782298","RIFLE","","COMMERCIAL","","UATMP: RICO; RIFLE - HENRY BLDG","meanRos_ug_m3","No","Decreasing","Colorado","Rifle","Urban And Center City","RIFLE - HENRY BLDG","No","Acetaldehyde","","","","","","1.33605742839075","1.20454102035226","1.24266307304303","","0.89064757180001","0.797790751755238","0.442891473640446","","0.747144894798597","",""
"08-045-0009","Acetaldehyde","39.487755","-107.659685","SILT","","AGRICULTURAL","","UATMP: BRCO","meanRos_ug_m3","No","No Trend","Colorado","Silt","Rural","UATMP: BRCO","No","Acetaldehyde","","","","","","0.717981253900836","0.675869286060333","","","0.517961793180023","0.478273751643988","","0.434730214465942","0.19353376629834","0.528444547591538","0.845720605065043"
"08-045-0018","Acetaldehyde","39.412278","-107.230397","NOT IN A CITY","","RESIDENTIAL","","UATMP: RFCO; CMC Boat House","meanRos_ug_m3","No","Undetermined","Colorado","Carbondale","Rural","Carbondale Rocky Mountain School (Boathouse)","No","Acetaldehyde","","","","","","","","","","","0.466189626190397","0.499245909257577","","","",""
"08-045-0019","Acetaldehyde","39.43806","-108.02611","Battlement Mesa","","COMMERCIAL","","Battlement Mesa","meanRos_ug_m3","No","No Trend","Colorado","Battlement Mesa","Suburban","Battlement Mesa","No","Acetaldehyde","","","","","","","","","","0.475067614577711","0.39418584715437","0.358615716712342","","0.405444849903385","0.37189518113931","0.778342503640387"
"08-045-0020","Acetaldehyde","39.5464","-107.3286","Glenwood Springs","","COMMERCIAL","","Vogelaar Park, Glenwood Springs","meanRos_ug_m3","No","Undetermined","Colorado","Glenwood Springs","Suburban","Vogelaar Park, Glenwood Springs","No","Acetaldehyde","","","","","","","","","","","","","0.445846238388465","","",""
"08-045-0023","Acetaldehyde","39.530682","-107.782249","Rifle","","COMMERCIAL","","Garfield County Library","meanRos_ug_m3","No","Undetermined","Colorado","Rifle","Urban And Center City","Garfield County Library","No","Acetaldehyde","","","","","","","","","","","","","","","0.847070581146649","1.02895716439795"
"08-077-0003","Acetaldehyde","39.0916","-108.563775","Grand Junction","","RESIDENTIAL","","UATMP: GJCO; PILOT CITY: Mesa Co. Health Dept","meanRos_ug_m3","No","Undetermined","Colorado","Grand Junction","Suburban","MESA CO HLTH DEPT BLDG","No","Acetaldehyde","","","","","","","","","","","","","","","",""
"08-077-0016","Acetaldehyde","39.058871","-108.555093","Grand Junction","","INDUSTRIAL","","UATMP: G2CO; PILOT CITY: Mesa Co. Traffic Services","meanRos_ug_m3","No","Undetermined","Colorado","Grand Junction","Urban And Center City","MESA COUNTY TRAFFIC SERVICES BUILDING","No","Acetaldehyde","","","","","","","","","","","","","","","",""
"10-001-0002","Acetaldehyde","38.986672","-75.5568","NOT IN A CITY","","AGRICULTURAL","","PROPERTY OF KILLENS POND STATE PARK; BEHIND FARM BUILDINGS","meanRos_ug_m3","No","Undetermined","Delaware","Not in a city","Rural","PROPERTY OF KILLENS POND STATE PARK; BEHIND FARM BUILDINGS","No","Acetaldehyde","1.36606623075061","1.0387713063002","","","","","","","","","","","","","",""
"10-003-1007","Acetaldehyde","39.5513","-75.732","NOT IN A CITY","","AGRICULTURAL","","PAMS: Lums Pond; NADP: DE99","meanRos_ug_m3","No","Undetermined","Delaware","Not in a city","Rural","Lums Pond","No","Acetaldehyde","1.43168273695079","1.08963934009358","1.18064043358663","","","","","","","","","","","","",""
"10-003-1008","Acetaldehyde","39.57768","-75.6036","DELAWARE CITY","","AGRICULTURAL","","Route 9 Delaware City","meanRos_ug_m3","No","Undetermined","Delaware","Delaware City","Rural","Route 9 Delaware City","No","Acetaldehyde","1.40945460893135","1.23879458737174","1.23431616510445","","","","","","","","","","","","",""
"10-003-2004","Acetaldehyde","39.739444","-75.558056","Wilmington","","COMMERCIAL","","CORNER OF MLK BLVD AND JUSTISON ST, NO TRAFFIC DATA AVAILABLE","meanRos_ug_m3","No","No Trend","Delaware","Wilmington","Urban And Center City","MLK  CORNER OF MLK BLVD AND JUSTISON ST","No","Acetaldehyde","1.8660980099749","1.73397999806482","1.7307313306857","1.74229665720484","2.09831855930609","1.89608811882307","1.25265373769453","1.81478120717737","","","","2.39666345715523","","","",""
"10-005-1002","Acetaldehyde","38.6539","-75.6106","Seaford","","RESIDENTIAL","","Seaford Shipley State Service Center","meanRos_ug_m3","No","Undetermined","Delaware","Seaford","Suburban","Seaford Shipley State Service Center","No","Acetaldehyde","","1.17333376198052","1.21384830240692","","","","","","","","","","","","",""
"12-011-1002","Acetaldehyde","26.083143","-80.237586","Davie","","COMMERCIAL","","UATMP: FLFL","meanRos_ug_m3","No","Undetermined","Florida","Davie","Suburban","U of F Ag Research Center","No","Acetaldehyde","","","","3.35672412907824","","","","","","","","","","","",""
"12-011-2004","Acetaldehyde","26.217582","-80.127545","Pompano Beach","","COMMERCIAL","","UATMP: FLFL(2)","meanRos_ug_m3","No","Undetermined","Florida","Pompano Beach","Suburban","UATMP: FLFL(2)","No","Acetaldehyde","2.42398461147591","","","","","","","","","","","","","","",""
"12-057-0081","Acetaldehyde","27.740033","-82.465146","Tampa","","FOREST","","UATMP: SMFL; PILOT CITY:  Simmons Park","meanRos_ug_m3","No","Undetermined","Florida","Ruskin","Rural","Simmons Park","No","Acetaldehyde","","","2.40969289839268","1.37015676498413","","","","","","","","","","","",""
"12-057-1065","Acetaldehyde","27.892523","-82.538429","Tampa","","COMMERCIAL","","UATMP: GAFL; NADP: FL18; PILOT CITY: Gandy","meanRos_ug_m3","No","No Trend","Florida","Tampa","Suburban","USMC Reserve Center (Gandy)","No","Acetaldehyde","2.21764401281089","2.4287326105854","2.28206645396718","1.68439222652404","2.55924516295393","2.08244749680161","","","","","","","","","",""
"12-057-1075","Acetaldehyde","28.050296","-82.377871","Tampa","","RESIDENTIAL","","UATMP: LEFL; PILOT CITY: Lewis","meanRos_ug_m3","No","Undetermined","Florida","Tampa","Urban And Center City","WHITEWAY DRIVE TAMPA","No","Acetaldehyde","1.42478475539849","","","","","","","","","","","","","","",""
"12-086-4002","Acetaldehyde","25.798709","-80.210048","Miami","","COMMERCIAL","","UATMP: MDFL","meanRos_ug_m3","No","Undetermined","Florida","Miami","Urban And Center City","Lab Annex","No","Acetaldehyde","1.28563440729071","","","","","","","","","","","","","","",""
"12-095-2002","Acetaldehyde","28.596389","-81.3625","Winter Park","","COMMERCIAL","","UATMP: ORFL","meanRos_ug_m3","Yes","No Trend","Florida","Winter Park","Urban And Center City","WINTER PARK","No","Acetaldehyde","1.99752646502521","2.23381887032436","1.82356294838049","2.41141576552","1.63644121535893","1.67376402020454","1.7418391343023","1.46387577652931","1.84478034973145","1.09642741132955","1.56306361370399","2.03469595412413","1.45377001680177","","",""
"12-099-0008","Acetaldehyde","26.724786","-80.666447","Belle Glade","","INDUSTRIAL","","UATMP: BGFL","meanRos_ug_m3","No","Undetermined","Florida","Belle Glade","Rural","Belle Glade","No","Acetaldehyde","0.607079189399193","","","","","","","","","","","","","","",""
"12-099-2005","Acetaldehyde","26.456944","-80.092778","Delray Beach","","COMMERCIAL","","UATMP: DBFL","meanRos_ug_m3","No","Undetermined","Florida","Delray Beach","Urban And Center City","DELRAY BEACH","No","Acetaldehyde","2.8620307346185","","","","","","","","","","","","","","",""
"12-103-0004","Acetaldehyde","27.946688","-82.731767","Clearwater","","COMMERCIAL","","UATMP: CWFL","meanRos_ug_m3","No","Undetermined","Florida","Clearwater","Suburban","St. Petersburg College","No","Acetaldehyde","2.29205759366353","","","","","","","","","","","","","","",""
"12-103-0018","Acetaldehyde","27.785866","-82.739875","SAINT PETERSBURG","","RESIDENTIAL","","UATMP: AZFL; PILOT CITY: Azalea Park","meanRos_ug_m3","Yes","Decreasing","Florida","Saint Petersburg","Suburban","Azalea Park","No","Acetaldehyde","3.24482059882859","3.38834405640761","2.60201710776279","1.97627716377133","1.44453120529652","1.26882059163735","2.39094145745039","2.9932789597355","2.15045054929872","1.42359548958681","1.63711467183242","1.31909682867782","0.802362595652712","1.41858912662404","",""
"12-103-1008","Acetaldehyde","28.000297","-82.776213","Dunedin","","RESIDENTIAL","","UATMP: DNFL; PILOT CITY: Dunedin","meanRos_ug_m3","No","Undetermined","Florida","Dunedin","Suburban","DUNEDIN HIGHLAND MIDDLE SCHOOL","No","Acetaldehyde","","","","","","","","","","","","","","","",""
"12-103-5002","Acetaldehyde","28.090299","-82.700707","Tarpon Springs","","RESIDENTIAL","","UATMP: ELFL; PILOT CITY: East Lake","meanRos_ug_m3","No","Undetermined","Florida","Tarpon Springs","Rural","John Chesnut Sr. Park - East Lake","No","Acetaldehyde","","","","","","","","","","","","","","","",""
"13-051-0021","Acetaldehyde","32.069183","-81.048747","Savannah","","COMMERCIAL","","Savannah-E. President Street","meanRos_ug_m3","Yes","No Trend","Georgia","Savannah","Suburban","Savannah-E. President","No","Acetaldehyde","1.71531812256513","1.7678044470337","1.59233274949321","1.39693862787345","1.27161747687177","0.688821908597781","1.08333751314301","7.41511352897563","4.60442156971996","1.23604730502286","","","0.920574861082269","1.67496320935413","0.880962866756314","0.156031349768246"
"13-085-0001","Acetaldehyde","34.376307","-84.059556","DAWSONVILLE","","UNKNOWN","","Dawsonville, Georgia Forestry Commission","meanRos_ug_m3","Yes","No Trend","Georgia","Not in a city","Rural","Dawsonville","No","Acetaldehyde","1.40709476102393","3.7705674043192","1.13329238909798","1.09609992568463","2.39031189726859","0.90671039067894","1.11460853125323","1.31174749817825","1.05957787623247","0.675274402513518","","1.07508053500212","1.24797120855303","","",""
"13-089-3001","Acetaldehyde","33.845741","-84.213398","Tucker","","RESIDENTIAL","","PAMS: Tucker","meanRos_ug_m3","No","Undetermined","Georgia","Tucker","Rural","Tucker-Idlewood Road","No","Acetaldehyde","2.73257031972717","4.69051823166766","4.0569263583555","4.94522677388108","","","","","","","","","","","",""
"13-127-3001","Acetaldehyde","31.185187","-81.485166","Brunswick","","RESIDENTIAL","","","meanRos_ug_m3","No","No Trend","Georgia","Brunswick","Suburban","","No","Acetaldehyde","1.67423221842183","1.37200406511253","3.13414610068638","1.60663153446563","1.87535354345081","","","","","","","","","","",""
"13-141-0001","Acetaldehyde","33.298144","-82.96787","NOT IN A CITY","","AGRICULTURAL","","","meanRos_ug_m3","No","Undetermined","Georgia","Not in a city","Rural","","No","Acetaldehyde","","","","","","","","","","","","","","","",""
"13-223-0003","Acetaldehyde","33.9285","-85.04534","Yorkville","","AGRICULTURAL","","PAMS: Yorkville (Near Rockmart)","meanRos_ug_m3","No","Undetermined","Georgia","Not in a city","Rural","Yorkville, King Farm","No","Acetaldehyde","","","","","","","","","","","","","","2.11437791554878","",""
"15-003-2004","Acetaldehyde","21.392833","-157.969126","PEARL CITY","","RESIDENTIAL","","PEARL CITY","meanRos_ug_m3","No","No Trend","Hawaii","Pearl City","Urban And Center City","Pearl City","No","Acetaldehyde","1.03545749326379","1.22218218792317","1.32368734085335","0.918842963143891","1.15448527516059","1.21616261655634","1.73741693574874","1.68365706967526","","","","","","","",""
"16-001-0100","Acetaldehyde","43.6013","-116.3473","Meridian","","COMMERCIAL","","","meanRos_ug_m3","No","Undetermined","Idaho","Not in a city","Suburban","","No","Acetaldehyde","","","","","2.21743921492551","","","","","","","","","","",""
"16-001-0200","Acetaldehyde","43.5776","-116.1777","Boise","","RESIDENTIAL","","White Pine Elementary School","meanRos_ug_m3","No","Undetermined","Idaho","Boise City (corporate name for Boise)","Urban And Center City","White Pine Elementary School","No","Acetaldehyde","","","","","1.90654645020023","","","","","","","","","","",""
"16-001-0300","Acetaldehyde","43.63667","-116.27022","Boise","","RESIDENTIAL","","Mt. View","meanRos_ug_m3","No","Undetermined","Idaho","Boise City (corporate name for Boise)","Urban And Center City","Mt. View","No","Acetaldehyde","","","","","1.36334127441726","","","","","","","","","","",""
"16-027-0004","Acetaldehyde","43.562401","-116.563232","Nampa","","RESIDENTIAL","","NORTHWEST NAZARENE COLLEGE SAMPLER ON ARTS BUILDING IN SUB. SETTING","meanRos_ug_m3","No","Undetermined","Idaho","Nampa","Suburban","NORTHWEST NAZARENE COLLEGE SAMPLER ON ARTS BUILDING IN SUB. SETTING","No","Acetaldehyde","2.18211973788308","2.04142303268115","","","1.42390764507101","","","","","","","","","","",""
"16-027-0400","Acetaldehyde","43.7872","-116.9596","Parma","","AGRICULTURAL","","Parma","meanRos_ug_m3","No","Undetermined","Idaho","Not in a city","Rural","Parma","No","Acetaldehyde","","","","","1.49015510290168","","","","","","","","","","",""
"16-069-0006","Acetaldehyde","46.429561","-116.992427","Lewiston","","INDUSTRIAL","","","meanRos_ug_m3","No","Undetermined","Idaho","Lewiston","Suburban","","No","Acetaldehyde","","","","4.8275393538177","","","","","","","","","","","",""
"16-069-0009","Acetaldehyde","46.417778","-117.018611","Lewiston","","COMMERCIAL","","","meanRos_ug_m3","No","Undetermined","Idaho","Lewiston","Urban And Center City","","No","Acetaldehyde","","","","5.07579211655416","","","","","","","","","","","",""
"16-069-0012","Acetaldehyde","46.408352","-116.992533","Lewiston","","RESIDENTIAL","","SUNSET PARK LOCATION, BETWEEN CITY CENTER AND POTLACH CORP.,","meanRos_ug_m3","No","Undetermined","Idaho","Lewiston","Suburban","Lewiston","No","Acetaldehyde","","","","4.62775654364855","","","","","","","","","","","",""
"16-069-0013","Acetaldehyde","46.3972","-116.8062","Lapwei","","RESIDENTIAL","","","meanRos_ug_m3","No","Undetermined","Idaho","Not in a city","Rural","","No","Acetaldehyde","","","","3.94487369136933","","","","","","","","","","","",""
"16-069-0222","Acetaldehyde","46.438089","-116.905182","NOT IN A CITY","","COMMERCIAL","","","meanRos_ug_m3","No","Undetermined","Idaho","Not in a city","Rural","","No","Acetaldehyde","","","","3.7981011159718","","","","","","","","","","","",""
"17-031-0072","Acetaldehyde","41.895812","-87.607683","Chicago","","COMMERCIAL","","JARDINE","meanRos_ug_m3","No","Undetermined","Illinois","Chicago","Urban And Center City","JARDINE WATER PLANT","No","Acetaldehyde","","","","","","","","","","","","","","","",""
"17-031-3103","Acetaldehyde","41.965193","-87.876265","Schiller Park","","MOBILE","","UATMP: SPIL","meanRos_ug_m3","Yes","Increasing","Illinois","Schiller Park","Suburban","IEPA TRAILER","No","Acetaldehyde","1.0700150435431","0.988192334404467","1.47162116512104","2.27730895355344","1.4703581298961","1.39518394460629","1.31741977866087","1.66627379241346","3.05593251028369","2.78970589207821","2.5037418568629","2.68793525534161","2.49972551181668","2.56499609821721","2.20151880646453","2.76595419156747"
"17-119-9010","Acetaldehyde","38.848382","-90.076413","Roxana","","INDUSTRIAL","","UATMP: ROIL; Phillips 66 Wood River Refinery","meanRos_ug_m3","No","Undetermined","Illinois","Roxana","Suburban","Phillips 66 Wood River Refinery","No","Acetaldehyde","","","","","","","","","","","1.86191400739013","1.94793841938178","","","",""
"18-089-0022","Acetaldehyde","41.60668","-87.304729","Gary","","INDUSTRIAL","","UATMP: INDEM","meanRos_ug_m3","Yes","Decreasing","Indiana","Gary","Urban And Center City","Gary-IITRI/ 1219.5 meters east of Tennessee St.- old ammuntion bunker","No","Acetaldehyde","","4.38745459183207","2.68286199867725","4.73245533969667","4.61728534499804","3.81268623016648","1.35614647804681","1.41686741983304","1.30053232740938","1.21295216224961","1.07208889869393","1.19588447505968","1.36259414503972","1.28316735362602","",""
"18-097-0057","Acetaldehyde","39.749019","-86.186314","INDIANAPOLIS","","RESIDENTIAL","","UATMP: ININ","meanRos_ug_m3","No","Undetermined","Indiana","Indianapolis (Remainder)","Urban And Center City","Indpls- Harding St.","No","Acetaldehyde","","","","","2.0437759997659","2.15283820945389","","","","","","","","","",""
"18-097-0078","Acetaldehyde","39.811097","-86.114469","Indianapolis","","RESIDENTIAL","","UATMP: WPIN","meanRos_ug_m3","Yes","Decreasing","Indiana","Indianapolis (Remainder)","Suburban","Indpls- Washington Park/  in parking lot next to police station","No","Acetaldehyde","3.28582985641865","","2.98336635617649","2.27700945159845","2.53307821149273","2.05572305392411","1.8538927624623","2.59482832359416","2.46363850785237","2.2854331587923","1.80946074477557","1.71806043165701","1.7186861038208","1.65374986644377","1.53584604282848","1.89180166721344"
"18-097-0085","Acetaldehyde","39.740383","-86.22595","INDIANAPOLIS","","MILITARY RESERVATION","","UATMP: IDIN","meanRos_ug_m3","No","Undetermined","Indiana","Indianapolis (Remainder)","Urban And Center City","Stout Field 2","No","Acetaldehyde","","","","","2.20290802570723","2.17841751651561","","","","","","","","","",""
"19-045-0019","Acetaldehyde","41.823283","-90.211982","Clinton","","INDUSTRIAL","","CLINTON, CHANCY PARK","meanRos_ug_m3","No","Undetermined","Iowa","Clinton","Urban And Center City","CLINTON, CHANCY PARK","No","Acetaldehyde","","","","","","","","","","","","3.6683815413333","4.62897403414051","5.05915725484807","3.45795192613321","8.83315563262725"
"19-045-0021","Acetaldehyde","41.874999","-90.177574","Clinton","","RESIDENTIAL","","UATMP: CLIA","meanRos_ug_m3","No","Undetermined","Iowa","Clinton","Suburban","CLINTON, RAINBOW PARK","No","Acetaldehyde","","","","","","","","","","","","","","","",""
"19-113-0033","Acetaldehyde","42.281013","-91.526879","COGGON","","RESIDENTIAL","","COGGON ELEMENTARY SCHOOL BLDG. NORTHERN LIMITS OF LINN COUNTY","meanRos_ug_m3","No","Undetermined","Iowa","Coggon","Urban And Center City","COGGON ELEMENTARY SCHOOL BLDG. NORTHERN LIMITS OF LINN COUNTY","No","Acetaldehyde","","","","","","","0.954687350429595","1.31499263724765","","1.64044535160065","1.09331548810005","","","","",""
"19-113-0037","Acetaldehyde","42.00508","-91.6793","Cedar Rapids","","RESIDENTIAL","","UATMP: C2IA; PILOT CITY: Army Reserve","meanRos_ug_m3","No","Undetermined","Iowa","Cedar Rapids","Urban And Center City","ARMY RESERVE CENTER ROOF- CORE MONITORING SITE","No","Acetaldehyde","","2.70003836022483","4.5763136562036","3.30337713794275","1.62261032380841","","","","","","","","","","",""
"19-113-0039","Acetaldehyde","41.93417","-91.682679","Cedar Rapids","","INDUSTRIAL","","UATMP: CRIA; PILOT CITY: Hawkeye Downs","meanRos_ug_m3","No","Undetermined","Iowa","Cedar Rapids","Urban And Center City","HAWKEYE DOWNS SOUTHWEST CORNER","No","Acetaldehyde","","","","","","","","","","","","","","","",""
"19-113-0040","Acetaldehyde","41.97677","-91.68766","CEDAR RAPIDS","","RESIDENTIAL","","Public Health","meanRos_ug_m3","No","Decreasing","Iowa","Cedar Rapids","Urban And Center City","Public Health","No","Acetaldehyde","","","","","","1.55696275571118","1.57354329435193","1.71417014627922","1.88353345710404","2.0291627595822","1.58147526273922","1.54365246346656","1.52681623748008","1.32857099175453","1.25834727521036","1.52334515233429"
"19-113-0050","Acetaldehyde","41.979556","-91.680564","CEDAR RAPIDS","","INDUSTRIAL","","CR School","meanRos_ug_m3","No","Undetermined","Iowa","Cedar Rapids","Urban And Center City","CR School","No","Acetaldehyde","","","","","","","","5.01437349255021","","5.04481297582388","3.04472227933559","","","","",""
"19-113-0060","Acetaldehyde","41.92425","-91.67808","CEDAR RAPIDS","","COMMERCIAL","","HACAP","meanRos_ug_m3","No","Undetermined","Iowa","Cedar Rapids","Urban And Center City","HACAP","No","Acetaldehyde","","","","","","","","2.05330538024773","","2.17477638313645","1.81416630618116","","","","",""
"19-113-0070","Acetaldehyde","41.98128","-91.678733","Cedar Rapids","","RESIDENTIAL","","H Avenue","meanRos_ug_m3","No","Undetermined","Iowa","Cedar Rapids","Urban And Center City","H Avenue","No","Acetaldehyde","","","","","","","","","","9.96626123277152","6.14348147988319","","","","",""
"19-139-0020","Acetaldehyde","41.4069","-91.0616","Muscatine","","INDUSTRIAL","","UATMP: MUIA","meanRos_ug_m3","No","Undetermined","Iowa","Muscatine","Suburban","MUSCATINE, MUSSER PARK","No","Acetaldehyde","","","","","","","","","","","","3.22263033592955","4.72822372118632","3.39612028623621","2.5970980478268","3.59865043479569"
"19-153-0030","Acetaldehyde","41.603159","-93.643118","Des Moines","","COMMERCIAL","","UATMP: DMIA","meanRos_ug_m3","Yes","No Trend","Iowa","Des Moines","Urban And Center City","CARPENTER","No","Acetaldehyde","5.07278240995204","1.1587108678934","1.48403367151817","1.45439140045125","1.46618264081866","1.3360076851315","1.2790514614847","1.48540105868359","1.41371511683172","1.60234869377954","1.54448253609413","1.52917288367947","1.20153935501973","1.10308997457226","1.14201781445859","1.43172949430894"
"19-153-2510","Acetaldehyde","41.603517","-93.7479","CLIVE","","RESIDENTIAL","","INDIAN HILLS JR HIGH, CLIVE IA, FRM R&P SEQ. SAMPLER (1),ROOF","meanRos_ug_m3","No","Undetermined","Iowa","Clive","Suburban","INDIAN HILLS JR HIGH, CLIVE IA, FRM R&P SEQ. SAMPLER (1),ROOF","No","Acetaldehyde","1.39681911975779","","","","","","","","","","","","","","",""
"19-163-0015","Acetaldehyde","41.530011","-90.587611","Davenport","","RESIDENTIAL","","UATMP: DAIA","meanRos_ug_m3","Yes","Decreasing","Iowa","Davenport","Urban And Center City","DAVENPORT, JEFFERSON SCH.","No","Acetaldehyde","1.64438157504605","1.56830246545173","1.77423180487691","1.53779535672881","1.53084123393764","1.32313500474329","1.32309960177604","1.4689637137496","1.4206782746315","1.54564115923384","1.49668478548527","1.29065620265108","1.33743219201763","1.28868890553713","1.48096912982417","1.76426624400275"
"21-019-0017","Acetaldehyde","38.45934","-82.64041","ASHLAND","","RESIDENTIAL","","UATMP: ASKY","meanRos_ug_m3","No","No Trend","Kentucky","Ashland","Suburban","ASHLAND PRIMARY (FIVCO)","No","Acetaldehyde","","1.14352315366268","1.50826518336932","1.5245356567204","1.68659627969776","1.41266283293565","1.89205398227348","1.51779321795803","1.26219337433577","1.48483001558404","1.20725195329697","1.27123400031543","","","",""
"21-059-0005","Acetaldehyde","37.780776","-87.075307","OWENSBORO","","COMMERCIAL","","OWENSBORO PRIMARY","meanRos_ug_m3","No","Undetermined","Kentucky","Not in a city","Suburban","OWENSBORO PRIMARY","No","Acetaldehyde","","","1.70417091502982","","","","","","","","","","","","",""
"21-067-0012","Acetaldehyde","38.06503","-84.49761","LEXINGTON-FAYETTE","","RESIDENTIAL","","UATMP: LEKY","meanRos_ug_m3","No","No Trend","Kentucky","Lexington-Fayette (corporate name for Lexington)","Suburban","LEXINGTON PRIMARY","No","Acetaldehyde","","","1.41773593321181","1.39928237967572","1.60457454456223","1.36762355739419","1.75436934982908","1.33136074990034","1.1492219874472","1.31671401831237","1.49375143012062","1.55527704520659","","","",""
"21-117-0007","Acetaldehyde","39.0725","-84.525","COVINGTON","","RESIDENTIAL","","CHASE (COVINGTON)","meanRos_ug_m3","No","No Trend","Kentucky","Covington","Suburban","CHASE (COVINGTON)","No","Acetaldehyde","","","1.40731422901154","1.39492071847447","1.2862380380724","1.08772908896208","1.67882330544659","","","","","","","","",""
"21-145-1024","Acetaldehyde","37.05822","-88.57251","PADUCAH","","COMMERCIAL","","JACKSON PURCHASE (PADUCAH PRIMARY)","meanRos_ug_m3","No","Undetermined","Kentucky","Paducah","Suburban","JACKSON PURCHASE (PADUCAH PRIMARY)","No","Acetaldehyde","","","1.48109494894743","","","","","","","","","","","","",""
"22-033-0009","Acetaldehyde","30.461981","-91.179219","Baton Rouge","","COMMERCIAL","","UATMP: B2LA","meanRos_ug_m3","No","Undetermined","Louisiana","Baton Rouge","Urban And Center City","Capitol","No","Acetaldehyde","1.4844099983344","","","","","","","","","","","","","","",""
"22-051-1001","Acetaldehyde","30.041238","-90.272826","KENNER","","RESIDENTIAL","","Katrina: KELA","meanRos_ug_m3","No","Undetermined","Louisiana","Kenner","Suburban","Kenner","No","Acetaldehyde","","","","2.70877583094046","","","","","","","","","","","",""
"22-089-0003","Acetaldehyde","29.984371","-90.410638","HAHNVILLE","","INDUSTRIAL","","UATMP: HALA","meanRos_ug_m3","No","Undetermined","Louisiana","Hahnville","Rural","Hahnville","No","Acetaldehyde","","","","","","","","","","","","","","","",""
"22-095-0002","Acetaldehyde","30.057515","-90.619286","NOT IN A CITY","","INDUSTRIAL","","UATMP: GALA","meanRos_ug_m3","No","Undetermined","Louisiana","Garyville","Rural","Garyville","No","Acetaldehyde","","","","","","","","","","","","","","","",""
"24-005-3001","Acetaldehyde","39.310833","-76.474444","Essex","","RESIDENTIAL","","PAMS: Essex","meanRos_ug_m3","Yes","No Trend","Maryland","Essex","Suburban","Essex","No","Acetaldehyde","0.591308419428382","0.759609324241144","0.435371823552056","0.209941440883262","0.949667976164044","0.719197910171438","0.552065311495657","0.694126339328572","0.476706989731913","0.811379741417411","0.450885878412356","0.575122981937046","4.37612483467568","3.32704213646744","0.611042053500811","0.770664168329074"
"24-510-0050","Acetaldehyde","39.318611","-76.5825","BALTIMORE","","RESIDENTIAL","","LAT/LONG POINT IS OF SAMPLING INLET.................................","meanRos_ug_m3","No","Undetermined","Maryland","Baltimore","Urban And Center City","LAT/LONG POINT IS OF SAMPLING INLET.................................","No","Acetaldehyde","","","","","","","","","","","","","","","",""
"24-510-0051","Acetaldehyde","39.281496","-76.598578","BALTIMORE","","COMMERCIAL","","PAMS: Living Classroom","meanRos_ug_m3","No","Undetermined","Maryland","Baltimore","Urban And Center City","PAMS-OZONE-NOX ANALYZERS ARE LOCATED AT SOUTH CAROLINE STREET.","No","Acetaldehyde","","","","","","","","","","","","","","","",""
"25-009-2006","Acetaldehyde","42.474642","-70.970816","Lynn","","COMMERCIAL","","LYNN WATER TREATMENT PLANT","meanRos_ug_m3","Yes","No Trend","Massachusetts","Lynn","Urban And Center City","LYNN WATER TREATMENT PLANT","No","Acetaldehyde","1.39014468055505","1.17384549268221","1.68890176216761","1.84436232570944","1.64968045890845","1.5194331313173","1.34617794733495","1.2207848509324","1.4997972665263","1.46885484515452","1.74061389878148","1.41531167887762","1.55459166229781","1.3071894556284","1.10071385235099","1.22983863143647"
"25-013-0008","Acetaldehyde","42.19438","-72.555112","Chicopee","","COMMERCIAL","","WESTOVER AFB","meanRos_ug_m3","Yes","No Trend","Massachusetts","Chicopee","Suburban","WESTOVER AFB","No","Acetaldehyde","1.67497221838659","2.0611445081645","1.67608783074788","1.34181281979211","1.42342491613494","1.03184586415688","1.16213229863808","1.07202646734477","1.08012886540812","1.28225153684616","1.56580949770777","1.24889458467563","1.36521360526482","1.35965668813127","1.28190262444684","1.15896289410262"
"25-025-0041","Acetaldehyde","42.317372","-70.968359","Boston","","COMMERCIAL","","BOSTON LONG ISLAND","meanRos_ug_m3","No","Undetermined","Massachusetts","Boston","Rural","BOSTON LONG ISLAND","No","Acetaldehyde","","","","","","","","","","","","","","","",""
"26-077-0901","Acetaldehyde","42.216432","-85.552502","Kalamazoo","","INDUSTRIAL","","","meanRos_ug_m3","No","Undetermined","Michigan","Kalamazoo","Suburban","","No","Acetaldehyde","","","","","","","","","","","","","","","",""
"26-077-0902","Acetaldehyde","42.214487","-85.543335","KALAMAZOO","","INDUSTRIAL","","KALAMAZOO","meanRos_ug_m3","No","Undetermined","Michigan","Kalamazoo","Suburban","KALAMAZOO","No","Acetaldehyde","","","","","","","","","","","","","","","",""
"26-077-0903","Acetaldehyde","42.18921","-85.558612","KALAMAZOO","","INDUSTRIAL","","KALAMAZOO","meanRos_ug_m3","No","Undetermined","Michigan","Kalamazoo","Suburban","KALAMAZOO","No","Acetaldehyde","","","","","","","","","","","","","","","",""
"26-081-0020","Acetaldehyde","42.984173","-85.671339","Grand Rapids","","INDUSTRIAL","","Grand Rapids","meanRos_ug_m3","No","Undetermined","Michigan","Grand Rapids","Urban And Center City","GR-MONROE","No","Acetaldehyde","","","3.20124049382367","1.7687852051523","","","","","","","","","","","",""
"26-081-0021","Acetaldehyde","42.938638","-85.671141","Grand Rapids","","INDUSTRIAL","","1270 RANDOLPH, GRAND RAPIDS","meanRos_ug_m3","No","Undetermined","Michigan","Grand Rapids","Urban And Center City","1270 RANDOLPH, GRAND RAPIDS","No","Acetaldehyde","2.36651500949153","1.65802206198374","","","","","","","","","","","","","",""
"26-113-0001","Acetaldehyde","44.310555","-84.891865","NOT IN A CITY","","FOREST","","UATMP: HOMI; PILOT CITY: Houghton Lake","meanRos_ug_m3","No","Undetermined","Michigan","Not in a city","Rural","LOCATED ABOUT 1/4 MILE WEST OF SITE","No","Acetaldehyde","0.844109662015","0.782335022764821","","0.825611315924546","","","","","","","","","","","",""
"26-125-0010","Acetaldehyde","42.490313","-83.279931","Southfield","","MOBILE","","UATMP: LOMI; PILOT CITY: 696 Lodge","meanRos_ug_m3","No","Undetermined","Michigan","Southfield","Urban And Center City","338 FEET NORTH TO I-696 FREEWAY","No","Acetaldehyde","","","","","","","","","","","","","","","",""
"26-161-0008","Acetaldehyde","42.240565","-83.599602","Ypsilanti","","COMMERCIAL","","PILOT CITY: Ypsilanti","meanRos_ug_m3","No","Undetermined","Michigan","Ypsilanti","Urban And Center City","TOWNER ST, SOUTH; 2 LANE RESIDENIAL - HOSPITAL","No","Acetaldehyde","2.01975739824361","1.48582732266393","1.88585721594947","","","","","","","","","","","","",""
"26-163-0001","Acetaldehyde","42.22862","-83.2082","Allen Park","","COMMERCIAL","","UATMP: APMI; IMPROVE: DETR1; PILOT CITY: Allen Park","meanRos_ug_m3","No","Undetermined","Michigan","Allen Park","Suburban","Allen Park","No","Acetaldehyde","","","1.76476994693279","","","","","","","","","","","","",""
"26-163-0005","Acetaldehyde","42.267231","-83.132086","River Rouge","","INDUSTRIAL","","UATMP: RRMI; PILOT CITY: River Rouge","meanRos_ug_m3","Yes","No Trend","Michigan","River Rouge","Suburban","River Rouge","No","Acetaldehyde","1.59925736513054","1.90984261188752","2.17450435989994","1.91218100388845","1.88127897750764","1.64919414661698","1.62520315249761","1.98453953964957","1.7092375886022","1.66197287914704","2.18401239764306","2.00624357626356","2.02711083491643","1.83909263089299","1.46527212262154","2.50976178722997"
"26-163-0015","Acetaldehyde","42.302786","-83.10653","Detroit","","COMMERCIAL","","UATMP: SWMI; PILOT CITY: Southwest HS","meanRos_ug_m3","Yes","No Trend","Michigan","Detroit","Urban And Center City","Southwestern H.S.","No","Acetaldehyde","2.16177036904206","2.79993518590927","2.23061870336533","1.74935003395738","1.95564579537937","1.55905537406603","1.63555966461858","2.06401944160461","1.74516868193944","1.65228169585268","1.86389361081585","1.90178432067235","1.78193241357803","1.97303976358906","1.68055356652648","1.85744225209759"
"26-163-0019","Acetaldehyde","42.43084","-83.000138","Detroit","","RESIDENTIAL","","UATMP: E7MI; PILOT CITY: East 7 Mile","meanRos_ug_m3","No","Undetermined","Michigan","Detroit","Suburban","East 7 Mile","No","Acetaldehyde","","","","","","","","","","","","","","","",""
"26-163-0027","Acetaldehyde","42.292231","-83.106807","Detroit","","INDUSTRIAL","","UATMP: YFMI; PILOT CITY: Yellow Freight","meanRos_ug_m3","No","Undetermined","Michigan","Detroit","Urban And Center City","Yellow Freight","No","Acetaldehyde","","","","","","","","","","","","","","","",""
"27-003-1002","Acetaldehyde","45.13768","-93.207615","Blaine","","COMMERCIAL","","Anoka Airport6010","meanRos_ug_m3","No","No Trend","Minnesota","Blaine","Suburban","Anoka County Airport","No","Acetaldehyde","","","","","","","","","","1.17397348086039","0.969287445147832","0.929376283082469","0.7427859403193","0.894525265196959","1.03097831308842",""
"27-007-2302","Acetaldehyde","47.473285","-94.884721","BEMIDJI","","COMMERCIAL","","BEMIDJI","meanRos_ug_m3","No","Undetermined","Minnesota","Bemidji","Urban And Center City","KITCHAGAMI REGIONAL LIBRARY, 1 STORY BUILDING","No","Acetaldehyde","","","","","","","","","","","","","","","",""
"27-007-2303","Acetaldehyde","47.877222","-95.01222","Red Lake","","RESIDENTIAL","","Red Lake","meanRos_ug_m3","No","Undetermined","Minnesota","Red Lake","Rural","Red Lake District","No","Acetaldehyde","","","","","","","","","0.831827357692539","","","","","","",""
"27-017-7416","Acetaldehyde","46.70527","-92.52377","CLOQUET","","FOREST","","Cloquet","meanRos_ug_m3","No","Undetermined","Minnesota","Cloquet","Rural","Fond du Lac Band 7416","No","Acetaldehyde","","","","","","","","0.750130960345268","","","","","","","",""
"27-019-0052","Acetaldehyde","44.850655","-93.591809","Chaska","","RESIDENTIAL","","CHASKA","meanRos_ug_m3","No","Undetermined","Minnesota","Chaska","Rural","Chaska","No","Acetaldehyde","0.624203298883191","0.561292475296391","0.926120468916801","0.704121042895368","","","","","","","","","","","",""
"27-021-0001","Acetaldehyde","47.159942","-94.150987","NOT IN A CITY","","RESIDENTIAL","","Leech Lake","meanRos_ug_m3","No","Undetermined","Minnesota","Not in a city","Rural","Leech Lake Nation: Chatfield","No","Acetaldehyde","","","","","","","","","0.663894550204277","","","","","","",""
"27-027-2103","Acetaldehyde","46.871907","-96.743969","MOORHEAD","","RESIDENTIAL","","MOORHEAD","meanRos_ug_m3","No","Undetermined","Minnesota","Moorhead","Suburban","MOORHEAD SENIOR HIGH SCHOOL,  1 1/2 STORY BUILDING","No","Acetaldehyde","","","","","","","","","","","","","","","",""
"27-035-3202","Acetaldehyde","46.164666","-94.359379","FORT RIPLEY","","AGRICULTURAL","","HIGHWAY 371.  FT. RIPLEY","meanRos_ug_m3","No","Undetermined","Minnesota","Not in a city","Rural","Fort Ripley","No","Acetaldehyde","","","","","","","","","","","","","","","",""
"27-037-0020","Acetaldehyde","44.76323","-93.03255","NOT IN A CITY","","INDUSTRIAL","","FHR 420","meanRos_ug_m3","Yes","No Trend","Minnesota","Rosemount","Rural","Flint Hills Refinery 420","No","Acetaldehyde","0.818887215525169","2.21246545356033","1.1350812723738","0.932393686524753","0.908648566063303","0.960301285982132","1.27462820481446","1.42643597671541","1.2083968130025","1.22714569247686","1.09503525832914","1.00614137417179","0.78067922492822","0.938383637865384","1.05328807967608",""
"27-037-0423","Acetaldehyde","44.77553","-93.06299","Rosemount","","INDUSTRIAL","","FHR 423","meanRos_ug_m3","Yes","No Trend","Minnesota","Inver Grove Heights (RR name Inver Grove)","Rural","Flint Hills Refinery 423","No","Acetaldehyde","0.728719712520966","0.663394782830168","1.11520933410374","0.98789263140924","0.840327837808287","0.877067766255803","0.944857628668769","1.24588906080996","1.20229236494031","1.08581326901913","1.32497212115456","1.08183938668946","0.67743843739683","0.778611124113754","1.11331847906113",""
"27-037-0426","Acetaldehyde","44.773003","-93.033072","NOT IN A CITY","","INDUSTRIAL","","Cemetary","meanRos_ug_m3","No","Undetermined","Minnesota","Not in a city","Rural","Cemetary","No","Acetaldehyde","","","","","","","","","","","","","","","",""
"27-037-0439","Acetaldehyde","44.748006","-93.04348","ROSEMOUNT","","INDUSTRIAL","","ROSEMOUNT","meanRos_ug_m3","No","Undetermined","Minnesota","Rosemount","Rural","Flint Hills Refinery 439","No","Acetaldehyde","","","","","","","","","","","","","","","",""
"27-037-0441","Acetaldehyde","44.7468","-93.02611","Rosemount","","INDUSTRIAL","","FHR 441","meanRos_ug_m3","No","Undetermined","Minnesota","Rosemount","Rural","Flint Hills Refinery 441","No","Acetaldehyde","0.859051049268701","0.812204861954537","1.22447280297056","1.0394066459146","","","","","","","","","","","",""
"27-037-0442","Acetaldehyde","44.73857","-93.00496","Rosemount","","AGRICULTURAL","","FHR 442","meanRos_ug_m3","No","No Trend","Minnesota","Rosemount","Rural","Flint Hills Refinery 442","No","Acetaldehyde","0.83460591147669","0.694788019049842","1.21346021443605","0.858952774355809","0.855971630734918","0.887918797501347","1.08875273764133","1.33604362753571","1.44511971871058","1.34250122079482","0.980515879613382","0.658483950192468","","","",""
"27-037-0443","Acetaldehyde","44.745662","-93.05541","ROSEMOUNT","","INDUSTRIAL","","FHR 443","meanRos_ug_m3","No","No Trend","Minnesota","Rosemount","Rural","Flint Hills Refinery 443","No","Acetaldehyde","","","","","","0.963102975929225","1.03873535444339","1.37182149887085","1.35644599954997","1.12630599503424","0.755751061673258","0.838814415921599","0.679118733356396","0.810014724731445","0.883937227725983",""
"27-037-0470","Acetaldehyde","44.73846","-93.23725","Apple Valley","","RESIDENTIAL","","Apple Valley","meanRos_ug_m3","Yes","No Trend","Minnesota","Apple Valley","Suburban","Apple Valley","No","Acetaldehyde","0.856378987303068","0.758679045396939","1.21431513955551","0.989910370856524","0.902591031420993","0.960422910885377","1.11039924820264","1.43787657320499","1.17518273917111","1.18941231218039","0.996134953366386","0.948015589018663","0.751920453550523","0.817745250960191","0.964723824427046",""
"27-041-2010","Acetaldehyde","45.883295","-95.380316","ALEXANDRIA","","RESIDENTIAL","","ALEXANDRIA (was 2001)","meanRos_ug_m3","No","Undetermined","Minnesota","Alexandria","Urban And Center City","Alexandria toxics site","No","Acetaldehyde","","","","","","","","","","","","","","","",""
"27-041-2110","Acetaldehyde","45.968217","-95.605594","NOT IN A CITY","","AGRICULTURAL","","7208 COUNTY RD. 16 NW","meanRos_ug_m3","No","Undetermined","Minnesota","Not in a city","Rural","Brandon Township","No","Acetaldehyde","","","","","","","","","","","","","","","",""
"27-047-5401","Acetaldehyde","43.650235","-93.366599","ALBERT LEA","","COMMERCIAL","","ALBERT LEA","meanRos_ug_m3","No","Undetermined","Minnesota","Albert Lea","Urban And Center City","Albert Lea City Hall","No","Acetaldehyde","","","","","","","","","","","","","","","",""
"27-049-5356","Acetaldehyde","44.39762","-92.831439","LEON TOWNSHIP","","AGRICULTURAL","","LEON TOWNSHIP(Zumbrota)","meanRos_ug_m3","No","Undetermined","Minnesota","Not in a city","Rural","MPCA SITE 5356","No","Acetaldehyde","","","","","","","","","","","","","","","",""
"27-053-0050","Acetaldehyde","45.001229","-93.267117","Minneapolis","","COMMERCIAL","","NE Fire Station","meanRos_ug_m3","No","Undetermined","Minnesota","Minneapolis","Urban And Center City","Minneapolis Fire Station 2","No","Acetaldehyde","1.09074711054564","1.06016069023233","1.61438295155143","1.2965494523109","","","","","","","","","","","",""
"27-053-0053","Acetaldehyde","44.981076","-93.269669","Minneapolis","","COMMERCIAL","","Old Downtown Library","meanRos_ug_m3","No","Undetermined","Minnesota","Minneapolis","Urban And Center City","Minneapolis Central Library","No","Acetaldehyde","","","","","","","","","","","","","","","",""
"27-053-0260","Acetaldehyde","45.032742","-93.421064","MINNEAPOLIS","","RESIDENTIAL","","MINNEAPOLIS","meanRos_ug_m3","No","Undetermined","Minnesota","Minneapolis","Suburban","MPCA SITE 0260","No","Acetaldehyde","","","","","","","","","","","","","","","",""
"27-053-0909","Acetaldehyde","45.012102","-93.276699","Minneapolis","","INDUSTRIAL","","Lowry Ave","meanRos_ug_m3","No","Undetermined","Minnesota","Minneapolis","Urban And Center City","Lowry Avenue","No","Acetaldehyde","","","","","","","","","","","","","1.29328739334797","1.54815493883758","1.78322766033503",""
"27-053-0958","Acetaldehyde","44.926076","-93.204666","MINNEAPOLIS","","RESIDENTIAL","","MINNEAPOLIS","meanRos_ug_m3","No","Undetermined","Minnesota","Minneapolis","Urban And Center City","MPCA SITE 0958 1997/1998 AIR TOXICS SITE","No","Acetaldehyde","","","","","","","","","","","","","","","",""
"27-053-0959","Acetaldehyde","45.003866","-93.236924","Minneapolis","","INDUSTRIAL","","MPCA SITE 0959 INTER PLASTICS","meanRos_ug_m3","No","Undetermined","Minnesota","Minneapolis","Urban And Center City","MPCA SITE 0959 INTER PLASTICS","No","Acetaldehyde","","","","","","","","","","","","","","","",""
"27-053-0960","Acetaldehyde","44.959409","-93.256892","MINNEAPOLIS","","RESIDENTIAL","","MINNEAPOLIS","meanRos_ug_m3","No","Undetermined","Minnesota","Minneapolis","Urban And Center City","Phillips Community Center","No","Acetaldehyde","","","","","","","","","","","","","","","",""
"27-053-0961","Acetaldehyde","44.87551","-93.25892","RICHFIELD","","RESIDENTIAL","","RICHFIELD INTERMEDIATE SCHOOL","meanRos_ug_m3","No","No Trend","Minnesota","Richfield","Suburban","Richfield Intermediate School","No","Acetaldehyde","","","","1.22126255955612","0.957244813502405","1.07506848573685","1.28448867025199","2.05717326601346","1.74779979424043","1.48835798524893","1.33413967611838","1.0718254595995","0.907186638191342","1.17178329414335","1.43861881206776",""
"27-053-0962","Acetaldehyde","44.965242","-93.254759","Minneapolis","","RESIDENTIAL","","Minneapolis Near Roadway NOx","meanRos_ug_m3","No","Undetermined","Minnesota","Minneapolis","Urban And Center City","Near Road I-35/I-94","No","Acetaldehyde","","","","","","","","","","","","1.341299756368","1.08360724126299","1.2479061676284","1.33030451680052",""
"27-053-0963","Acetaldehyde","44.95366","-93.25821","Minneapolis","","RESIDENTIAL","","HC Anderson School","meanRos_ug_m3","Yes","No Trend","Minnesota","Minneapolis","Urban And Center City","Andersen School","No","Acetaldehyde","1.02883393083841","0.8915709770959","1.63471331700401","1.09344815926962","1.00938492842247","1.07623985995139","1.47337626119455","1.64843978354188","1.38625960659098","1.41742694377899","1.39290444939225","1.2672114983201","0.909963188072046","1.14085048282969","1.33093193070642",""
"27-053-0964","Acetaldehyde","44.888551","-93.195377","NOT IN A CITY","","COMMERCIAL","","MSP AIRPORT","meanRos_ug_m3","No","Undetermined","Minnesota","Not in a city","Suburban","MSP Airport","No","Acetaldehyde","1.09642391584691","","","","","","","","","","","","","","",""
"27-053-0965","Acetaldehyde","45.004478","-93.240046","Minneapolis","","RESIDENTIAL","","Putnam School","meanRos_ug_m3","No","Undetermined","Minnesota","Minneapolis","Urban And Center City","Putnam Elementary School","No","Acetaldehyde","0.995557101727542","0.82665440208953","1.41717130468603","1.1165945555194","","","","","","","","","","","",""
"27-053-0966","Acetaldehyde","44.97944","-93.26613","Minneapolis","","COMMERCIAL","","UATMP: MIMN; City of Lakes Bldg","meanRos_ug_m3","Yes","No Trend","Minnesota","Minneapolis","Urban And Center City","City of Lakes Building","No","Acetaldehyde","0.937393688371983","0.893701692698178","1.44756943785719","1.02572578300157","1.08680358085938","1.20656841993332","1.3791503619064","1.59541026787324","1.42191410482975","1.36092365781466","1.21697503844133","1.2079888197283","0.894979243056249","1.13828896769023","1.25067220268578",""
"27-053-0968","Acetaldehyde","44.893005","-93.233227","MINNEAPOLIS","","COMMERCIAL","","MSP Airport 968","meanRos_ug_m3","No","Undetermined","Minnesota","Minneapolis","Urban And Center City","Metropolitan Airports Commission","No","Acetaldehyde","","","1.27547351421233","1.02440081015229","","","","","","","","","","","",""
"27-053-0969","Acetaldehyde","44.90057","-93.23828","MINNEAPOLIS","","RESIDENTIAL","","WENONAH SCHOOL","meanRos_ug_m3","No","No Trend","Minnesota","Minneapolis","Suburban","Wenonah Elementary School","No","Acetaldehyde","","","1.51623040084776","1.07175293943534","0.815558882721313","0.898364250335777","1.80659327486105","","","","","","","","",""
"27-053-1007","Acetaldehyde","45.03972","-93.29874","Minneapolis","","RESIDENTIAL","","Humboldt Ave","meanRos_ug_m3","Yes","No Trend","Minnesota","Minneapolis","Suburban","Humboldt Avenue","No","Acetaldehyde","0.972303992882371","0.832507953047752","1.36957973465323","1.20480549247083","1.00390920193229","1.10449359022965","1.23438219619649","1.61408668214625","1.44781804555341","1.3722267340009","1.22079359822803","1.24655763072483","0.951152142008831","1.08973225156466","1.21877959067539",""
"27-053-1909","Acetaldehyde","45.013611","-93.272049","Minneapolis","","COMMERCIAL","","Bottineau / Marshall Terrace","meanRos_ug_m3","No","Undetermined","Minnesota","Minneapolis","Urban And Center City","Bottineau / Marshall Terrace","No","Acetaldehyde","","","","","","","","","","","","","","","1.44275157916837",""
"27-053-2006","Acetaldehyde","44.94805","-93.34315","ST LOUIS PARK","","RESIDENTIAL","","St. Louis Park","meanRos_ug_m3","No","No Trend","Minnesota","St. Louis Park","Suburban","St. Louis Park City Hall","No","Acetaldehyde","","","","","","1.0282343181799","1.41027290333401","1.48736376547423","1.33350279770399","1.22542152152612","1.12033826393901","1.11280395388603","0.826438267857341","0.930481153229872","1.11743315187368",""
"27-061-1105","Acetaldehyde","47.236699","-93.526411","Grand Rapids","","COMMERCIAL","","123 NE 4TH ST.","meanRos_ug_m3","No","Undetermined","Minnesota","Grand Rapids","Urban And Center City","Itaska County Courthouse","No","Acetaldehyde","","","","","","","","","","","","","","","",""
"27-067-4110","Acetaldehyde","45.112271","-95.040357","Willmar","","COMMERCIAL","","201 SE WILLMAR AVE.","meanRos_ug_m3","No","Undetermined","Minnesota","Willmar","Urban And Center City","Willmar","No","Acetaldehyde","","","","","","","","","","","","","","","",""
"27-071-1240","Acetaldehyde","48.605216","-93.402371","International Falls","","INDUSTRIAL","","LOCATED IN PENTHOUSE ATOP CUSTOMS BUILDING","meanRos_ug_m3","No","Undetermined","Minnesota","International Falls","Urban And Center City","LOCATED IN PENTHOUSE ATOP CUSTOMS BUILDING","No","Acetaldehyde","","","","","","","","","","","","","","","",""
"27-071-1241","Acetaldehyde","48.605216","-93.406538","INTERNATIONAL FALLS","","RESIDENTIAL","","MPCA SITE 1241, AIR TOXICS SITE","meanRos_ug_m3","No","Undetermined","Minnesota","International Falls","Urban And Center City","MPCA SITE 1241, AIR TOXICS SITE","No","Acetaldehyde","","","","","","","","","","","","","","","",""
"27-075-0005","Acetaldehyde","47.948622","-91.495574","NOT IN A CITY","","UNKNOWN","","Fernberg Road","meanRos_ug_m3","No","Undetermined","Minnesota","Not in a city","Rural","Boundary Waters","No","Acetaldehyde","","","","","","","","0.584142775535583","","","","","","","",""
"27-075-7608","Acetaldehyde","47.296309","-91.264331","SILVER BAY","","RESIDENTIAL","","SILVER BAY","meanRos_ug_m3","No","Undetermined","Minnesota","Silver Bay","Urban And Center City","MPCA SITE 7608","No","Acetaldehyde","","","","","","","","","","","","","","","",""
"27-085-4301","Acetaldehyde","44.890795","-94.367483","HUTCHINSON","","COMMERCIAL","","HUTCHINSON","meanRos_ug_m3","No","Undetermined","Minnesota","Hutchinson","Urban And Center City","1999/2000 STATE WIDE AIR TOXICS STUDY HUTCHINSON SITE 4301","No","Acetaldehyde","","","","","","","","","","","","","","","",""
"27-095-3051","Acetaldehyde","46.2053","-93.75945","ONAMIA","","FOREST","","Mille Lacs","meanRos_ug_m3","No","Undetermined","Minnesota","Onamia","Rural","Mille Lacs Band","No","Acetaldehyde","","","","","","","","","","0.809267866611481","","","","","",""
"27-097-3049","Acetaldehyde","45.971127","-94.347481","LITTLE FALLS","","RESIDENTIAL","","AIR TOXICS MONITOR","meanRos_ug_m3","No","Undetermined","Minnesota","Little Falls","Urban And Center City","AIR TOXICS MONITOR","No","Acetaldehyde","","","","","","","","","","","","","","","",""
"27-103-5109","Acetaldehyde","44.183761","-94.039819","North Mankato","","RESIDENTIAL","","LOCATED ON SW CORNER OF NORTH MANKATO FIRE STATION NO. 2 - ROOF","meanRos_ug_m3","No","Undetermined","Minnesota","North Mankato","Urban And Center City","North Mankato","No","Acetaldehyde","","","","","","","","","","","","","","","",""
"27-109-5008","Acetaldehyde","43.996908","-92.450366","ROCHESTER","","RESIDENTIAL","","ROCHESTER","meanRos_ug_m3","No","Undetermined","Minnesota","Rochester","Suburban","Ben Franklin School","No","Acetaldehyde","","","","","","","","","","","","","","","",""
"27-111-2005","Acetaldehyde","46.281349","-96.074225","FERGUS FALLS","","RESIDENTIAL","","FERGUS FALLS","meanRos_ug_m3","No","Undetermined","Minnesota","Fergus Falls","Urban And Center City","1997/1998 MN AIR TOXICS SITE","No","Acetaldehyde","","","","","","","","","","","","","","","",""
"27-111-2012","Acetaldehyde","46.586904","-95.584209","PERHAM","","RESIDENTIAL","","PRAIRIE WINDS MIDDLE SCHOOL","meanRos_ug_m3","No","Undetermined","Minnesota","Not in a city","Suburban","PRAIRIE WINDS MIDDLE SCHOOL","No","Acetaldehyde","","","","","","","","","","","","","","","",""
"27-115-1400","Acetaldehyde","46.121338","-92.999927","SANDSTONE","","AGRICULTURAL","","MPCA SITE 1400","meanRos_ug_m3","No","Undetermined","Minnesota","Not in a city","Rural","MPCA SITE 1400","No","Acetaldehyde","","","","","","","","","","","","","","","",""
"27-117-4002","Acetaldehyde","43.997422","-96.320099","PIPESTONE","","RESIDENTIAL","","MPCA SITE 4002 AIR TOXICS STUDY","meanRos_ug_m3","No","Undetermined","Minnesota","Pipestone","Urban And Center City","MPCA SITE 4002 AIR TOXICS STUDY","No","Acetaldehyde","","","","","","","","","","","","","","","",""
"27-123-0017","Acetaldehyde","44.944134","-93.065125","SAINT PAUL","","INDUSTRIAL","","Holman Field","meanRos_ug_m3","No","Undetermined","Minnesota","St. Paul","Suburban","Holman Field","No","Acetaldehyde","1.15255226579602","1.03185248968226","1.52139510374638","1.20869242936625","","","","","","","","","","","",""
"27-123-0021","Acetaldehyde","44.96555","-93.05684","SAINT PAUL","","COMMERCIAL","","Ross Avenue","meanRos_ug_m3","No","Undetermined","Minnesota","St. Paul","Urban And Center City","Ross Avenue","No","Acetaldehyde","1.03546855378835","1.0085117198004","1.18490703019003","","","","","","","","","","","","",""
"27-123-0868","Acetaldehyde","44.95072","-93.09827","SAINT PAUL","","COMMERCIAL","","Ramsey Health Center","meanRos_ug_m3","No","No Trend","Minnesota","St. Paul","Urban And Center City","Ramsey Health Center","No","Acetaldehyde","","","","","1.07942450277412","1.1499815353176","1.61091662115521","1.77748397649345","1.42048385313579","1.44328988744662","1.29776543268451","1.21961385011673","0.961507243842914","1.12654643543696","1.30940916814974",""
"27-123-0871","Acetaldehyde","44.95939","-93.03587","SAINT PAUL","","RESIDENTIAL","","Harding High School","meanRos_ug_m3","No","No Trend","Minnesota","St. Paul","Suburban","Harding High School","No","Acetaldehyde","","","","","","1.00743362460381","1.36420890739409","1.55375072976639","1.49085967687138","1.55492153419898","1.19368625459848","1.12038504045743","0.969979424225657","1.01190743456453","1.0905005166928",""
"27-123-1908","Acetaldehyde","44.973096","-93.199879","St. Paul","","RESIDENTIAL","","South St. Anthony Park","meanRos_ug_m3","No","Undetermined","Minnesota","St. Paul","Urban And Center City","South St. Anthony Park","No","Acetaldehyde","","","","","","","","","","","","","","1.22709993184623","",""
"27-135-2401","Acetaldehyde","48.911655","-95.328294","WARROAD","","COMMERCIAL","","MPCA 2401 1997/1998 AIR TOXICS SITE","meanRos_ug_m3","No","Undetermined","Minnesota","Not in a city","Suburban","MPCA 2401 1997/1998 AIR TOXICS SITE","No","Acetaldehyde","","","","","","","","","","","","","","","",""
"27-137-7001","Acetaldehyde","47.523355","-92.536305","Virginia","","COMMERCIAL","","Virginia","meanRos_ug_m3","No","Undetermined","Minnesota","Virginia","Urban And Center City","Virginia City Hall","No","Acetaldehyde","","","","","","","","","","","","","","","",""
"27-137-7014","Acetaldehyde","47.423821","-92.926856","HIBBING","","RESIDENTIAL","","HIBBING","meanRos_ug_m3","No","Undetermined","Minnesota","Hibbing","Suburban","1997/1998 MN AIR TOXICS SITE","No","Acetaldehyde","","","","","","","","","","","","","","","",""
"27-137-7549","Acetaldehyde","46.77107","-92.11732","Duluth","","INDUSTRIAL","","Michigan St.","meanRos_ug_m3","Yes","No Trend","Minnesota","Duluth","Urban And Center City","Michigan Street","No","Acetaldehyde","0.720354400629488","0.680741914435876","1.24926189050289","0.727429854951925","0.82016847379993","0.922874115321151","0.883988567193349","1.16122466428527","1.2006669074297","1.05195054715993","0.874770275518006","0.775400298126673","0.626217597774391","0.660995798891988","0.800172831863165",""
"27-137-7550","Acetaldehyde","46.81826","-92.08936","DULUTH","","RESIDENTIAL","","DULUTH","meanRos_ug_m3","No","Undetermined","Minnesota","Duluth","Suburban","U of M - Duluth","No","Acetaldehyde","","","","","","","","","","","","","","","",""
"27-137-7551","Acetaldehyde","46.76643","-92.13354","Duluth","","RESIDENTIAL","","Lincoln Park School","meanRos_ug_m3","No","Undetermined","Minnesota","Duluth","Suburban","Lincoln Park School","No","Acetaldehyde","","","","","","","","","","","","","","","",""
"27-141-3050","Acetaldehyde","45.303298","-93.599684","ELK RIVER","","RESIDENTIAL","","ELK RIVER","meanRos_ug_m3","No","Undetermined","Minnesota","Elk River","Suburban","ELK RIVER CITY HALL","No","Acetaldehyde","","","","","","","","","","","","","","","",""
"27-145-3052","Acetaldehyde","45.549839","-94.13345","SAINT CLOUD","","RESIDENTIAL","","ST CLOUD","meanRos_ug_m3","No","Undetermined","Minnesota","St. Cloud","Suburban","Talahi School","No","Acetaldehyde","","","","","","","","","","","","","","","",""
"27-151-4500","Acetaldehyde","45.247739","-95.917822","HOLLOWAY","","AGRICULTURAL","","SCHLEUTER FARM_(HOLLOWAY)","meanRos_ug_m3","No","Undetermined","Minnesota","Not in a city","Rural","SCHLEUTER FARM_(HOLLOWAY)","No","Acetaldehyde","","","","","","","","","","","","","","","",""
"27-163-0301","Acetaldehyde","44.991634","-92.822429","STILLWATER","","RESIDENTIAL","","STILLWATER","meanRos_ug_m3","No","Undetermined","Minnesota","Stillwater","Rural","SITE NAME WEST LAKELAND  1999/2000 STATEWIDE AIR TOXIC SITE  0301","No","Acetaldehyde","","","","","","","","","","","","","","","",""
"27-163-0436","Acetaldehyde","44.84737","-92.9954","SAINT PAUL","","INDUSTRIAL","","MPC 436","meanRos_ug_m3","Yes","No Trend","Minnesota","St. Paul Park","Suburban","Saint Paul Park Refinery 436","No","Acetaldehyde","1.16920906444222","0.958659066666256","1.53583366117356","1.2237601367564","1.16905088693615","1.20750138110348","1.36023892462254","1.5261273116901","1.52506231059108","1.56601072733219","1.1478258152053","1.11785790373882","0.860706270254892","0.981909388303757","1.15018803079923",""
"27-163-0438","Acetaldehyde","44.85711","-93.00352","Newport","","INDUSTRIAL","","MPC 438","meanRos_ug_m3","Yes","No Trend","Minnesota","Newport","Suburban","Saint Paul Park Refinery 438","No","Acetaldehyde","1.06834055727623","0.899656563455408","1.5045754465585","1.50292280088339","1.537631731707","1.2180426469389","1.39680250535409","1.66744059128839","1.65262029532875","1.72967708340058","1.24591240624212","1.18983741736008","0.959696836895862","1.05223210080195","1.15793217667218",""
"27-163-0445","Acetaldehyde","45.01876","-92.78027","BAYPORT","","RESIDENTIAL","","Anderson School","meanRos_ug_m3","No","Undetermined","Minnesota","Bayport","Suburban","Anderson School","No","Acetaldehyde","","","","","0.887578719947139","","","","","","","","","","",""
"27-163-0446","Acetaldehyde","45.02798","-92.77415","Bayport","","INDUSTRIAL","","Point Rd.","meanRos_ug_m3","No","No Trend","Minnesota","Bayport","Suburban","Point Road","No","Acetaldehyde","","","","","","0.835799621152026","1.23622454838319","1.30700363088072","1.146675247837","1.0489956888498","0.986105570606157","0.845440446320227","0.682592706133922","0.775940152636746","0.947251676467427",""
"27-169-5210","Acetaldehyde","44.050871","-91.642432","WINONA","","RESIDENTIAL","","WINONA","meanRos_ug_m3","No","Undetermined","Minnesota","Winona","Urban And Center City","WINONA MIDDLE SCHOOL,  2 STORY BUILDING","No","Acetaldehyde","","","","","","","","","","","","","","","",""
"27-171-3201","Acetaldehyde","45.20916","-93.66921","SAINT MICHAEL","","RESIDENTIAL","","St. Michael","meanRos_ug_m3","No","Undetermined","Minnesota","St. Michael","Suburban","St. Michael Elementary School","No","Acetaldehyde","","","","","","","","","","","","","","","",""
"27-173-4003","Acetaldehyde","44.809957","-95.535853","GRANITE FALLS","","RESIDENTIAL","","GRANITE FALLS","meanRos_ug_m3","No","Undetermined","Minnesota","Granite Falls","Suburban","MPCA SITE 4003 1997/1998 AIR TOXICS SITE","No","Acetaldehyde","","","","","","","","","","","","","","","",""
"28-043-0001","Acetaldehyde","33.834444","-89.792778","Grenada","","AGRICULTURAL","","UATMP: GRMS","meanRos_ug_m3","No","Undetermined","Mississippi","Grenada","Rural","Grenada","No","Acetaldehyde","","2.22054888308048","","","","","","","","","","","","","",""
"28-047-0008","Acetaldehyde","30.390369","-89.049778","Gulfport","","COMMERCIAL","","UATMP: GPMS; Katrina: GPMS; BP Oil site GPMS","meanRos_ug_m3","No","Undetermined","Mississippi","Gulfport","Rural","Gulfport Youth Court","No","Acetaldehyde","1.72980110049248","2.15616691566032","","1.76993721975407","1.56766056918329","","","","","","","","","","",""
"28-049-0010","Acetaldehyde","32.385731","-90.1412","Jackson","","COMMERCIAL","","UATMP: JAMS","meanRos_ug_m3","No","Undetermined","Mississippi","Jackson","Suburban","Jackson FS19","No","Acetaldehyde","3.29714996239235","4.43299882632235","","","","","","","","","","","","","",""
"28-059-0006","Acetaldehyde","30.378287","-88.53393","Pascagoula","","COMMERCIAL","","UATMP: PGMS; Katrina: PGMS","meanRos_ug_m3","No","Undetermined","Mississippi","Pascagoula","Urban And Center City","Pascagoula","No","Acetaldehyde","2.13066900641687","","","","","","","","","","","","","","",""
"28-081-0005","Acetaldehyde","34.264917","-88.766222","Tupelo","","COMMERCIAL","","UATMP: TUMS; Katrina: TUMS","meanRos_ug_m3","No","No Trend","Mississippi","Tupelo","Suburban","TUPELO AIRPORT NEAR OLD NWS OFFICE","No","Acetaldehyde","1.83038194525626","2.18599367976189","2.21783834515196","1.97126683495084","1.80464595350726","","","","","","","","","","",""
"29-186-0005","Acetaldehyde","37.90084","-90.42388","Bonne Terre","","AGRICULTURAL","","UATMP: BTMO","meanRos_ug_m3","No","Undetermined","Missouri","Not in a city","Rural","Bonne Terre","No","Acetaldehyde","1.98739602827488","","","","","","","","","","","","","","",""
"29-510-0089","Acetaldehyde","38.60183","-90.232891","SAINT LOUIS","","RESIDENTIAL","","UATMP: SLMO","meanRos_ug_m3","No","Undetermined","Missouri","St. Louis","Urban And Center City","UATMP: SLMO","No","Acetaldehyde","5.10472594174472","","","","","","","","","","","","","","",""
"33-011-0020","Acetaldehyde","42.995778","-71.462528","Manchester","","COMMERCIAL","","PEARL ST MUNICIPAL PARKING LOT","meanRos_ug_m3","No","Undetermined","New Hampshire","Manchester","Urban And Center City","PEARL ST MUNICIPAL PARKING LOT","No","Acetaldehyde","2.7219787756602","1.34395709736594","2.34102627237638","","","","","","","","","","","","",""
"33-013-1003","Acetaldehyde","43.177304","-71.462014","Pembroke","","RESIDENTIAL","","","meanRos_ug_m3","No","Undetermined","New Hampshire","Pembroke","Rural","","No","Acetaldehyde","2.0858487296721","","","","","","","","","","","","","","",""
"33-013-1006","Acetaldehyde","43.13246","-71.458246","Pembroke","","RESIDENTIAL","","PEMBROKE HIGHWAY DEPARTMENT","meanRos_ug_m3","No","Undetermined","New Hampshire","Suncook","Suburban","PEMBROKE HIGHWAY DEPARTMENT","No","Acetaldehyde","2.18483124574025","","","","","","","","","","","","","","",""
"33-015-0014","Acetaldehyde","43.075371","-70.748017","Portsmouth","","RESIDENTIAL","","PORTSMOUTH - PEIRCE ISLAND","meanRos_ug_m3","No","Undetermined","New Hampshire","Portsmouth","Urban And Center City","PORTSMOUTH - PEIRCE ISLAND","No","Acetaldehyde","13.322822536741","4.45285740803028","2.13905034114917","","","","","","","","","","","","",""
"33-019-0003","Acetaldehyde","43.364518","-72.337867","Claremont","","RESIDENTIAL","","","meanRos_ug_m3","No","Undetermined","New Hampshire","Claremont","Urban And Center City","","No","Acetaldehyde","1.6585746333003","1.09728070454938","1.30954298178355","","","","","","","","","","","","",""
"34-007-0002","Acetaldehyde","39.934446","-75.125291","Camden","","INDUSTRIAL","","UATMP: CSNJ; Camden Spruce Street","meanRos_ug_m3","No","No Trend","New Jersey","Camden","Urban And Center City","Camden Spruce Street","No","Acetaldehyde","","","","","","","","","","","2.86374869184979","2.57308793266614","2.08309268446292","2.7449377015233","2.22283698643668","1.99513648798068"
"34-007-0003","Acetaldehyde","39.923042","-75.097617","Camden","","RESIDENTIAL","","UATMP: CANJ","meanRos_ug_m3","No","No Trend","New Jersey","Camden","Suburban","CAMDEN LAB","No","Acetaldehyde","0.779337322792491","10.0439139151802","3.09692025401376","2.08392000198364","2.25605320407633","1.89153127895819","","","","","","","","","",""
"34-023-0006","Acetaldehyde","40.472825","-74.422403","NOT IN A CITY","","AGRICULTURAL","","UATMP: NBNJ","meanRos_ug_m3","Yes","Decreasing","New Jersey","North Brunswick Township","Rural","New Brunswick","No","Acetaldehyde","3.11490721328586","7.4782293428809","6.41186186362957","3.4633302643614","1.62479384023635","2.639496079513","2.10214464685747","3.00911208987236","2.57818821937807","1.46988798355063","1.71366482204007","","2.11777893870564","","",""
"34-023-0011","Acetaldehyde","40.462182","-74.429439","NOT IN A CITY","","AGRICULTURAL","","Rutgers University","meanRos_ug_m3","No","Undetermined","New Jersey","East Brunswick (Township of)","Rural","Rutgers University","No","Acetaldehyde","","","","","","","","","","","","","","1.65283211370309","1.09294290685405","1.41339759051538"
"34-027-3001","Acetaldehyde","40.787628","-74.676301","NOT IN A CITY","","AGRICULTURAL","","UATMP: CHNJ","meanRos_ug_m3","Yes","Decreasing","New Jersey","Chester","Rural","Chester","No","Acetaldehyde","1.85087766626786","2.00341802945843","1.57561043567128","1.20054977978098","1.31244566657326","1.43393161173525","1.36873704592387","1.32693368499562","1.64233309812233","1.5390494850374","1.33833484082926","1.28400477965673","","1.21348102067908","1.15057190811193","1.03302843507339"
"34-039-0004","Acetaldehyde","40.64144","-74.208365","Elizabeth","","INDUSTRIAL","","UATMP: ELNJ; NADP: NJ54","meanRos_ug_m3","Yes","Decreasing","New Jersey","Elizabeth","Suburban","Elizabeth Lab","No","Acetaldehyde","4.31138194819876","4.95528401762752","5.23669363260269","5.76529066441423","5.97882545845849","2.42234892845154","2.55628857114276","2.81285038337869","3.35157087591828","2.74686940380784","2.69916683728578","2.89293360319294","2.57255834341049","2.58163029932585","2.56462764251428","2.35226640105247"
"35-001-0023","Acetaldehyde","35.1343","-106.5852","Albuquerque","","RESIDENTIAL","","Del Norte High School; 2ZM","meanRos_ug_m3","No","Undetermined","New Mexico","Albuquerque","Urban And Center City","DEL NORTE HIGH SCHOOL","No","Acetaldehyde","","","","","","","","","","","","","","","",""
"35-045-5501","Acetaldehyde","36.73633","-108.41737","Fruitland","","AGRICULTURAL","","Nenahnezad, NM school (Nenmsch)","meanRos_ug_m3","No","Undetermined","New Mexico","Not in a city","Rural","Nenahnezad, NM school (Nenmsch)","No","Acetaldehyde","","","","","","","","","1.22412632144988","","","","","","",""
"36-001-0013","Acetaldehyde","42.640931","-73.756511","Albany","","RESIDENTIAL","","","meanRos_ug_m3","No","Undetermined","New York","Not in a city","Urban And Center City","S. Pearl Street","No","Acetaldehyde","","","","","","","","","","","","","1.81071400361241","1.47132694134947","1.4859920477463","1.54435243762907"
"36-005-0083","Acetaldehyde","40.86585","-73.88083","New York City","","COMMERCIAL","","UATMP: BXNY","meanRos_ug_m3","No","Undetermined","New York","New York","Urban And Center City","BOTANICAL GARDEN","No","Acetaldehyde","","1.29163921032196","1.02361284059129","1.31096920761906","","","","","","","","","","","",""
"36-005-0133","Acetaldehyde","40.8679","-73.87809","NEW YORK CITY","","COMMERCIAL","","PFIZER LAB SITE; NADP: NY06","meanRos_ug_m3","No","No Trend","New York","New York","Urban And Center City","PFIZER LAB SITE","No","Acetaldehyde","","","","","1.43592927112418","1.33413288295269","1.21965500303993","1.32897407894081","1.17034042941199","1.44239405686395","1.23973404402621","1.33198508852058","1.49592810091045","1.27640099017346","1.08652352902197","1.3756579745147"
"36-029-0023","Acetaldehyde","42.921107","-78.765825","Cheektowaga","","MOBILE","","","meanRos_ug_m3","No","Undetermined","New York","Cheektowaga","Urban And Center City","Buffalo Near-Road","No","Acetaldehyde","","","","","","","","","","","","","1.42821531546743","1.29805299447225","1.07901785636352","1.0626572817564"
"36-029-1013","Acetaldehyde","42.98844","-78.91859","Tonawanda","","INDUSTRIAL","","UATMP: TONY; GRAND ISLE BOULDVARD","meanRos_ug_m3","No","Increasing","New York","Tonawanda","Urban And Center City","GRAND ISLE BOULDVARD","No","Acetaldehyde","","","","","","0.940403902325137","0.859359989140896","0.812891962409717","0.754766973179011","0.99147782391972","1.01759722143754","1.09277469621993","1.11596798021674","1.46191500635631","0.947458060875616","1.08876897561134"
"36-029-1014","Acetaldehyde","42.99813","-78.89926","Tonawanda","","RESIDENTIAL","","BROOKSIDE TERRACE","meanRos_ug_m3","No","No Trend","New York","Tonawanda","Suburban","BROOKSIDE TERRACE","No","Acetaldehyde","","","","","","0.968641930504849","0.79119811422295","0.85203642770648","0.817939805879928","0.90835764241773","","","1.67082691689332","1.06167346913227","","0.85416534261571"
"36-031-0003","Acetaldehyde","44.39308","-73.8589","SUNY","","FOREST","","WHITEFACE BASE","meanRos_ug_m3","Yes","No Trend","New York","Not in a city","Rural","WHITEFACE BASE","No","Acetaldehyde","","","0.287657367580794","0.791670058454786","0.548007263243198","0.537828291048769","0.544006987728856","0.501642792920272","0.522264207664289","0.615973368005932","0.666141392693656","0.517042082633513","0.613314878568053","0.756853902385685","0.519728622938457","0.938093083419583"
"36-055-0015","Acetaldehyde","43.145013","-77.55728","Rochester","","MOBILE","","","meanRos_ug_m3","No","Undetermined","New York","Rochester","Urban And Center City","Rochester Near-Road","No","Acetaldehyde","","","","","","","","","","","","","1.56744282281604","1.4228749088965","0.987271550248881","1.26124017238617"
"36-061-0077","Acetaldehyde","40.75623","-73.97657","NEW YORK CITY","","COMMERCIAL","","MIDTOWN","meanRos_ug_m3","No","Undetermined","New York","New York","Urban And Center City","MADISON AVE","No","Acetaldehyde","","","1.57545668069945","1.53545731065346","1.63140928477049","2.42914432126123","","","","","","","","","",""
"36-063-7001","Acetaldehyde","43.096373","-79.011447","Niagara Falls","","RESIDENTIAL","","","meanRos_ug_m3","No","Undetermined","New York","Niagara Falls","Suburban","Packard Court Community Center","No","Acetaldehyde","","","","","","","","","","","","","","","0.871102158879412","1.11909177949873"
"36-081-0097","Acetaldehyde","40.75527","-73.75861","New York City","","RESIDENTIAL","","QUEENSBORO COMMUNITY COLLEGE","meanRos_ug_m3","No","Undetermined","New York","New York","Urban And Center City","QUEENSBORO COMMUNITY COLLEGE","No","Acetaldehyde","","","","","","","","","","","","","","","",""
"36-081-0124","Acetaldehyde","40.73614","-73.82153","New York City","","COMMERCIAL","","PM Supersite: Queensborough","meanRos_ug_m3","Yes","No Trend","New York","New York","Urban And Center City","QUEENS COLLEGE 2","No","Acetaldehyde","","","1.58553364590324","1.29770862081399","1.32391785297129","1.41457942590631","1.27057833563198","1.39889377107223","1.18246367733393","1.30127138766375","1.82045185778822","1.21914370755355","2.36478393475215","1.47130607043703","2.9385010948721","1.76263440241579"
"36-081-0125","Acetaldehyde","40.739265","-73.817696","Flushing","","MOBILE","","Queens College Near Road","meanRos_ug_m3","No","Undetermined","New York","New York","Urban And Center City","Queens College Near Road","No","Acetaldehyde","","","","","","","","","","","","","","","1.74593509812104","1.55588833255283"
"36-085-0055","Acetaldehyde","40.63307","-74.13719","NEW YORK CITY","","RESIDENTIAL","","RICHMOND POST OFFICE","meanRos_ug_m3","No","Undetermined","New York","New York","Urban And Center City","RICHMOND POST OFFICE","No","Acetaldehyde","","","","","","","","","","","","","","","",""
"36-085-0101","Acetaldehyde","40.5875","-74.128056","NEW YORK CITY","","COMMERCIAL","","NEW YORK CITY","meanRos_ug_m3","No","Undetermined","New York","New York","Suburban","FRESHKILLS SITE","No","Acetaldehyde","","","","","","","","","","","","","","","",""
"36-085-0102","Acetaldehyde","40.543611","-74.198056","NEW YORK CITY","","COMMERCIAL","","NEW YORK CITY","meanRos_ug_m3","No","Undetermined","New York","New York","Suburban","NYS ID  7097-09","No","Acetaldehyde","","","","","","","","","","","","","","","",""
"36-085-0104","Acetaldehyde","40.575833","-74.177778","NEW YORK CITY","","COMMERCIAL","","COMPFAC","meanRos_ug_m3","No","Undetermined","New York","New York","Suburban","COMPOSTING FACILITY AT FRESHKILLS LANDFILL","No","Acetaldehyde","","","","","","","","","","","","","","","",""
"36-085-0105","Acetaldehyde","40.580556","-74.199444","NEW YORK CITY","","COMMERCIAL","","MET TWR","meanRos_ug_m3","No","Undetermined","New York","New York","Suburban","FRESHKILLS MET TOWER","No","Acetaldehyde","","","","","","","","","","","","","","","",""
"36-085-0106","Acetaldehyde","40.57811","-74.1843","New York City","","INDUSTRIAL","","UNLOADING ZONE FRESHKILLLS LANDFILL","meanRos_ug_m3","No","Undetermined","New York","New York","Urban And Center City","UNLOADING ZONE FRESHKILLLS LANDFILL","No","Acetaldehyde","1.18534082221465","","","","","","","","","","","","","","",""
"36-085-0107","Acetaldehyde","40.566944","-74.183611","NEW YORK CITY","","COMMERCIAL","","NEW YORK CITY","meanRos_ug_m3","No","Undetermined","New York","New York","Suburban","FRESHKILLS NETWORK","No","Acetaldehyde","","","","","","","","","","","","","","","",""
"36-085-0111","Acetaldehyde","40.58027","-74.19832","New York City","","COMMERCIAL","","FRESHKILLS WEST","meanRos_ug_m3","Yes","No Trend","New York","New York","Suburban","FRESHKILLS WEST","No","Acetaldehyde","1.81746351981864","","1.92339786364321","1.37578537795279","1.47076786489478","1.64802871316166","1.50763759406847","1.88066962932547","1.48400580818797","2.15223406468119","1.44898342729555","1.41161476103244","1.67608948969947","1.75646393636948","1.82842989103361","1.65853029515209"
"36-085-0131","Acetaldehyde","40.58806","-74.16882","New York City","","INDUSTRIAL","","FRESHKILLS EAST","meanRos_ug_m3","No","Undetermined","New York","New York","Urban And Center City","FRESHKILLS EAST","No","Acetaldehyde","0.500715364271774","","","","","","","","","","","","","","",""
"36-085-0132","Acetaldehyde","40.58056","-74.15178","New York City","","COMMERCIAL","","LATOURETTE GOLF COURSE","meanRos_ug_m3","No","No Trend","New York","New York","Suburban","LATOURETTE GOLF COURSE","No","Acetaldehyde","","","2.23793638202379","1.25980517511272","1.18194476211513","1.37743520052931","1.26548906134235","1.3107809821287","1.12552553652362","1.15817197236945","","","","","",""
"36-103-0009","Acetaldehyde","40.82799","-73.05754","HOLTSVILLE","","RESIDENTIAL","","HOLTSVILLE","meanRos_ug_m3","No","Undetermined","New York","Holtsville","Suburban","HOLTSVILLE","No","Acetaldehyde","","","","","","","","","","","","","","","",""
"37-021-0035","Acetaldehyde","35.57222","-82.55889","ASHEVILLE","","COMMERCIAL","","AB Tech","meanRos_ug_m3","No","Undetermined","North Carolina","Asheville","Suburban","AB Tech","No","Acetaldehyde","","","","","1.65077994404168","1.28385445884695","0.840160575819512","","","","","","","","",""
"37-063-0014","Acetaldehyde","35.892868","-78.876445","DURHAM","","COMMERCIAL","","UATMP: RTPNC; NADP: NC99","meanRos_ug_m3","No","Undetermined","North Carolina","Not in a city","Suburban","UATMP: RTPNC; NADP: NC99","No","Acetaldehyde","","","1.25158178820102","1.25057326751546","1.72997545925054","1.47666435718536","","","","","","","","","",""
"37-067-0022","Acetaldehyde","36.110693","-80.226438","WINSTON-SALEM","","RESIDENTIAL","","Hattie Avenue","meanRos_ug_m3","No","Undetermined","North Carolina","Winston-Salem","Urban And Center City","Hattie Avenue","No","Acetaldehyde","","","","","2.06564078231653","1.46978256354729","0.972599198243448","","","","","","","","",""
"37-105-0002","Acetaldehyde","35.4325","-79.2887","Sanford","","AGRICULTURAL","","Blackstone","meanRos_ug_m3","No","Undetermined","North Carolina","Sanford","Rural","Blackstone","No","Acetaldehyde","","","","","","","","","","","","0.818275397429701","0.967080929130316","0.959745818482978","0.935036322132486","0.972717028004783"
"37-119-0041","Acetaldehyde","35.2401","-80.785683","Charlotte","","RESIDENTIAL","","Garinger High School","meanRos_ug_m3","No","Undetermined","North Carolina","Charlotte","Urban And Center City","Garinger High School","No","Acetaldehyde","","","","","","1.83370055498615","1.18935955356102","","","","","","","","",""
"37-123-0001","Acetaldehyde","35.2632","-79.836613","Candor","","FOREST","","UATMP: CANC","meanRos_ug_m3","No","No Trend","North Carolina","Candor","Rural","Candor: EPA CASTNet Site","No","Acetaldehyde","","1.1937410334746","0.834653494120748","0.950556968338788","1.03285374897174","0.984903896047223","0.701957987983608","","","","","0.889674303642774","0.961560167868932","0.982296939140984","0.927627008905013","1.00890161468112"
"37-129-0010","Acetaldehyde","34.23583","-77.9547","WILMINGTON","","AGRICULTURAL","","BATTLESHIP","meanRos_ug_m3","No","Undetermined","North Carolina","Wilmington","Rural","Eagles Island","No","Acetaldehyde","","","","","1.06762291689714","0.919723221266101","0.605036596279769","","","","","","","","",""
"37-183-0014","Acetaldehyde","35.856111","-78.574167","RALEIGH","","RESIDENTIAL","","Millbrook Middle School","meanRos_ug_m3","No","No Trend","North Carolina","Raleigh","Suburban","Millbrook School","No","Acetaldehyde","","","","","1.67630360126495","","0.876020944263372","","","","","1.18375457103054","1.26364296724399","1.30625550395676","1.36710717529058","1.24918445783357"
"38-057-0004","Acetaldehyde","47.298611","-101.766944","Beulah","","AGRICULTURAL","","UATMP: BUND","meanRos_ug_m3","No","Undetermined","North Dakota","Not in a city","Rural","BEULAH NORTH","No","Acetaldehyde","","","","","","","","","","","","","","","",""
"39-035-0068","Acetaldehyde","41.454782","-81.634419","Cleveland","","COMMERCIAL","","F.S. NO. 11","meanRos_ug_m3","No","Undetermined","Ohio","Cleveland","Urban And Center City","F.S. NO. 11","No","Acetaldehyde","","","","","","","","","","","","","","","",""
"39-035-0069","Acetaldehyde","41.519003","-81.637754","CLEVELAND","","RESIDENTIAL","","F. S. NO. 22","meanRos_ug_m3","No","Undetermined","Ohio","Cleveland","Urban And Center City","F. S. NO. 22","No","Acetaldehyde","","","","","","","","","","","","","","","",""
"39-049-0034","Acetaldehyde","40.002734","-82.994404","Columbus","","COMMERCIAL","","UATMP: COOH","meanRos_ug_m3","No","Undetermined","Ohio","Columbus","Urban And Center City","Fairgrounds","No","Acetaldehyde","","","","","","2.35252228763796","","","","","","","","","",""
"40-017-0101","Acetaldehyde","35.479215","-97.751503","Yukon","","COMMERCIAL","","UATMP: YUOK; OKC WEST-(YUKON)","meanRos_ug_m3","No","Undetermined","Oklahoma","Yukon","Suburban","OKC WEST-(YUKON)","No","Acetaldehyde","","","","","","","","","","","","1.77260299686526","1.60168714240446","1.5629301804011","1.75154591818987","2.05290902791352"
"40-051-0065","Acetaldehyde","34.877064","-97.707801","BRADLEY","","RESIDENTIAL","","","meanRos_ug_m3","No","Undetermined","Oklahoma","Bradley","Rural","","No","Acetaldehyde","","","","","","","","","","","","","3.95491624772549","1.44026636282603","",""
"40-097-0187","Acetaldehyde","36.292941","-95.303409","PRYOR","","INDUSTRIAL","","UATMP: PROK","meanRos_ug_m3","No","Undetermined","Oklahoma","Pryor Creek (corporate name for Pryor)","Suburban","UATMP: PROK","No","Acetaldehyde","","","","","","","1.23726657301188","1.36758389572303","1.67891063772399","1.54630253829208","","","","","",""
"40-109-0041","Acetaldehyde","35.437641","-97.387254","MIDWEST CITY","","COMMERCIAL","","UATMP:MWOK","meanRos_ug_m3","No","Undetermined","Oklahoma","Midwest City","Urban And Center City","UATMP:MWOK","No","Acetaldehyde","","","","","","","1.20363044203856","1.37735411971807","1.96421308230077","","","","","","",""
"40-109-0042","Acetaldehyde","35.380316","-97.40572","Oklahoma City","","COMMERCIAL","","UATMP: ADOK","meanRos_ug_m3","No","Undetermined","Oklahoma","Oklahoma City","Urban And Center City","ADOK","No","Acetaldehyde","","","","","","","","","","1.79282711861564","","","","","",""
"40-109-0097","Acetaldehyde","35.50307","-97.577981","Oklahoma City","","COMMERCIAL","","Near Road","meanRos_ug_m3","No","Undetermined","Oklahoma","Oklahoma City","Urban And Center City","Near Road","No","Acetaldehyde","","","","","","","","","","","","","","1.93061345658804","2.03607680300872","2.21027192316557"
"40-109-1037","Acetaldehyde","35.614131","-97.475083","OKLAHOMA CITY","","RESIDENTIAL","","UATMP: OCOK","meanRos_ug_m3","No","No Trend","Oklahoma","Oklahoma City","Suburban","OKC NORTH","No","Acetaldehyde","","","","","","","1.61072570620439","1.55213662634293","2.32381442139546","2.2685273339351","1.81612808587121","1.69907538195451","1.86988014082114","1.59269423584143","1.68295373193553","2.02767122288545"
"40-121-0417","Acetaldehyde","34.8853302001953","-95.9488983154297","Not in a City","","RESIDENTIAL","","ASSIGN","meanRos_ug_m3","No","Undetermined","Oklahoma","Not in a city","Rural","Haywood Toxics","No","Acetaldehyde","","","","","","","","","","","","","","","","1.28641699634071"
"40-143-0172","Acetaldehyde","36.164528","-95.985479","TULSA","","RESIDENTIAL","","UATMP: TSOK","meanRos_ug_m3","No","Undetermined","Oklahoma","Tulsa","Suburban","EMMERSON SCHOOL","No","Acetaldehyde","","","","","1.56255060537108","1.3087920015905","","","","","","","","","",""
"40-143-0179","Acetaldehyde","36.15483","-96.015845","Tulsa","","INDUSTRIAL","","UATMP: TROK","meanRos_ug_m3","No","Increasing","Oklahoma","Tulsa","Urban And Center City","UATMP: TROK","No","Acetaldehyde","","","","","","","","","","","1.63992590200706","1.73579443966756","1.90805510444156","2.00354660925318","2.06362317526927","2.24326924613265"
"40-143-0191","Acetaldehyde","36.141697","-95.983793","TULSA","","RESIDENTIAL","","UATMP: TUOK","meanRos_ug_m3","No","Undetermined","Oklahoma","Tulsa","Urban And Center City","CINCINNATI","No","Acetaldehyde","","","","","2.13738837789317","1.70899255652177","","","","","","","","","",""
"40-143-0235","Acetaldehyde","36.126945","-95.998941","TULSA","","INDUSTRIAL","","UATMP: TOOK","meanRos_ug_m3","No","No Trend","Oklahoma","Tulsa","Urban And Center City","CENTER OF PARKING LOT OF PUBLIC WORKS BUILDING 1/4 MI N OF SINCLAIR","No","Acetaldehyde","","","","2.01083899221637","1.90706745132071","1.72400690242648","1.83664713751885","2.18796400030454","2.71236101218632","2.74952757553976","2.02396085223214","1.97165012066482","2.01069757739703","1.97087847111655","1.92237893479769","2.23268307037041"
"40-143-1127","Acetaldehyde","36.204902","-95.976537","Tulsa","Tulsa, OK","RESIDENTIAL","Urban","UATMP: TMOK","meanRos_ug_m3","No","Decreasing","Oklahoma","Tulsa","Urban And Center City","NORTH TULSA - FIRE STATION#24","No","Acetaldehyde","","","","","","","1.90494408839279","1.99414310554663","2.36464316336835","2.30405466839419","1.94503433684834","1.82046641745875","1.83782901267211","1.76514707704385","1.67402274649719","2.02114403345546"
"41-009-0004","Acetaldehyde","45.768531","-122.7721","NOT IN A CITY","","AGRICULTURAL","","SAUVIE ISLAND-SIS","meanRos_ug_m3","No","Undetermined","Oregon","Not in a city","Rural","SAUVIE ISLAND-SIS","No","Acetaldehyde","","","","","0.845692152326757","","","","","","","","","","",""
"41-029-0133","Acetaldehyde","42.31411","-122.87923","MEDFORD","","RESIDENTIAL","","Medford - Grant & Belmont Sts. (MGB)","meanRos_ug_m3","No","Undetermined","Oregon","Medford","Urban And Center City","Medford - Grant & Belmont Sts. (MGB)","No","Acetaldehyde","","","","","","1.78660420576731","1.77157317278749","1.41006553375115","","","","","","","",""
"41-029-1001","Acetaldehyde","42.535958","-122.876155","CENTRAL POINT","","AGRICULTURAL","","","meanRos_ug_m3","No","Undetermined","Oregon","Central Point","Rural","","No","Acetaldehyde","","","","","","1.40485923971449","","","","","","","","","",""
"41-029-2129","Acetaldehyde","42.33155","-122.880266","Medford","","RESIDENTIAL","","","meanRos_ug_m3","No","Undetermined","Oregon","Medford","Urban And Center City","Medford, Welch and Jackson.","No","Acetaldehyde","","","","","","","","","","2.70031648311975","","","","","",""
