"site_id","parameter_desc","latitude","longitude","city_name","location","land_use_type","setting","site_name","stat","used_in_nat_agg","trend","state_name","city_name","location_setting","local_site_name","natts","toxic_name_alias","2003","2004","2005","2006","2007","2008","2009","2010","2011","2012","2013","2014","2015","2016","2017","2018"
"01-073-2003","Cadmium Pm10 Lc","33.499722","-86.924167","BIRMINGHAM","","RESIDENTIAL","","Wylam","meanRos_ug_m3","No","Undetermined","Alabama","Birmingham","Suburban","Wylam","No","Cadmium","","","","","","","","","","","","","","","","0.00014255961514209"
"01-073-5502","Cadmium Pm10 Lc","33.5448","-86.8239","BIRMINGHAM","","COMMERCIAL","","Lewis Elementary School","meanRos_ug_m3","No","Undetermined","Alabama","Birmingham","Urban And Center City","Lewis Elementary School","No","Cadmium","","","","","","","","","","0.000569210530221952","","","","","",""
"01-073-5503","Cadmium Pm10 Lc","33.5684","-86.8029","BIRMINGHAM","","COMMERCIAL","","Riggins School","meanRos_ug_m3","No","Undetermined","Alabama","Birmingham","Urban And Center City","Riggins School","No","Cadmium","","","","","","","","","","0.000355897437540802","","","","","",""
"01-073-5505","Cadmium Pm10 Lc","33.556633","-86.805464","Birmingham","","RESIDENTIAL","","Hudson K-8","meanRos_ug_m3","No","Undetermined","Alabama","Birmingham","Urban And Center City","Hudson K-8","No","Cadmium","","","","","","","","","","0.000710833334273452","","","","","",""
"01-073-6004","Cadmium Pm10 Lc","33.565278","-86.796389","BIRMINGHAM","","RESIDENTIAL","","UATMP: SIAL; Sloss Industries","meanRos_ug_m3","No","Undetermined","Alabama","Birmingham","Urban And Center City","Sloss Shuttlesworth","No","Cadmium","","","","","","","","","","0.000410810808102109","","","","","",""
"04-013-4009","Cadmium Pm10 Lc","33.40642","-112.14434","Phoenix","","INDUSTRIAL","","UATMP: MCAZ","meanRos_ug_m3","No","Undetermined","Arizona","Phoenix","Urban And Center City","WEST 43RD AVENUE","No","Cadmium","","","","","","","","0.00152034941810317","","","","","","","",""
"12-057-1065","Cadmium Pm10 Lc","27.892523","-82.538429","Tampa","","COMMERCIAL","","UATMP: GAFL; NADP: FL18; PILOT CITY: Gandy","meanRos_ug_m3","No","No Trend","Florida","Tampa","Suburban","USMC Reserve Center (Gandy)","No","Cadmium","","0.000136253909371781","0.000180345025849723","0.000216876915054222","0.000140705533494376","0.000123557211811173","","","","","","","","","",""
"12-095-1004","Cadmium Pm10 Lc","28.551112","-81.345347","ORLANDO","","COMMERCIAL","","UATMP: PAFL","meanRos_ug_m3","No","Decreasing","Florida","Orlando","Suburban","Primrose Ave","No","Cadmium","","","","","","9.75264951800151e-05","8.13623160103171e-05","6.23287831331254e-05","5.60149290581565e-05","","","","2.55790623214125e-05","3.67618371607629e-05","",""
"12-095-2002","Cadmium Pm10 Lc","28.596389","-81.3625","Winter Park","","COMMERCIAL","","UATMP: ORFL","meanRos_ug_m3","No","No Trend","Florida","Winter Park","Urban And Center City","WINTER PARK","No","Cadmium","","","","","","","","","","0.000108201479374007","8.15906509766743e-05","8.55395886295203e-05","2.55707267721543e-05","3.67618371607629e-05","",""
"12-103-0018","Cadmium Pm10 Lc","27.785866","-82.739875","SAINT PETERSBURG","","RESIDENTIAL","","UATMP: AZFL; PILOT CITY: Azalea Park","meanRos_ug_m3","Yes","Decreasing","Florida","Saint Petersburg","Suburban","Azalea Park","No","Cadmium","","","0.000119203873812997","0.000200702221142516","0.000110005876503222","9.84472610041133e-05","9.82312801278244e-05","0.000101530676579759","8.3662393229983e-05","8.93022681680196e-05","5.73307304319663e-05","5.39893596623568e-05","4.4875957705776e-05","0.000118097635706482","",""
"16-001-0100","Cadmium Pm10 Lc","43.6013","-116.3473","Meridian","","COMMERCIAL","","","meanRos_ug_m3","No","Undetermined","Idaho","Not in a city","Suburban","","No","Cadmium","","","","","8.7996493026107e-05","","","","","","","","","","",""
"16-001-0200","Cadmium Pm10 Lc","43.5776","-116.1777","Boise","","RESIDENTIAL","","White Pine Elementary School","meanRos_ug_m3","No","Undetermined","Idaho","Boise City (corporate name for Boise)","Urban And Center City","White Pine Elementary School","No","Cadmium","","","","","8.12258939558454e-05","","","","","","","","","","",""
"16-001-0300","Cadmium Pm10 Lc","43.63667","-116.27022","Boise","","RESIDENTIAL","","Mt. View","meanRos_ug_m3","No","Undetermined","Idaho","Boise City (corporate name for Boise)","Urban And Center City","Mt. View","No","Cadmium","","","","","0.000113117954529834","","","","","","","","","","",""
"16-027-0004","Cadmium Pm10 Lc","43.562401","-116.563232","Nampa","","RESIDENTIAL","","NORTHWEST NAZARENE COLLEGE SAMPLER ON ARTS BUILDING IN SUB. SETTING","meanRos_ug_m3","No","Undetermined","Idaho","Nampa","Suburban","NORTHWEST NAZARENE COLLEGE SAMPLER ON ARTS BUILDING IN SUB. SETTING","No","Cadmium","","","","","7.39873068642994e-05","","","","","","","","","","",""
"16-027-0400","Cadmium Pm10 Lc","43.7872","-116.9596","Parma","","AGRICULTURAL","","Parma","meanRos_ug_m3","No","Undetermined","Idaho","Not in a city","Rural","Parma","No","Cadmium","","","","","0.000138332979885389","","","","","","","","","","",""
"16-069-0006","Cadmium Pm10 Lc","46.429561","-116.992427","Lewiston","","INDUSTRIAL","","","meanRos_ug_m3","No","Undetermined","Idaho","Lewiston","Suburban","","No","Cadmium","","","","0.000110873622108759","","","","","","","","","","","",""
"16-069-0009","Cadmium Pm10 Lc","46.417778","-117.018611","Lewiston","","COMMERCIAL","","","meanRos_ug_m3","No","Undetermined","Idaho","Lewiston","Urban And Center City","","No","Cadmium","","","","8.81403646417311e-05","","","","","","","","","","","",""
"16-069-0012","Cadmium Pm10 Lc","46.408352","-116.992533","Lewiston","","RESIDENTIAL","","SUNSET PARK LOCATION, BETWEEN CITY CENTER AND POTLACH CORP.,","meanRos_ug_m3","No","Undetermined","Idaho","Lewiston","Suburban","Lewiston","No","Cadmium","","","","5.56348051961524e-05","","","","","","","","","","","",""
"16-069-0013","Cadmium Pm10 Lc","46.3972","-116.8062","Lapwei","","RESIDENTIAL","","","meanRos_ug_m3","No","Undetermined","Idaho","Not in a city","Rural","","No","Cadmium","","","","0.000104223072707395","","","","","","","","","","","",""
"16-069-0222","Cadmium Pm10 Lc","46.438089","-116.905182","NOT IN A CITY","","COMMERCIAL","","","meanRos_ug_m3","No","Undetermined","Idaho","Not in a city","Rural","","No","Cadmium","","","","6.18356835319701e-05","","","","","","","","","","","",""
"17-031-0014","Cadmium Pm10 Lc","41.834276","-87.623851","CHICAGO","","COMMERCIAL","","CHICAGO","meanRos_ug_m3","No","Undetermined","Illinois","Chicago","Suburban","FARR HALL","No","Cadmium","","","","","","","","","","","","","","","",""
"17-031-0022","Cadmium Pm10 Lc","41.687165","-87.539315","Chicago","","INDUSTRIAL","","UATMP: WASH","meanRos_ug_m3","No","Undetermined","Illinois","Chicago","Suburban","WASHINGTON HS","No","Cadmium","","","","","","","","","","","","","","","",""
"17-031-0049","Cadmium Pm10 Lc","41.896977","-87.623664","CHICAGO","","COMMERCIAL","","CHICAGO","meanRos_ug_m3","No","Undetermined","Illinois","Chicago","Urban And Center City","CHICAGO","No","Cadmium","","","","","","","","","","","","","","","",""
"17-031-0052","Cadmium Pm10 Lc","41.965485","-87.749928","Chicago","","COMMERCIAL","","MAYFAIR PUMP STATION","meanRos_ug_m3","No","Undetermined","Illinois","Chicago","Suburban","MAYFAIR PUMP STATION","No","Cadmium","","","","","","","","","","","","","","","",""
"17-031-0060","Cadmium Pm10 Lc","41.656518","-87.589574","CHICAGO","","RESIDENTIAL","","UATMP: CARV","meanRos_ug_m3","No","Undetermined","Illinois","Chicago","Suburban","CARVER HS","No","Cadmium","","","","","","","","","","","","","","","",""
"17-031-6001","Cadmium Pm10 Lc","41.859754","-87.750334","CICERO","","RESIDENTIAL","","CICERO","meanRos_ug_m3","No","Undetermined","Illinois","Cicero","Suburban","CICERO","No","Cadmium","","","","","","","","","","","","","","","",""
"17-031-XROW","Cadmium Pm10 Lc","41.68666","-87.53973","CHICAGO","","INDUSTRIAL","","XAct Monitoring Site: Rowan","meanRos_ug_m3","No","Undetermined","Illinois","CHICAGO","","XAct Monitoring Site: Rowan","No","Cadmium","","","","","","","","","","","","","0.00403103380250577","","",""
"17-115-0002","Cadmium Pm10 Lc","39.859481","-88.924799","DECATUR","","INDUSTRIAL","","DECATUR","meanRos_ug_m3","No","Undetermined","Illinois","Decatur","Suburban","DECATUR","No","Cadmium","","","","","","","","","","","","","","","",""
"17-117-0002","Cadmium Pm10 Lc","39.396075","-89.809739","Nilwood","","AGRICULTURAL","","IEPA TRAILER","meanRos_ug_m3","No","Undetermined","Illinois","Nilwood","Rural","IEPA TRAILER","No","Cadmium","","","","","","","","","","","","","","","",""
"17-119-0010","Cadmium Pm10 Lc","38.694438","-90.153954","Granite City","","INDUSTRIAL","","AIR PRODUCTS","meanRos_ug_m3","No","Undetermined","Illinois","Granite City","Urban And Center City","AIR PRODUCTS","No","Cadmium","","","","","","","","","","","","","","","",""
"17-119-1007","Cadmium Pm10 Lc","38.704534","-90.139675","GRANITE CITY","","INDUSTRIAL","","GRANITE CITY","meanRos_ug_m3","No","Undetermined","Illinois","Granite City","Urban And Center City","FIRESTATION #1","No","Cadmium","","","","","","","","","","","","","","","",""
"17-143-0037","Cadmium Pm10 Lc","40.697007","-89.584737","Peoria","","COMMERCIAL","","CITY OFFICE BUILDING","meanRos_ug_m3","No","Undetermined","Illinois","Peoria","Urban And Center City","CITY OFFICE BUILDING","No","Cadmium","","","","","","","","","","","","","","","",""
"17-161-0001","Cadmium Pm10 Lc","41.514478","-90.440409","EAST MOLINE","","COMMERCIAL","","","meanRos_ug_m3","No","Undetermined","Illinois","East Moline","Urban And Center City","","No","Cadmium","","","","","","","","","","","","","","","",""
"17-163-0010","Cadmium Pm10 Lc","38.612034","-90.160477","East St Louis","","INDUSTRIAL","","IEPA-RAPS TRAILER","meanRos_ug_m3","No","Undetermined","Illinois","East Saint Louis","Suburban","IEPA-RAPS TRAILER","No","Cadmium","","","","","","","","","","","","","","","",""
"17-163-9010","Cadmium Pm10 Lc","38.612034","-90.160477","NOT IN A CITY","","INDUSTRIAL","","ST. LOUIS - MIDWEST SUPERSITE","meanRos_ug_m3","No","Undetermined","Illinois","Not in a city","Suburban","ST. LOUIS - MIDWEST SUPERSITE","No","Cadmium","","","","","","","","0.00144575880666424","","","","","","","",""
"17-201-XROC","Cadmium Pm10 Lc","42.25711","-89.09141","Rockford","","","","XAct Monitoring Site: Rockford","meanRos_ug_m3","No","Undetermined","Illinois","Rockford","","XAct Monitoring Site: Rockford","No","Cadmium","","","","","","","","","","","","0.00414342222526792","","","",""
"18-089-0022","Cadmium Pm10 Lc","41.60668","-87.304729","Gary","","INDUSTRIAL","","UATMP: INDEM","meanRos_ug_m3","No","Undetermined","Indiana","Gary","Urban And Center City","Gary-IITRI/ 1219.5 meters east of Tennessee St.- old ammuntion bunker","No","Cadmium","","","","","","0.000436731516752042","","","","","","","","","",""
"18-089-0023","Cadmium Pm10 Lc","41.65274","-87.439551","East Chicago","","INDUSTRIAL","","East Chicago Water Flitration Plant","meanRos_ug_m3","No","No Trend","Indiana","East Chicago","Urban And Center City","SITE MOVED FROM EAST CHICAGO FIELD SCHOOL","No","Cadmium","0.000752908779293209","0.000957256986850558","0.00077141529234713","0.000886062008325776","","0.000678837846035921","","","","","","","","","",""
"18-097-0057","Cadmium Pm10 Lc","39.749019","-86.186314","INDIANAPOLIS","","RESIDENTIAL","","UATMP: ININ","meanRos_ug_m3","No","Undetermined","Indiana","Indianapolis (Remainder)","Urban And Center City","Indpls- Harding St.","No","Cadmium","","","","","0.000281749798462746","0.000238977054141287","","","","","","","","","",""
"18-097-0085","Cadmium Pm10 Lc","39.740383","-86.22595","INDIANAPOLIS","","MILITARY RESERVATION","","UATMP: IDIN","meanRos_ug_m3","No","Undetermined","Indiana","Indianapolis (Remainder)","Urban And Center City","Stout Field 2","No","Cadmium","","","","","0.000235745061581838","0.000213955613596934","","","","","","","","","",""
"20-029-0001","Cadmium Pm10 Lc","39.571669","-97.657261","CONCORDIA","","COMMERCIAL","","CONCORDIA","meanRos_ug_m3","No","Undetermined","Kansas","Concordia","Suburban","CONCORDIA","No","Cadmium","","","","","","","","","","","","","","","",""
"20-029-0002","Cadmium Pm10 Lc","39.569002","-97.660123","CONCORDIA","","COMMERCIAL","","CONCORDIA","meanRos_ug_m3","No","Undetermined","Kansas","Concordia","Suburban","POINT=CENTER OF MASS OF MANMADE MATERIALS AT SITE","No","Cadmium","","","","","","","","","","","","","","","",""
"20-057-0001","Cadmium Pm10 Lc","37.771964","-100.01819","DODGE CITY","","COMMERCIAL","","DODGE CITY","meanRos_ug_m3","No","Undetermined","Kansas","Dodge City","Suburban","DODGE CITY","No","Cadmium","","","","","","","","","","","","","","","",""
"20-071-0001","Cadmium Pm10 Lc","38.466127","-101.775729","TRIBUNE","","AGRICULTURAL","","POINT=CENTER OF MASS OF MAN-MADE MATERIALS AT SITE","meanRos_ug_m3","No","Undetermined","Kansas","Not in a city","Rural","POINT=CENTER OF MASS OF MAN-MADE MATERIALS AT SITE","No","Cadmium","","","","","","","","","","","","","","","",""
"20-091-0006","Cadmium Pm10 Lc","38.993895","-94.673014","OVERLAND PARK","","RESIDENTIAL","","OVERLAND PARK","meanRos_ug_m3","No","Undetermined","Kansas","Overland Park","Urban And Center City","OVERLAND PARK","No","Cadmium","","","","","","","","","","","","","","","",""
"20-091-0007","Cadmium Pm10 Lc","38.974457","-94.687013","OVERLAND PARK","","COMMERCIAL","","OVERLAND PARK","meanRos_ug_m3","No","Undetermined","Kansas","Overland Park","Urban And Center City","JUSTICE CENTER","No","Cadmium","","","","","","","","","","","","","","","",""
"20-091-2002","Cadmium Pm10 Lc","38.95695","-94.695237","OVERLAND PARK","","RESIDENTIAL","","OVERLAND PARK","meanRos_ug_m3","No","Undetermined","Kansas","Overland Park","Urban And Center City","OVERLAND PARK","No","Cadmium","","","","","","","","","","","","","","","",""
"20-093-0001","Cadmium Pm10 Lc","37.980689","-101.133168","DEERFIELD","","COMMERCIAL","","POINT=CENTER OF MANMADE MATERIALS AT SITE","meanRos_ug_m3","No","Undetermined","Kansas","Not in a city","Rural","POINT=CENTER OF MANMADE MATERIALS AT SITE","No","Cadmium","","","","","","","","","","","","","","","",""
"20-129-0003","Cadmium Pm10 Lc","37.315578","-101.775167","NOT IN A CITY","","AGRICULTURAL","","POINT=CENTER OF MASS OF MANMADE MATERIALS AT SITE","meanRos_ug_m3","No","Undetermined","Kansas","Not in a city","Rural","POINT=CENTER OF MASS OF MANMADE MATERIALS AT SITE","No","Cadmium","","","","","","","","","","","","","","","",""
"20-133-0002","Cadmium Pm10 Lc","37.676308","-95.474659","CHANUTE","","RESIDENTIAL","","CHANUTE","meanRos_ug_m3","No","Undetermined","Kansas","Chanute","Suburban","CHANUTE","No","Cadmium","","","","","","","","","","","","","","","",""
"20-145-0001","Cadmium Pm10 Lc","38.176264","-99.108408","LARNED","","RESIDENTIAL","","LARNED","meanRos_ug_m3","No","Undetermined","Kansas","Larned","Suburban","POINT=CENTER OF MASS OF MANMADE MATERIALS AT SITE","No","Cadmium","","","","","","","","","","","","","","","",""
"20-173-0007","Cadmium Pm10 Lc","37.708902","-97.375601","WICHITA","","COMMERCIAL","","UATMP: W2KS","meanRos_ug_m3","No","Undetermined","Kansas","Wichita","Suburban","13TH & ST PAUL","No","Cadmium","","","","","","","","","","","","","","","",""
"20-173-0008","Cadmium Pm10 Lc","37.659334","-97.297714","WICHITA","","COMMERCIAL","","WICHITA","meanRos_ug_m3","No","Undetermined","Kansas","Wichita","Suburban","WASH & SKINNER","No","Cadmium","","","","","","","","","","","","","","","",""
"20-173-0009","Cadmium Pm10 Lc","37.651114","-97.362212","WICHITA","","RESIDENTIAL","","PAWNEE & GLENN","meanRos_ug_m3","No","Undetermined","Kansas","Wichita","Suburban","PAWNEE & GLENN","No","Cadmium","","","","","","","","","","","","","","","",""
"20-173-1012","Cadmium Pm10 Lc","37.747085","-97.316912","WICHITA","","INDUSTRIAL","","WICHITA","meanRos_ug_m3","No","Undetermined","Kansas","Wichita","Suburban","HYDRAULIC","No","Cadmium","","","","","","","","","","","","","","","",""
"20-177-0007","Cadmium Pm10 Lc","39.074722","-95.660537","TOPEKA","","RESIDENTIAL","","TOPEKA","meanRos_ug_m3","No","Undetermined","Kansas","Topeka","Urban And Center City","TOPEKA","No","Cadmium","","","","","","","","","","","","","","","",""
"20-177-0009","Cadmium Pm10 Lc","39.01889","-95.743594","TOPEKA","","RESIDENTIAL","","TOPEKA","meanRos_ug_m3","No","Undetermined","Kansas","Topeka","Suburban","POINT=CENTER OF MASS OF MANMADE MATERIALS AT SITE","No","Cadmium","","","","","","","","","","","","","","","",""
"20-181-0001","Cadmium Pm10 Lc","39.348452","-101.713405","GOODLAND","","COMMERCIAL","","GOODLAND","meanRos_ug_m3","No","Undetermined","Kansas","Goodland","Urban And Center City","GOODLAND","No","Cadmium","","","","","","","","","","","","","","","",""
"20-209-0015","Cadmium Pm10 Lc","39.087949","-94.621453","KANSAS CITY","","INDUSTRIAL","","KANSAS CITY","meanRos_ug_m3","No","Undetermined","Kansas","Kansas City","Urban And Center City","420 KANSAS","No","Cadmium","","","","","","","","","","","","","","","",""
"20-209-0020","Cadmium Pm10 Lc","39.151393","-94.617734","KANSAS CITY","","INDUSTRIAL","","UATMP: KCKS","meanRos_ug_m3","No","Undetermined","Kansas","Kansas City","Urban And Center City","KINDELBERGER","No","Cadmium","","","","","","","","","","","","","","","",""
"21-019-0002","Cadmium Pm10 Lc","38.47676","-82.63137","ASHLAND","","INDUSTRIAL","","UATMP: ASKY-M","meanRos_ug_m3","No","Decreasing","Kentucky","Ashland","Urban And Center City","21ST & GREENUP","No","Cadmium","","","","0.000622271495531305","0.000810897476475115","0.000492672795538955","0.000427001687460958","0.000580464088377375","0.000517775155285583","0.000570699830198216","0.000408675093725227","0.000238154006060001","0.000324818681705934","0.000403684356073923","0.000241161968069878","0.000211901200409078"
"21-067-0012","Cadmium Pm10 Lc","38.06503","-84.49761","LEXINGTON-FAYETTE","","RESIDENTIAL","","UATMP: LEKY","meanRos_ug_m3","No","No Trend","Kentucky","Lexington-Fayette (corporate name for Lexington)","Suburban","LEXINGTON PRIMARY","No","Cadmium","","","","","","","","","","9.84740988659909e-05","9.64890402068498e-05","7.63245221345902e-05","9.1104368168869e-05","7.69077243913148e-05","7.14917928774612e-05","7.76518339223817e-05"
"21-067-0014","Cadmium Pm10 Lc","38.038966","-84.507439","LEXINGTON-FAYETTE","","RESIDENTIAL","","","meanRos_ug_m3","No","Undetermined","Kentucky","Lexington-Fayette (corporate name for Lexington)","Urban And Center City","","No","Cadmium","","","","","","","","","9.22411642629824e-05","","","","","","",""
"21-101-0014","Cadmium Pm10 Lc","37.8712","-87.46375","NOT IN A CITY","","COMMERCIAL","","UATMP: BAKY","meanRos_ug_m3","No","Decreasing","Kentucky","Not in a city","Rural","BASKETT","No","Cadmium","","","","","","","","","","0.000130558109109794","0.000129329465168363","0.000105330485141543","0.00010301051114909","9.56843780778431e-05","9.33995324582308e-05","9.98345548029184e-05"
"21-139-0004","Cadmium Pm10 Lc","37.07151","-88.33389","NOT IN A CITY","","AGRICULTURAL","","UATMP: BLKY","meanRos_ug_m3","No","Undetermined","Kentucky","Smithland","Rural","BLOODWORTH","No","Cadmium","","","","","","","","","","","","","7.80227564550217e-05","7.55487531254619e-05","8.04298987979133e-05","8.99291962935322e-05"
"21-157-0018","Cadmium Pm10 Lc","37.02702","-88.34387","CALVERT CITY","","RESIDENTIAL","","UATMP: CCKY; CALVERT CITY ELEMENTARY","meanRos_ug_m3","No","Decreasing","Kentucky","Calvert City (RR name Calvert)","Suburban","Calvert City Elementary","No","Cadmium","","","","0.000462917807464836","","","","","0.000105727138923647","0.000104151823944102","9.39558614001206e-05","7.9735222687127e-05","","","",""
"21-183-0032","Cadmium Pm10 Lc","37.319769","-86.956091","NOT IN A CITY","","AGRICULTURAL","","ECHOLS","meanRos_ug_m3","No","Undetermined","Kentucky","Not in a city","Rural","ECHOLS","No","Cadmium","","","","","","","","","","","","","","","",""
"26-005-0002","Cadmium Pm10 Lc","42.464197","-86.17003","SOUTH HAVEN","","AGRICULTURAL","","SOUTH HAVEN","meanRos_ug_m3","No","Undetermined","Michigan","South Haven","Rural","SOUTH HAVEN","No","Cadmium","","","","","","","","","","","","","","","",""
"26-031-0001","Cadmium Pm10 Lc","45.5589","-84.674765","PELLSTON","","FOREST","","PELLSTON","meanRos_ug_m3","No","Undetermined","Michigan","Pennellwood","Rural","PELLSTON","No","Cadmium","","","","","","","","","","","","","","","",""
"26-077-0905","Cadmium Pm10 Lc","42.278097","-85.541949","KALAMAZOO","","COMMERCIAL","","KALAMAZOO","meanRos_ug_m3","No","Undetermined","Michigan","Kalamazoo","Urban And Center City","KALAMAZOO","No","Cadmium","","","","","","","","","","","","","","","",""
"26-139-0009","Cadmium Pm10 Lc","42.790023","-86.114485","Holland","","COMMERCIAL","","100 FEET SOUTH OF 8TH STREET","meanRos_ug_m3","No","Undetermined","Michigan","Holland","Urban And Center City","100 FEET SOUTH OF 8TH STREET","No","Cadmium","","","","","","","","","","","","","","","",""
"26-151-0002","Cadmium Pm10 Lc","43.571687","-82.646873","DECKERVILLE","","AGRICULTURAL","","DECKERVILLE","meanRos_ug_m3","No","Undetermined","Michigan","Deckerville","Rural","DECKERVILLE","No","Cadmium","","","","","","","","","","","","","","","",""
"26-157-0001","Cadmium Pm10 Lc","43.368605","-83.569065","Vassar","","RESIDENTIAL","","","meanRos_ug_m3","No","Undetermined","Michigan","Vassar","Suburban","","No","Cadmium","","","","","","","","","","","0.000427570058175991","0.000105439258280516","","","",""
"26-161-8001","Cadmium Pm10 Lc","42.416979","-83.901889","DEXTER","","AGRICULTURAL","","DEXTER","meanRos_ug_m3","No","Undetermined","Michigan","Dexter","Rural","DEXTER","No","Cadmium","","","","","","","","","","","","","","","",""
"26-163-0001","Cadmium Pm10 Lc","42.22862","-83.2082","Allen Park","","COMMERCIAL","","UATMP: APMI; IMPROVE: DETR1; PILOT CITY: Allen Park","meanRos_ug_m3","No","No Trend","Michigan","Allen Park","Suburban","Allen Park","No","Cadmium","","","","","","","","0.000326779595232407","0.000202064590343132","0.0002861023422156","0.000400671019339755","0.000295579661153971","0.000338304353323926","0.0003279320239623","0.000253819560107254","0.000227346042811405"
"27-123-0866","Cadmium Pm10 Lc","44.89926","-93.01708","SAINT PAUL","","INDUSTRIAL","","Red Rock Rd.","meanRos_ug_m3","No","Undetermined","Minnesota","St. Paul","Suburban","Red Rock Road","No","Cadmium","","","","","","","","","","","","","","","",""
"27-137-7001","Cadmium Pm10 Lc","47.523355","-92.536305","Virginia","","COMMERCIAL","","Virginia","meanRos_ug_m3","No","Undetermined","Minnesota","Virginia","Urban And Center City","Virginia City Hall","No","Cadmium","","","","","","","","","","","","","","","",""
"27-137-7550","Cadmium Pm10 Lc","46.81826","-92.08936","DULUTH","","RESIDENTIAL","","DULUTH","meanRos_ug_m3","No","Undetermined","Minnesota","Duluth","Suburban","U of M - Duluth","No","Cadmium","","","","","","","","","","","","","","","",""
"30-007-0011","Cadmium Pm10 Lc","46.30993","-111.673588","NOT IN A CITY","","FOREST","","","meanRos_ug_m3","No","Undetermined","Montana","Not in a city","Rural","","No","Cadmium","","","","","","","","","","","","","","","",""
"30-007-0015","Cadmium Pm10 Lc","46.31743","-111.681088","Townsend","","INDUSTRIAL","","DIAMOND HILL MINE DOWNWIND,INDIAN CRK RD;ACCESS RD 150 MTRS E","meanRos_ug_m3","No","Undetermined","Montana","Not in a city","Rural","DIAMOND HILL MINE DOWNWIND,INDIAN CRK RD;ACCESS RD 150 MTRS E","No","Cadmium","","","","","","","","","","","","","","","",""
"30-023-0010","Cadmium Pm10 Lc","46.131593","-112.940042","ANACONDA","","RESIDENTIAL","","ANACONDA-DEER LODGE COUNTY","meanRos_ug_m3","No","Undetermined","Montana","Anaconda-Deer Lodge County","Suburban","ANACONDA-DEER LODGE COUNTY","No","Cadmium","","","","","","","","","","","","","","","",""
"30-023-0011","Cadmium Pm10 Lc","46.120482","-112.912541","ANACONDA","","INDUSTRIAL","","ANACONDA-DEER LODGE COUNTY","meanRos_ug_m3","No","Undetermined","Montana","Anaconda-Deer Lodge County","Rural","ANACONDA-DEER LODGE COUNTY","No","Cadmium","","","","","","","","","","","","","","","",""
"30-023-0706","Cadmium Pm10 Lc","46.104093","-112.879484","ANACONDA","","FOREST","","ANACONDA-DEER LODGE COUNTY","meanRos_ug_m3","No","Undetermined","Montana","Anaconda-Deer Lodge County","Rural","ANACONDA-DEER LODGE COUNTY","No","Cadmium","","","","","","","","","","","","","","","",""
"30-023-0714","Cadmium Pm10 Lc","46.129093","-112.926986","ANACONDA","","COMMERCIAL","","","meanRos_ug_m3","No","Undetermined","Montana","Anaconda-Deer Lodge County","Suburban","","No","Cadmium","","","","","","","","","","","","","","","",""
"30-027-0004","Cadmium Pm10 Lc","47.286922","-109.461573","HILGER","","INDUSTRIAL","","CR KENDALL-N TOWNSITE #3, HILGER","meanRos_ug_m3","No","Undetermined","Montana","Not in a city","Rural","CR KENDALL-N TOWNSITE #3, HILGER","No","Cadmium","","","","","","","","","","","","","","","",""
"30-027-0005","Cadmium Pm10 Lc","47.273589","-109.456573","HILGER","","INDUSTRIAL","","CR KENDALL-BSA SITE #4, HILGER","meanRos_ug_m3","No","Undetermined","Montana","Not in a city","Rural","CR KENDALL-BSA SITE #4, HILGER","No","Cadmium","","","","","","","","","","","","","","","",""
"30-043-0011","Cadmium Pm10 Lc","45.888816","-112.014713","NOT IN A CITY","","INDUSTRIAL","","","meanRos_ug_m3","No","Undetermined","Montana","Not in a city","Rural","","No","Cadmium","","","","","","","","","","","","","","","",""
"30-043-0012","Cadmium Pm10 Lc","45.916594","-111.99249","NOT IN A CITY","","INDUSTRIAL","","","meanRos_ug_m3","No","Undetermined","Montana","Not in a city","Rural","","No","Cadmium","","","","","","","","","","","","","","","",""
"30-043-0024","Cadmium Pm10 Lc","46.191039","-111.961657","NOT IN A CITY","","FOREST","","","meanRos_ug_m3","No","Undetermined","Montana","Not in a city","Rural","","No","Cadmium","","","","","","","","","","","","","","","",""
"30-043-0025","Cadmium Pm10 Lc","46.272984","-111.947491","NOT IN A CITY","","FOREST","","","meanRos_ug_m3","No","Undetermined","Montana","Not in a city","Rural","","No","Cadmium","","","","","","","","","","","","","","","",""
"30-043-0026","Cadmium Pm10 Lc","46.286873","-111.953602","NOT IN A CITY","","FOREST","","","meanRos_ug_m3","No","Undetermined","Montana","Not in a city","Rural","","No","Cadmium","","","","","","","","","","","","","","","",""
"30-071-0002","Cadmium Pm10 Lc","47.898327","-108.624597","NOT IN A CITY","","RESIDENTIAL","","","meanRos_ug_m3","No","Undetermined","Montana","Not in a city","Rural","","No","Cadmium","","","","","","","","","","","","","","","",""
"30-071-0003","Cadmium Pm10 Lc","47.917217","-108.588762","NOT IN A CITY","","INDUSTRIAL","","","meanRos_ug_m3","No","Undetermined","Montana","Not in a city","Rural","","No","Cadmium","","","","","","","","","","","","","","","",""
"30-071-0005","Cadmium Pm10 Lc","47.917496","-108.521814","Zortman","","RESIDENTIAL","","","meanRos_ug_m3","No","Undetermined","Montana","Not in a city","Rural","","No","Cadmium","","","","","","","","","","","","","","","",""
"30-071-0006","Cadmium Pm10 Lc","47.917774","-108.51098","NOT IN A CITY","","RESIDENTIAL","","","meanRos_ug_m3","No","Undetermined","Montana","Not in a city","Rural","","No","Cadmium","","","","","","","","","","","","","","","",""
"30-071-0007","Cadmium Pm10 Lc","47.883327","-108.625152","NOT IN A CITY","","AGRICULTURAL","","","meanRos_ug_m3","No","Undetermined","Montana","Not in a city","Rural","","No","Cadmium","","","","","","","","","","","","","","","",""
"30-071-0008","Cadmium Pm10 Lc","47.883607","-108.498201","Zortman","","AGRICULTURAL","","","meanRos_ug_m3","No","Undetermined","Montana","Not in a city","Rural","","No","Cadmium","","","","","","","","","","","","","","","",""
"30-095-0002","Cadmium Pm10 Lc","45.388274","-109.867678","NOT IN A CITY","","INDUSTRIAL","","","meanRos_ug_m3","No","Undetermined","Montana","Not in a city","Rural","","No","Cadmium","","","","","","","","","","","","","","","",""
"33-011-0020","Cadmium Pm10 Lc","42.995778","-71.462528","Manchester","","COMMERCIAL","","PEARL ST MUNICIPAL PARKING LOT","meanRos_ug_m3","No","Undetermined","New Hampshire","Manchester","Urban And Center City","PEARL ST MUNICIPAL PARKING LOT","No","Cadmium","0.00115859133996613","0.000441594421447787","","","","","","","","","","","","","",""
"33-013-1003","Cadmium Pm10 Lc","43.177304","-71.462014","Pembroke","","RESIDENTIAL","","","meanRos_ug_m3","No","Undetermined","New Hampshire","Pembroke","Rural","","No","Cadmium","0.00113060828278259","","","","","","","","","","","","","","",""
"33-013-1006","Cadmium Pm10 Lc","43.13246","-71.458246","Pembroke","","RESIDENTIAL","","PEMBROKE HIGHWAY DEPARTMENT","meanRos_ug_m3","No","Undetermined","New Hampshire","Suncook","Suburban","PEMBROKE HIGHWAY DEPARTMENT","No","Cadmium","0.00131596737754017","","","","","","","","","","","","","","",""
"33-015-0014","Cadmium Pm10 Lc","43.075371","-70.748017","Portsmouth","","RESIDENTIAL","","PORTSMOUTH - PEIRCE ISLAND","meanRos_ug_m3","No","Undetermined","New Hampshire","Portsmouth","Urban And Center City","PORTSMOUTH - PEIRCE ISLAND","No","Cadmium","0.00144778460063125","0.000461199527351363","","","","","","","","","","","","","",""
"33-019-0003","Cadmium Pm10 Lc","43.364518","-72.337867","Claremont","","RESIDENTIAL","","","meanRos_ug_m3","No","Undetermined","New Hampshire","Claremont","Urban And Center City","","No","Cadmium","0.00116821267098809","","","","","","","","","","","","","","",""
"36-061-0062","Cadmium Pm10 Lc","40.720622","-74.003674","New York City","","COMMERCIAL","","CANAL STREET","meanRos_ug_m3","No","Undetermined","New York","New York","Urban And Center City","CANAL STREET","No","Cadmium","","","","","","","","","","","","","","","",""
"36-063-2008","Cadmium Pm10 Lc","43.08218","-79.00106","Niagara Falls","","INDUSTRIAL","","NIAGARA FALLS","meanRos_ug_m3","No","Undetermined","New York","Niagara Falls","Suburban","NIAGARA FALLS","No","Cadmium","","","","","","","","","","","","","","","",""
"36-085-0106","Cadmium Pm10 Lc","40.57811","-74.1843","New York City","","INDUSTRIAL","","UNLOADING ZONE FRESHKILLLS LANDFILL","meanRos_ug_m3","No","Undetermined","New York","New York","Urban And Center City","UNLOADING ZONE FRESHKILLLS LANDFILL","No","Cadmium","0.00105295188740666","","","","","","","","","","","","","","",""
"36-085-0111","Cadmium Pm10 Lc","40.58027","-74.19832","New York City","","COMMERCIAL","","FRESHKILLS WEST","meanRos_ug_m3","No","Undetermined","New York","New York","Suburban","FRESHKILLS WEST","No","Cadmium","0.000902783733461267","","","","","","","","","","","","","","",""
"36-085-0131","Cadmium Pm10 Lc","40.58806","-74.16882","New York City","","INDUSTRIAL","","FRESHKILLS EAST","meanRos_ug_m3","No","Undetermined","New York","New York","Urban And Center City","FRESHKILLS EAST","No","Cadmium","0.00100587996739877","","","","","","","","","","","","","","",""
"36-085-0132","Cadmium Pm10 Lc","40.58056","-74.15178","New York City","","COMMERCIAL","","LATOURETTE GOLF COURSE","meanRos_ug_m3","No","Undetermined","New York","New York","Suburban","LATOURETTE GOLF COURSE","No","Cadmium","0.000950518793952479","","","","","","","","","","","","","","",""
"39-029-0020","Cadmium Pm10 Lc","40.639595","-80.524019","EAST LIVERPOOL","","INDUSTRIAL","","East Elementary (Water Plant)","meanRos_ug_m3","No","No Trend","Ohio","East Liverpool","Suburban","East Liverpool WTP","No","Cadmium","","","","","","","0.000770437562702379","0.000633882242739977","0.0005169203742292","0.000955416466240422","0.00075493628056562","0.000775846030349688","0.00058899951109197","0.000450039296993054","0.000599800540173116","0.000440801522927359"
"41-005-0301","Cadmium Pm10 Lc","45.4601","-122.6125","PORTLAND","","","","Milwukie Johnson Cr.","meanRos_ug_m3","No","Undetermined","Oregon","Milwaukie","Suburban","Milwukie Johnson Cr.","No","Cadmium","","","","","","","","","","","","","","5.480913198257e-05","",""
"41-009-0004","Cadmium Pm10 Lc","45.768531","-122.7721","NOT IN A CITY","","AGRICULTURAL","","SAUVIE ISLAND-SIS","meanRos_ug_m3","No","Undetermined","Oregon","Not in a city","Rural","SAUVIE ISLAND-SIS","No","Cadmium","","","","","0.000206661506490491","","","","","","","","","","",""
"41-029-0133","Cadmium Pm10 Lc","42.31411","-122.87923","MEDFORD","","RESIDENTIAL","","Medford - Grant & Belmont Sts. (MGB)","meanRos_ug_m3","No","Undetermined","Oregon","Medford","Urban And Center City","Medford - Grant & Belmont Sts. (MGB)","No","Cadmium","","","","","","8.4885727826784e-05","9.94966996510508e-05","7.33170143991957e-05","","","","","","","",""
"41-029-1001","Cadmium Pm10 Lc","42.535958","-122.876155","CENTRAL POINT","","AGRICULTURAL","","","meanRos_ug_m3","No","Undetermined","Oregon","Central Point","Rural","","No","Cadmium","","","","","","4.80705283784167e-05","","","","","","","","","",""
"41-029-2129","Cadmium Pm10 Lc","42.33155","-122.880266","Medford","","RESIDENTIAL","","","meanRos_ug_m3","No","Undetermined","Oregon","Medford","Urban And Center City","Medford, Welch and Jackson.","No","Cadmium","","","","","","","","","","0.000116898304826217","","","","","",""
"41-035-0004","Cadmium Pm10 Lc","42.190296","-121.731369","Klamath Falls","","RESIDENTIAL","","PETERSON ELEM","meanRos_ug_m3","No","Undetermined","Oregon","Altamont","Suburban","Klamath Falls - Peterson School","No","Cadmium","","","","","","","","","3.91227138830575e-05","","","","","","",""
"41-039-0059","Cadmium Pm10 Lc","44.067224","-123.141352","Eugene","","RESIDENTIAL","","Eugene - Hwy 99 (E99)","meanRos_ug_m3","No","Undetermined","Oregon","Eugene","Urban And Center City","Eugene - Hwy 99 (E99)","No","Cadmium","","","","","","","","","","","","","","","","4.49047619375571e-05"
"41-039-0060","Cadmium Pm10 Lc","44.026312","-123.083737","Eugene","","RESIDENTIAL","","Eugene - AMAZON PARK (EAP)","meanRos_ug_m3","No","No Trend","Oregon","Eugene","Urban And Center City","Eugene - AMAZON PARK (EAP)","No","Cadmium","","0.000124775260276285","0.000108093280877872","8.82933279626741e-05","8.57281946420783e-05","8.88794381723899e-05","","5.09401650827097e-05","","","","","","","","2.80926821920818e-05"
"41-039-0062","Cadmium Pm10 Lc","44.0729","-123.1615","EUGENE","","RESIDENTIAL","","","meanRos_ug_m3","No","Undetermined","Oregon","Eugene","Urban And Center City","","No","Cadmium","","","","","","","","7.74876650003614e-05","","","","","","","",""
"41-047-0041","Cadmium Pm10 Lc","44.943114","-123.005934","SALEM","","RESIDENTIAL","","Salem - State Hospital","meanRos_ug_m3","No","Undetermined","Oregon","Salem","Urban And Center City","Salem - State Hospital","No","Cadmium","","","","","","","0.000146634681545708","","","","","","","","",""
"41-051-0030","Cadmium Pm10 Lc","45.49742","-122.67467","PORTLAND","","RESIDENTIAL","","","meanRos_ug_m3","No","Undetermined","Oregon","Portland","Suburban","","No","Cadmium","","","0.000869039870418706","","","","","","","","","","","","",""
"41-051-0080","Cadmium Pm10 Lc","45.496641","-122.602877","Portland","","RESIDENTIAL","","Portland - SE Lafayette","meanRos_ug_m3","No","Undetermined","Oregon","Portland","Suburban","Portland - SE Lafayette","No","Cadmium","","0.000329786887781594","0.000511338159503794","","","","","","","","","","","","",""
"41-051-0100","Cadmium Pm10 Lc","45.49711","-122.64231","Portland","","","","Portland Powell and twenty second","meanRos_ug_m3","No","Undetermined","Oregon","Portland","Urban And Center City","Portland Powell and twenty second","No","Cadmium","","","","","","","","","","","","","","0.000309656127359875","",""
"41-051-0101","Cadmium Pm10 Lc","45.49395","-122.64282","Portland","","","","Portland Day Care","meanRos_ug_m3","No","Undetermined","Oregon","Portland","Urban And Center City","Portland Day Care","No","Cadmium","","","","","","","","","","","","","","0.000924789887203198","",""
"41-051-0102","Cadmium Pm10 Lc","45.49501","-122.64964","Portland","","","","Portland Winterhaven Elementary School","meanRos_ug_m3","No","Undetermined","Oregon","Portland","Urban And Center City","Portland Winterhaven Elementary School","No","Cadmium","","","","","","","","","","","","","","7.61358693526033e-05","",""
"41-051-0103","Cadmium Pm10 Lc","45.49794","-122.64528","Portland","","","","Portland Haight and 20th","meanRos_ug_m3","No","Undetermined","Oregon","Portland","Urban And Center City","Portland Haight and 20th","No","Cadmium","","","","","","","","","","","","","","0.000219266745434082","",""
"41-051-0244","Cadmium Pm10 Lc","45.535","-122.698889","Portland","","COMMERCIAL","","UATMP: PNW","meanRos_ug_m3","No","Undetermined","Oregon","Portland","Urban And Center City","SE CORNER OF P.O. PARKING LOT AND SW CORNER OF NEIGHBORING BUILDING","No","Cadmium","","0.00051368788263062","0.000636873569835759","","","","","","","","","","","","",""
"41-051-0300","Cadmium Pm10 Lc","45.463093","-122.610626","Portland","","","","Portland Harney Dr","meanRos_ug_m3","No","Undetermined","Oregon","Portland","Suburban","Portland Harney Dr","No","Cadmium","","","","","","","","","","","","","","9.82399059462599e-05","",""
"41-051-2001","Cadmium Pm10 Lc","45.577175","-122.71775","Portland","","RESIDENTIAL","","PNS","meanRos_ug_m3","No","Undetermined","Oregon","Portland","Urban And Center City","PNS","No","Cadmium","","","","","","","","","","","","","0.000247550002222852","","",""
"41-051-2007","Cadmium Pm10 Lc","45.599907","-122.758362","Portland","","RESIDENTIAL","","Sitton Elementary","meanRos_ug_m3","No","Undetermined","Oregon","Portland","Urban And Center City","Sitton Elementary","No","Cadmium","","","","","","","","","","","","","0.000143850001813917","","",""
"41-051-2008","Cadmium Pm10 Lc","45.511984","-122.482029","Gresham","","RESIDENTIAL","","","meanRos_ug_m3","No","Undetermined","Oregon","Gresham","Suburban","","No","Cadmium","","","","","","","","","","","","","","","8.37357813105865e-05",""
"41-051-2009","Cadmium Pm10 Lc","45.462686","-122.615094","Portland","","RESIDENTIAL","","","meanRos_ug_m3","No","Undetermined","Oregon","Portland","Suburban","","No","Cadmium","","","","","","","","","","","","","","8.18224509235862e-05","6.3658933762746e-05",""
"41-051-2011","Cadmium Pm10 Lc","45.5625","-122.57527923584","Portland","","RESIDENTIAL","","ASSIGN","meanRos_ug_m3","No","Undetermined","Oregon","Portland","Rural","Portland Cully Helensview School (PCH)","No","Cadmium","","","","","","","","","","","","","","","","6.37692308560079e-05"
"41-065-0008","Cadmium Pm10 Lc","45.598385","-121.184227","The Dalles","","RESIDENTIAL","","","meanRos_ug_m3","No","Undetermined","Oregon","City of The Dalles","Rural","","No","Cadmium","","","","","","","","","","","","","","","","3.76295459302996e-05"
"41-067-0004","Cadmium Pm10 Lc","45.528501","-122.972398","Hillsboro","","RESIDENTIAL","","Hillsboro - Hare Field","meanRos_ug_m3","No","Undetermined","Oregon","Hillsboro","Suburban","Hillsboro - Hare Field","No","Cadmium","","","","","","","","","","","0.000120417856812034","7.06721304267689e-05","","","",""
"41-067-0111","Cadmium Pm10 Lc","45.470191","-122.816411","BEAVERTON","","RESIDENTIAL","","Beaverton - Highland Park","meanRos_ug_m3","No","Undetermined","Oregon","Beaverton","Urban And Center City","Beaverton - Highland Park","No","Cadmium","","","0.000368227763233749","","","","","","","","","","","","",""
"44-007-0024","Cadmium Pm10 Lc","41.783482","-71.382987","Providence","","INDUSTRIAL","","PILOT CITY: Johnson and Whales Univ","meanRos_ug_m3","No","Undetermined","Rhode Island","Providence","Urban And Center City","JOHNSON AND WALES","No","Cadmium","","","","","","","","","","","","","","","",""
"44-007-0025","Cadmium Pm10 Lc","41.800171","-71.416354","Providence","","RESIDENTIAL","","PILOT CITY: West End Comm Center","meanRos_ug_m3","No","Undetermined","Rhode Island","Providence","Suburban","109 BUCKLIN STREET","No","Cadmium","","","","","","","","","","","","","","","",""
"44-007-0026","Cadmium Pm10 Lc","41.874668","-71.379971","Pawtucket","","RESIDENTIAL","","PILOT CITY: Vernon Street","meanRos_ug_m3","No","Undetermined","Rhode Island","Pawtucket","Urban And Center City","Vernon St, Pawtucket","No","Cadmium","","","","","","","","","","","","","","","",""
"44-007-0029","Cadmium Pm10 Lc","41.816535","-71.437401","PROVIDENCE","","RESIDENTIAL","","Bridgham School site","meanRos_ug_m3","No","Undetermined","Rhode Island","Providence","Urban And Center City","Bridgham School site","No","Cadmium","","","","","","","","","","","","","","","",""
"44-007-1010","Cadmium Pm10 Lc","41.841039","-71.36097","East Providence","","RESIDENTIAL","","PILOT CITY: East Providence","meanRos_ug_m3","No","Undetermined","Rhode Island","East Providence","Suburban"," FRANCIS SCHOOL East Providence","No","Cadmium","","","","","","","","","","","","","","","",""
"45-043-0001","Cadmium Pm10 Lc","33.377165","-79.289464","GEORGETOWN","","INDUSTRIAL","","GEORGETOWN","meanRos_ug_m3","No","Undetermined","South Carolina","Georgetown","Urban And Center City","GEORGETOWN COUNTY HEALTH DEPT","No","Cadmium","","","","","","","","","","","","","","","",""
"45-079-0014","Cadmium Pm10 Lc","33.984969","-81.019667","Columbia","","COMMERCIAL","","ENRIGHT (REX) ATHLETIC CENTER (USC)","meanRos_ug_m3","No","Undetermined","South Carolina","Columbia","Suburban","ENRIGHT (REX) ATHLETIC CENTER (USC)","No","Cadmium","","","","","","","","","","","","","","","",""
"45-079-1003","Cadmium Pm10 Lc","34.024497","-81.036248","COLUMBIA","","COMMERCIAL","","DHEC","meanRos_ug_m3","No","Undetermined","South Carolina","Columbia","Urban And Center City","DHEC","No","Cadmium","","","","","","","","","","","","","","","",""
"48-139-0017","Cadmium Pm10 Lc","32.473611","-97.0425","Midlothian","","RESIDENTIAL","","WEST OF WARD & WYATT RD. INTERSECTION","meanRos_ug_m3","No","Undetermined","Texas","Midlothian","Rural","WEST OF WARD & WYATT RD. INTERSECTION","No","Cadmium","0.00101600840032377","","","","","","","","","","","","","","",""
"48-141-0041","Cadmium Pm10 Lc","31.760538","-106.500449","El Paso","","RESIDENTIAL","","NE OF LAWTON & W. MISSOURI INTERSECTION","meanRos_ug_m3","No","Undetermined","Texas","El Paso","Suburban","NE OF LAWTON & W. MISSOURI INTERSECTION","No","Cadmium","","","","","","","","","","","","","","","",""
"48-201-1035","Cadmium Pm10 Lc","29.733726","-95.257593","Houston","","INDUSTRIAL","","Clinton","meanRos_ug_m3","No","Decreasing","Texas","Houston","Urban And Center City","Clinton","No","Cadmium","0.00101692532395235","0.000986998529026518","","","","","","0.000273949141693032","0.000213405636956547","0.000161982663729921","0.000213791088108954","0.000143140768252469","0.000115397020899451","0.000114554576999031","",""
"50-021-0002","Cadmium Pm10 Lc","43.608056","-72.982778","RUTLAND","","COMMERCIAL","","UATMP: RUVT","meanRos_ug_m3","No","Undetermined","Vermont","Rutland","Urban And Center City","State of Vermont District Court Parking Lot","No","Cadmium","","","","","","","","","","","","","","","9.45882340923109e-05","7.44399993709521e-05"
"53-011-0030","Cadmium Pm10 Lc","45.641683","-122.681233","VANCOUVER","","RESIDENTIAL","","","meanRos_ug_m3","No","Undetermined","Washington","Vancouver","Suburban","","No","Cadmium","","","0.00046512560412256","","","","","","","","","","","","",""
"53-015-0006","Cadmium Pm10 Lc","46.119278","-122.947056","LONGVIEW","","COMMERCIAL","","","meanRos_ug_m3","No","Undetermined","Washington","Longview","Urban And Center City","","No","Cadmium","","0.000127028311195514","","","","","","","","","","","","","",""
"53-033-0030","Cadmium Pm10 Lc","47.597222","-122.319722","Seattle","","BLIGHTED AREAS","","Seattle-10th & Weller","meanRos_ug_m3","No","Undetermined","Washington","Seattle","Urban And Center City","Seattle-10th & Weller","No","Cadmium","","","","","","","","","","","","","","","8.74888887564238e-05",""
"53-063-0016","Cadmium Pm10 Lc","47.660743","-117.358121","SPOKANE","","COMMERCIAL","","SPOKANE - FERRY ST; CROWN ZELLERBACH","meanRos_ug_m3","No","Undetermined","Washington","Spokane","Suburban","SPOKANE - FERRY ST","No","Cadmium","","","0.000198434309186268","","","","","","","","","","","","",""
"53-063-0050","Cadmium Pm10 Lc","47.695447","-117.370303","SPOKANE","","COMMERCIAL","","SCHOOL DISTRICT 81","meanRos_ug_m3","No","Undetermined","Washington","Spokane","Urban And Center City","DISTRICT 81","No","Cadmium","","","0.000167233990270751","","","","","","","","","","","","",""
"53-063-0052","Cadmium Pm10 Lc","47.665122","-117.429093","SPOKANE","","COMMERCIAL","","HEALTH DISTRICT","meanRos_ug_m3","No","Undetermined","Washington","Spokane","Urban And Center City","HEALTH DISTRICT","No","Cadmium","","","0.000115503828696046","","","","","","","","","","","","",""
"53-063-0053","Cadmium Pm10 Lc","47.6822","-117.3048","SPOKANE","","RESIDENTIAL","","FELTS FIELD AIRPORT","meanRos_ug_m3","No","Undetermined","Washington","Not in a city","Urban And Center City","FELTS FIELD AIRPORT","No","Cadmium","","","0.000209101499699577","","","","","","","","","","","","",""
"54-029-0008","Cadmium Pm10 Lc","40.61572","-80.56","CHESTER","","RESIDENTIAL","","CHESTER","meanRos_ug_m3","No","Undetermined","West Virginia","Chester","Suburban","CHESTER","No","Cadmium","","","","","","","","","","","","","","0.000259510768862525","0.000357338398018447","0.000306777778193161"
"55-079-0010","Cadmium Pm10 Lc","43.016667","-87.933333","MILWAUKEE","","COMMERCIAL","","HEALTH CENTER","meanRos_ug_m3","No","Decreasing","Wisconsin","Milwaukee","Urban And Center City","MILWAUKEE - SIXTEENTH ST. HEALTH CENTER","No","Cadmium","","","","","","0.00069658249111822","0.0002329778656834","0.000253095365613782","0.000230777800970827","","0.000128918430589375","0.000118009134530439","0.000161120919087882","0.000121689207009634","0.000111451987480826","9.23772245746194e-05"
"04-013-9997","Cadmium Pm10 Lc","33.503833","-112.095767","Phoenix","Phoenix, AZ","RESIDENTIAL","Urban","UATMP: PXSS; NATTS: Phoenix, AZ; IMPROVE: PHOE1","meanRos_ug_m3","No","Decreasing","Arizona","Phoenix","Urban And Center City","JLG SUPERSITE","Yes","Cadmium","","","","0.000133917062246344","0.000150864877330078","0.000136795263914105","0.000125635486199228","0.000101049305957813","0.000133840308483398","0.000130486691305719","0.000118508198134864","0.000106666667973817","0.000104542372047051","0.000114983606956647","0.000104325806293468","0.000107967214001396"
"06-037-1103","Cadmium Pm10 Lc","34.06659","-118.22688","Los Angeles","Los Angeles, CA","RESIDENTIAL","Urban","UATMP: CELA; NATTS: Los Angeles, CA; MATES: Central Los Angeles","meanRos_ug_m3","No","Decreasing","California","Los Angeles","Urban And Center City","Los Angeles-North Main Street","Yes","Cadmium","","","","","0.000518594111480837","0.000215807686506498","0.000178267554581692","0.000121441337977863","0.00029736383847222","0.000145666667413025","0.000135897010537055","0.00012614111662231","0.000109137932417196","0.000110916666987274","9.8916667108521e-05","0.000132261271739315"
"06-065-8001","Cadmium Pm10 Lc","33.99958","-117.41601","Rubidoux","Rubidoux, CA","RESIDENTIAL","Urban","UATMP: RUCA; NATTS: Rubidoux, CA; MATES: Rubidoux","meanRos_ug_m3","No","No Trend","California","Rubidoux","Suburban","Rubidoux","Yes","Cadmium","","","","","0.000306722835194116","8.97188722198786e-05","0.000151248288378928","8.80670103130511e-05","0.000164534905957414","0.000109589603390023","0.000111587264939943","7.2122632642845e-05","8.23148155985918e-05","9.20175441837943e-05","9.206279471405e-05","0.000119915573585055"
"06-085-0005","Cadmium Pm10 Lc","37.348497","-121.894898","San Jose","San Jose, CA","COMMERCIAL","Urban","UATMP: SJCA; NATTS: San Jose, CA","meanRos_ug_m3","No","No Trend","California","San Jose","Urban And Center City","San Jose - Jackson","Yes","Cadmium","","","","","","8.42965847055655e-05","7.49658883099376e-05","6.02955549497818e-05","7.0098360441482e-05","4.90946130226978e-05","8.52499987634777e-05","4.47089048718438e-05","5.38474577898357e-05","5.77368423125192e-05","5.1473332837304e-05",""
"08-077-0017","Cadmium Pm10 Lc","39.063798","-108.561173","Grand Junction","Grand Junction, CO","COMMERCIAL","Urban","UATMP: GPCO; NATTS: Grand Junction, CO","meanRos_ug_m3","No","Decreasing","Colorado","Grand Junction","Urban And Center City","GRAND JUNCTION - POWELL BLDG","Yes","Cadmium","","","0.000142076917695405","0.00018154496765844","","","","0.000142209821518341","8.97601827873065e-05","6.39688570643771e-05","0.000101310381934701","7.08305090530164e-05","5.7236842374614e-05","5.63583332071479e-05","6.99741671269294e-05","6.41720339521949e-05"
"11-001-0043","Cadmium Pm10 Lc","38.921847","-77.013178","Washington","Washington, DC","COMMERCIAL","Urban","UATMP: WADC; NATTS: Washington, D.C.","meanRos_ug_m3","Yes","Decreasing","District Of Columbia","Washington","Urban And Center City","MCMILLAN  NCore-PAMS","Yes","Cadmium","","0.00027877758761211","0.000211983706699195","0.00022207196786685","0.000175520963622196","0.000397614923602392","0.000113765543335198","0.000111435254732515","8.4141212449159e-05","0.000126278172355078","0.00019433565760283","0.000131430928466544","0.000112229034376638","9.04115292187425e-05","8.24343039400241e-05","6.05022934700349e-05"
"12-057-3002","Cadmium Pm10 Lc","27.96565","-82.2304","Plant City","Tampa, FL","RESIDENTIAL","Urban","UATMP: SYFL; NATTS: Tampa, FL","meanRos_ug_m3","Yes","Decreasing","Florida","Valrico","Rural","SYDNEY","Yes","Cadmium","","0.000189024461471521","0.000200285788643237","0.00023324808466523","0.000152435222965626","0.00014613360263897","0.000165988358395359","0.000170737706359999","0.000109027435667038","0.000122745195470278","0.000102241379957785","0.000126885247198993","0.000114908333125641","0.000210450818515516","0.00010191935451721","0.000188193548726098"
"12-103-0026","Cadmium Pm10 Lc","27.850348","-82.714465","Pinellas Park","Pinellas County, FL","RESIDENTIAL","Urban","UATMP: SKFL; NATTS: Pinellas County, FL","meanRos_ug_m3","Yes","Decreasing","Florida","Pinellas Park","Suburban","Skyview","Yes","Cadmium","","","0.00014399037661592","0.000171395842028831","0.000129261500064629","0.000115916057499514","0.000114617259389545","0.000108787803538525","8.46561693227462e-05","9.05569702823065e-05","6.17205088867899e-05","6.68986082701858e-05","6.11278216335146e-05","0.000142119690626087","6.40243250047922e-05","5.1976400360824e-05"
"13-089-0002","Cadmium Pm10 Lc","33.68808","-84.29018","Decatur","Atlanta, GA","RESIDENTIAL","Urban","UATMP: SDGA; NATTS: South DeKalb, GA; PAMS: South DeKalb; IMPROVE: ATLA1","meanRos_ug_m3","Yes","No Trend","Georgia","Not in a city","Suburban","South DeKalb","Yes","Cadmium","","7.26846450068064e-05","0.000112417884950198","0.000164524440465171","9.13521201079691e-05","7.00601113933585e-05","6.85527355057925e-05","9.28610688480164e-05","8.38748939968993e-05","8.00077277414049e-05","6.92504548878418e-05","0.000118246632683628","5.03773103041768e-05","8.81812390679527e-05","0.000103370825742423","7.69748343389866e-05"
"17-031-4201","Cadmium Pm10 Lc","42.139996","-87.799227","Northbrook","Chicago, IL","RESIDENTIAL","Urban","UATMP: NBIL; NATTS: Chicago, IL","meanRos_ug_m3","Yes","Decreasing","Illinois","Northbrook","Suburban","NORTHBROOK WATER PLANT","Yes","Cadmium","","","0.00019567690791608","0.000209638218591628","0.000217166091966521","0.000188688009594833","0.00014757671279305","0.000135152772525574","0.000144745657138937","0.000122620477938013","9.4748385551719e-05","0.000105352891416328","0.000110664482950337","0.000104722589145368","0.000110678658256802","0.000110467264582032"
"21-193-0003","Cadmium Pm10 Lc","38.23887","-82.9881","Hazard/Grayson, KY","Hazard/Grayson, KY","RESIDENTIAL","Rural","UATMP: GLKY; NATTS: Grayson Lake, KY","meanRos_ug_m3","No","Decreasing","Kentucky","Hazard/Grayson, KY","Rural","Hazard/Grayson, KY","Yes","Cadmium","0.000353418712237678","0.00032889776936164","0.000791527056536011","","0.000281234354747436","","","","6.9281256340314e-05","0.000120996098596693","0.000128460728473775","7.99253271922634e-05","0.000101150724323565","7.15294466209667e-05","6.52257219826424e-05","7.03256954348662e-05"
"25-025-0042","Cadmium Pm10 Lc","42.3295","-71.0826","Boston","Roxbury, MA","COMMERCIAL","Urban","UATMP: BOMA; NATTS: Roxbury, MA","meanRos_ug_m3","Yes","Decreasing","Massachusetts","Boston","Urban And Center City","DUDLEY SQUARE ROXBURY","Yes","Cadmium","","0.000537325032443429","0.000507251737991417","0.000258397136089375","0.000153219742985083","0.000233373776548736","0.000266486914295486","0.000198846507150027","0.000136161121008627","0.000150299557047175","8.84426235196039e-05","8.11206899580329e-05","8.64000009187294e-05","0.000241991373576607","6.53279662016094e-05","6.54939657234254e-05"
"26-163-0033","Cadmium Pm10 Lc","42.306674","-83.148754","Dearborn","Detroit, MI","INDUSTRIAL","Urban","UATMP: DEMI; NATTS: Detroit, MI; PILOT CITY: Dearborn","meanRos_ug_m3","Yes","Decreasing","Michigan","Dearborn","Suburban","PROPERTY OWNED BY DEARBORN PUBLIC SCHOOLS","Yes","Cadmium","0.00101071896794506","0.00099153663691611","0.00076214308572788","0.000604428139546332","0.000554029720903297","0.000444890938942095","0.000330298046773809","0.000417662586092011","0.000391327865204925","0.00032953277576646","0.000284002979534755","0.000240092862029903","0.000296828154932882","0.0026343968065018","0.000321720518406183","0.000191598954511245"
"29-510-0085","Cadmium Pm10 Lc","38.656429","-90.198348","SAINT LOUIS","St. Louis, MO","RESIDENTIAL","Urban","UATMP: S4MO; NATTS: St. Louis, MO","meanRos_ug_m3","Yes","No Trend","Missouri","St. Louis","Urban And Center City","Blair Street","Yes","Cadmium","","0.00117096463044185","0.000955356326246191","0.000663560852645186","0.000736629791329809","0.000770125668302663","0.00102540424443854","0.000636435956888211","0.000562393343420423","0.000573196723202213","0.0033409377304999","0.00456739705256024","0.00641671137727816","0.00419848389439143","0.000182034425454388","0.000178492500162974"
"36-005-0110","Cadmium Pm10 Lc","40.816","-73.902","Bronx, NY","Bronx, NY","RESIDENTIAL","Urban","UATMP: BXNY; NATTS: Bronx (#1), NY; PM Supersite: Bronx; IMPROVE: NEYO1","meanRos_ug_m3","No","Decreasing","New York","Bronx, NY","Urban And Center City","Bronx, NY","Yes","Cadmium","","","","","0.000127112711968455","0.0001381283342198","0.000120549016017202","","8.17616387394082e-05","","9.11860654878928e-05","8.1079838750039e-05","7.85875511610357e-05","8.12617187904152e-05","5.47983607128892e-05","5.48218423885198e-05"
"36-055-1007","Cadmium Pm10 Lc","43.14618","-77.54817","Rochester","Rochester, NY","RESIDENTIAL","Urban","UATMP: ROCH; NATTS: Rochester, NY; NADP: NY43","meanRos_ug_m3","No","Decreasing","New York","Rochester","Urban And Center City","ROCHESTER 2","Yes","Cadmium","","","","","0.000117961224346726","0.000110678430442646","8.11910524868852e-05","8.89729296651585e-05","7.04462960567509e-05","8.07310420138189e-05","7.83178565403172e-05","5.13550848138994e-05","7.46347359706436e-05","7.44888886814537e-05","7.5564912613277e-05","5.24686718775009e-05"
"41-051-2010","Cadmium Pm10 Lc","45.55808","-122.670982","Portland","Portland, OR","RESIDENTIAL","Urban","","meanRos_ug_m3","Yes","Decreasing","Oregon","Portland","Urban And Center City","","Yes","Cadmium","","0.00159149458441193","0.00258105900221858","0.00202004088338678","0.00146491864221129","0.0012394831887467","0.00147455986767084","0.000766414770113076","0.00122124837240736","0.00135787932363044","0.000972241928468887","0.000437595945267882","0.000442686438148839","","5.93777778805007e-05","7.15655745747814e-05"
"41-061-0123","Cadmium Pm10 Lc","45.3235","-118.0778","La Grande/La Grande Hall, OR","La Grande/La Grande Hall, OR","RESIDENTIAL","Rural","La Grande Hall and N St. (LHN); NATTS: La Grande, OR (Sept 2016)","meanRos_ug_m3","Yes","Decreasing","Oregon","La Grande/La Grande Hall, OR","Rural","La Grande/La Grande Hall, OR","Yes","Cadmium","","0.000213433167383907","5.90756651035917e-05","5.52927729798065e-05","5.30538287567392e-05","4.99294805836946e-05","6.01587464600771e-05","3.2072339670911e-05","3.8378371926537e-05","4.24137930982899e-05","4.51454977839586e-05","3.37957479192202e-05","3.43166670518258e-05","2.67278882176574e-05","3.50391457783806e-05","2.7422966749154e-05"
"44-007-0022","Cadmium Pm10 Lc","41.807776","-71.415105","Providence","Providence, RI","RESIDENTIAL","Urban","UATMP: PRRI; NATTS: Providence, RI; PILOT CITY: Urban League","meanRos_ug_m3","No","No Trend","Rhode Island","Providence","Urban And Center City","CCRI Liston Campus ROOFTOP","Yes","Cadmium","","","","","","9.4950310686467e-05","3.46601152207452e-05","2.45528845847313e-05","1.88292395816367e-05","8.41793629852442e-05","5.58058901974205e-05","6.30407420748869e-05","6.03220624895076e-05","6.27403031197399e-05","5.7973478016905e-05","6.21087217611711e-05"
"45-025-0001","Cadmium Pm10 Lc","34.615367","-80.198789","MCBEE","Chesterfield, SC","FOREST","Rural","UATMP: CHSC; NATTS: Chesterfield, SC","meanRos_ug_m3","Yes","No Trend","South Carolina","Not in a city","Rural","CHESTERFIELD","Yes","Cadmium","","9.14164617649824e-05","0.000262605176309686","0.00020343310125609","0.000122052349626208","0.000117953511186302","7.97360509290445e-05","0.000134666315004705","0.00014743333485967","0.00013769827593682","0.000161652542651686","0.000313437494566772","0.000238692615338172","0.000120053756593589","7.29928795619182e-05",""
"48-201-1039","Cadmium Pm10 Lc","29.670025","-95.128508","Deer Park","Houston, TX","RESIDENTIAL","Urban","UATMP: CAMS 35; NATTS: Houston, TX; IMPROVE: HOUS1","meanRos_ug_m3","No","Decreasing","Texas","Deer Park","Urban And Center City","Houston Deer Park #2","Yes","Cadmium","0.00103132082451204","0.000974209993917408","","","","","","7.31440593233979e-05","6.5291442317089e-05","6.02169925346935e-05","2.54688345864699e-05","2.90836486633259e-05","3.19759776423704e-05","1.99400573130722e-05","1.98617415979465e-05",""
"48-203-0002","Cadmium Pm10 Lc","32.668987","-94.167457","Not In A City","Karnack, TX","AGRICULTURAL","Rural","UATMP: CAMS 85; NATTS: Karnack, TX","meanRos_ug_m3","No","No Trend","Texas","Not in a city","Rural","Karnack","Yes","Cadmium","","","","","","","","7.90397374411271e-05","6.5224435713272e-05","4.22807922001717e-05","","1.97243364912406e-05","5.25328842191647e-05","3.38157769796415e-05","2.52286609721517e-05",""
"49-011-0004","Cadmium Pm10 Lc","40.902967","-111.884467","Bountiful","Bountiful, UT","RESIDENTIAL","Urban","UATMP: BTUT; NATTS: Bountiful, UT","meanRos_ug_m3","Yes","No Trend","Utah","Bountiful","Suburban","Bountiful Viewmont","Yes","Cadmium","","0.000126144524320987","0.000151031275027751","0.000710941888356452","0.000247894144327138","0.000180410356153794","0.00010241372167926","9.25745163717153e-05","0.000130162865616512","8.34435685276896e-05","0.000138332969226659","0.00011803635224121","0.000115147564633844","0.000166588038469358","0.000154965132078987","0.000127770506842353"
"50-007-0007","Cadmium Pm10 Lc","44.52839","-72.86884","Underhill","Underhill, VT","FOREST","Rural","UATMP: UNVT; NATTS: Underhill, VT; IMPROVE:PMRF1; NADP: VT99","meanRos_ug_m3","Yes","Decreasing","Vermont","Underhill (Town of)","Rural","PROCTOR MAPLE RESEARCH CTR","Yes","Cadmium","","0.000121948276312745","9.53050848539086e-05","7.60344828136269e-05","6.22592591820716e-05","6.5355931575927e-05","6.1099999917739e-05","5.61475412947313e-05","6.59649131353434e-05","5.64508199191237e-05","5.22881357521667e-05","4.28032784108583e-05","8.00833330837728e-05","4.72950818161213e-05","4.50211030950058e-05","5.11722666373128e-05"
"51-087-0014","Cadmium Pm10 Lc","37.55652","-77.40027","NOT IN A CITY","Richmond, VA","RESIDENTIAL","Urban","UATMP: RIVA; NATTS: Richmond, VA","meanRos_ug_m3","No","Decreasing","Virginia","East Highland Park","Suburban","MathScience Innovation Center","Yes","Cadmium","","","","","","","0.00019993333265423","0.000190688525569877","0.000134726102260174","0.000151699999575309","0.000139883333152587","0.000107119080680311","9.46554767791187e-05","8.01661016632383e-05","6.47712597244825e-05","5.20082650095484e-05"
"53-033-0080","Cadmium Pm10 Lc","47.568236","-122.308628","Seattle","Seattle, WA","RESIDENTIAL","Urban","UATMP: SEWA; NATTS: Seattle, WA; IMPROVE: PUSO1; PILOT CITY: Beacon Hill","meanRos_ug_m3","Yes","No Trend","Washington","Seattle","Urban And Center City","SEATTLE - BEACON HILL","Yes","Cadmium","0.00011189526737732","0.000158322549041413","0.000188205281373201","","0.000128713370819848","0.000129905348012471","0.000107324694230772","9.09747797387603e-05","0.000103976011725207","9.26282203690173e-05","0.00217583328988743","0.00128599995368859","0.000139517243261598","7.64482765589491e-05","6.86733336381925e-05","5.5508947705101e-05"
"55-027-0001","Cadmium Pm10 Lc","43.466111","-88.621111","Mayville/Horicon, WI","Mayville/Horicon, WI","AGRICULTURAL","Rural","UATMP: HOWI; NATTS: Horicon, Wi; Horicon Wildlife Area; NADP: WI07","meanRos_ug_m3","Yes","Decreasing","Wisconsin","Mayville/Horicon, WI","Rural","Mayville/Horicon, WI","Yes","Cadmium","","","0.00019256748013364","0.000171660483634436","0.00014361508391496","0.000219869113519258","0.000225884504199676","0.000101958190246042","9.31821885100868e-05","8.22305365433925e-05","8.73190713589013e-05","7.79571770687996e-05","7.02935166030335e-05","8.42961601227369e-05","6.71407828133528e-05","7.63167820713855e-05"
