"site_id","site","latitude","longitude","local_site_name","noaa_region","POC","statistic","val1990","val1991","val1992","val1993","val1994","val1995","val1996","val1997","val1998","val1999","val2000","val2001","val2002","val2003","val2004","val2005","val2006","val2007","val2008","val2009","val2010","val2011","val2012","val2013","val2014","val2015","val2016","val2017","val2018","val2019","val2020","trendsite_1990_2020","nyrs","region","state","cbsa","used_in_nat_agg_1990_2020","parameter_name","trend_1990_2020","beta_1990_2020","prob_1990_2020","trendsite_2000_2020","used_in_nat_agg_2000_2020","trend_2000_2020","beta_2000_2020","prob_2000_2020","trendsite_2010_2020","used_in_nat_agg_2010_2020","trend_2010_2020","beta_2010_2020","prob_2010_2020"
01-015-0001,010150001,33.656770677,-85.8244089,,Southeast,1,MAX2V,64,78,45,69,44,62,31,49,46,,,,,,,,,,,,,,,,,,,,,,,0,9,6,Alabama,"Anniston-Oxford-Jacksonville, AL",No,PM10,Undetermined/Insufficient Data,,,,,,,,,,,,
01-033-1002,010331002,34.762619001,-87.638097,MUSCLE SHOALS,Southeast,1,MAX2V,56,57,40,52,39,49,46,41,42,,,,,,,,,,,,,,,,,,,,,,,0,9,6,Alabama,"Florence-Muscle Shoals, AL",No,PM10,Undetermined/Insufficient Data,,,,,,,,,,,,
01-049-1002,010491002,34.456198553,-85.70718884,FT.PAYNE (CLOSED),Southeast,1,MAX2V,51,73,44,66,45,68,45,49,52,48,44,50,,,,,,,,,,,,,,,,,,,,0,12,6,Alabama,"Fort Payne, AL",No,PM10,Undetermined/Insufficient Data,,,0,No,Undetermined/Insufficient Data,,,,,,,
01-053-0002,010530002,31.106566823,-87.07108058,BREWTON (CLOSED 12/30/07),Southeast,1,MAX2V,66,59,52,58,52,51,41,51,59,53,60,42,38,41,35,34,,,,,,,,,,,,,,,,0,16,6,Alabama,,No,PM10,Undetermined/Insufficient Data,,,0,No,Undetermined/Insufficient Data,,,,,,,
01-055-0008,010550008,34.015097326,-86.01219402,GADSDEN,Southeast,3,MAX2V,60,78,58,84,57,60,47,58,63,66,64,42,33,44,37,55,,,,,,,,,,,,,,,,0,16,6,Alabama,"Gadsden, AL",No,PM10,Undetermined/Insufficient Data,,,0,No,Undetermined/Insufficient Data,,,,,,,
01-059-0001,010590001,34.511761646,-87.71808775,,Southeast,1,MAX2V,66,56,42,55,44,45,45,43,42,,,,,,,,,,,,,,,,,,,,,,,0,9,6,Alabama,,No,PM10,Undetermined/Insufficient Data,,,,,,,,,,,,
01-069-0002,010690002,31.228786649,-85.37548921,DOTHAN,Southeast,1,MAX2V,70,62,63,59,63,56,54,50,60,53,70,56,37,69,42,,,,,,,,,,,,,,,,,0,15,6,Alabama,"Dothan, AL",No,PM10,Undetermined/Insufficient Data,,,0,No,Undetermined/Insufficient Data,,,,,,,
01-071-2002,010712002,34.677028414,-86.01414623,,Southeast,1,MAX2V,49,70,47,54,36,52,33,,,,,,,,,,,,,,,,,,,,,,,,,0,7,6,Alabama,"Scottsboro, AL",No,PM10,Undetermined/Insufficient Data,,,,,,,,,,,,
01-073-0002,010730002,33.397500001,-86.955278,,Southeast,1,MAX2V,62,79,52,58,50,56,43,62,54,57,84,57,49,47,50,56,57,61,44,33,,,,,,,,,,,,0,20,6,Alabama,"Birmingham-Hoover, AL",No,PM10,Undetermined/Insufficient Data,,,0,No,Undetermined/Insufficient Data,,,,,,,
01-073-0023,010730023,33.553056001,-86.815,North Birmingham,Southeast,4,MAX2V,,,,,104,95,99,111,109,123,157,117,106,132,121,112,93,101,89,49,91,61,,48,89,57,52,49,56,106,78,0,26,6,Alabama,"Birmingham-Hoover, AL",No,PM10,Undetermined/Insufficient Data,,,1,Yes,Decreasing,-4.15,0.0001815326,1,Yes,No Trend,-0.333333333,0.5
01-073-0026,010730026,33.565104376,-86.77999015,,Southeast,1,MAX2V,72,75,52,62,47,57,51,,,,,,,,,,,,,,,,,,,,,,,,,0,7,6,Alabama,"Birmingham-Hoover, AL",No,PM10,Undetermined/Insufficient Data,,,,,,,,,,,,
01-073-0034,010730034,33.527500001,-86.807778,,Southeast,1,MAX2V,77,80,66,69,58,52,53,74,54,76,91,78,50,44,51,55,49,57,43,42,77,57,34,,,,,,,,,0,23,6,Alabama,"Birmingham-Hoover, AL",No,PM10,Undetermined/Insufficient Data,,,0,No,Undetermined/Insufficient Data,,,0,No,Undetermined/Insufficient Data,,
01-073-1003,010731003,33.485556001,-86.915,Fairfield,Southeast,1,MAX2V,,,,,,,,,,66,88,58,49,45,46,65,45,60,38,34,52,46,35,30,41,,,,,,,0,16,6,Alabama,"Birmingham-Hoover, AL",No,PM10,Undetermined/Insufficient Data,,,0,No,Undetermined/Insufficient Data,,,0,No,Undetermined/Insufficient Data,,
01-073-1005,010731005,33.331111001,-87.003611,McAdory,Southeast,1,MAX2V,,,,,,,,,,,,,,,,,,,,,,,,42,37,,,,,,,0,2,6,Alabama,"Birmingham-Hoover, AL",No,PM10,Undetermined/Insufficient Data,,,0,No,Undetermined/Insufficient Data,,,0,No,Undetermined/Insufficient Data,,
01-073-1008,010731008,33.451389001,-86.967222,,Southeast,1,MAX2V,,,,,,,,,,52,88,57,44,49,44,49,73,56,34,32,53,40,,,,,,,,,,0,13,6,Alabama,"Birmingham-Hoover, AL",No,PM10,Undetermined/Insufficient Data,,,0,No,Undetermined/Insufficient Data,,,0,No,Undetermined/Insufficient Data,,
01-073-1010,010731010,33.545278001,-86.549167,Leeds,Southeast,1,MAX2V,61,70,52,61,48,50,41,52,41,50,101,64,42,50,48,47,40,50,41,34,57,51,38,32,32,64,35,28,29,28,28,1,31,6,Alabama,"Birmingham-Hoover, AL",Yes,PM10,Decreasing,-0.947368421,9.7256303E-6,1,Yes,Decreasing,-1.366071429,0.0000776314,1,Yes,Decreasing,-2,0.0028535855
01-073-2003,010732003,33.499722001,-86.924167,Wylam,Southeast,2,MAX2V,,,,,83,83,83,94,97,89,103,85,69,65,72,79,80,73,63,61,65,54,46,46,73,52,39,44,38,42,66,0,27,6,Alabama,"Birmingham-Hoover, AL",No,PM10,Undetermined/Insufficient Data,,,1,Yes,Decreasing,-2.292857143,0.0000309891,1,Yes,No Trend,-1.333333333,0.1091732554
01-073-6002,010736002,33.578333001,-86.773889,Tarrant Elementary School,Southeast,2,MAX2V,76,76,55,58,50,57,46,59,45,56,98,76,47,52,58,64,50,61,41,35,56,41,36,31,37,,,,,,,0,25,6,Alabama,"Birmingham-Hoover, AL",No,PM10,Undetermined/Insufficient Data,,,0,No,Undetermined/Insufficient Data,,,1,Yes,Increasing,3.6666666667,0.0082702521
01-073-6003,010736003,33.585556001,-86.779444,,Southeast,1,MAX2V,,,,,,,,,,152,92,92,143,150,,179,169,145,126,80,128,163,,,,,,,,,,0,12,6,Alabama,"Birmingham-Hoover, AL",No,PM10,Undetermined/Insufficient Data,,,0,No,Undetermined/Insufficient Data,,,0,No,Undetermined/Insufficient Data,,
01-073-6004,010736004,33.565278001,-86.796389,Sloss Shuttlesworth,Southeast,1,MAX2V,,,,,,,,,,138,134,130,160,178,166,128,152,233,142,126,73,65,59,58,98,73,64,52,65,56,83,0,22,6,Alabama,"Birmingham-Hoover, AL",No,PM10,Undetermined/Insufficient Data,,,1,Yes,Decreasing,-6,0.0000776314,1,Yes,No Trend,-0.428571429,0.3240477193
01-083-0001,010830001,34.828976667,-86.97528545,,Southeast,1,MAX2V,,,,,,,43,35,43,,,,,,,,,,,,,,,,,,,,,,,0,3,6,Alabama,"Huntsville, AL",No,PM10,Undetermined/Insufficient Data,,,,,,,,,,,,
01-089-0002,010890002,34.788423216,-86.61610503,Fire Station #10,Southeast,1,MAX2V,,61,48,50,,51,47,43,46,41,56,41,42,39,44,43,40,62,32,28,37,34,32,26,35,52,68,23,33,29,32,1,29,6,Alabama,"Huntsville, AL",Yes,PM10,Decreasing,-0.8,0.000019621,1,Yes,Decreasing,-0.741666667,0.0130761282,1,Yes,No Trend,-0.5,0.2711296747
01-089-0003,010890003,34.728830986,-86.58500252,Garage Daily,Southeast,2,MAX2V,,,,54,54,61,54,48,56,50,80,45,47,49,40,52,47,47,37,31,37,34,38,37,62,49,30,27,28,34,37,0,28,6,Alabama,"Huntsville, AL",No,PM10,Undetermined/Insufficient Data,,,1,Yes,Decreasing,-1,0.0030455123,1,Yes,No Trend,-0.571428571,0.2226910724
01-089-0004,010890004,34.620369294,-86.56638055,Fire Station #7,Southeast,1,MAX2V,48,67,46,53,,51,44,46,42,41,52,36,39,46,38,43,39,36,34,24,33,34,27,27,25,38,24,21,27,23,24,1,30,6,Alabama,"Huntsville, AL",Yes,PM10,Decreasing,-1.045454545,7.863612E-12,1,Yes,Decreasing,-1.166666667,3.8929846E-6,1,Yes,Decreasing,-1,0.0202661787
01-089-0006,010890006,34.645924615,-86.77166654,,Southeast,1,MAX2V,42,61,44,55,,,,,,,,,,,,,,,,,,,,,,,,,,,,0,4,6,Alabama,"Huntsville, AL",No,PM10,Undetermined/Insufficient Data,,,,,,,,,,,,
01-089-0014,010890014,34.687761126,-86.58636248,HUNTSVILLE OLD AIRPORT,Southeast,1,MAX2V,65,65,50,56,46,49,43,46,49,52,62,42,41,44,40,44,38,52,33,25,35,35,29,25,28,38,25,24,32,34,33,1,31,6,Alabama,"Huntsville, AL",Yes,PM10,Decreasing,-1.04,8.3615377E-9,1,Yes,Decreasing,-1,0.0003087673,1,Yes,No Trend,-0.2,0.3240477193
01-091-0003,010910003,32.50374737,-87.83473502,DEMOPOLIS,Southeast,1,MAX2V,68,52,46,55,45,37,52,52,46,55,46,52,44,36,36,45,,,,,,,,,,,,,,,,0,16,6,Alabama,,No,PM10,Undetermined/Insufficient Data,,,0,No,Undetermined/Insufficient Data,,,,,,,
01-097-0002,010970002,30.766519723,-88.07572735,ST. THOMAS,Southeast,1,MAX2V,,47,49,61,47,46,44,47,57,44,57,39,33,,,,,,,,,,,,,,,,,,,0,12,6,Alabama,"Mobile, AL",No,PM10,Undetermined/Insufficient Data,,,0,No,Undetermined/Insufficient Data,,,,,,,
01-097-0003,010970003,30.770181001,-88.087761,CHICKASAW,Southeast,2,MAX2V,,,,,,,41,51,,,,,48,45,56,45,54,53,45,36,72,39,,,,,,,,,,0,12,6,Alabama,"Mobile, AL",No,PM10,Undetermined/Insufficient Data,,,0,No,Undetermined/Insufficient Data,,,0,No,Undetermined/Insufficient Data,,
01-097-0015,010970015,30.699406412,-88.04723428,USPO (CLOSED),Southeast,1,MAX2V,53,51,72,71,54,44,43,54,67,48,37,56,,,,,,,,,,,,,,,,,,,,0,12,6,Alabama,"Mobile, AL",No,PM10,Undetermined/Insufficient Data,,,0,No,Undetermined/Insufficient Data,,,,,,,
01-097-0016,010970016,30.720515317,-88.05895056,"WKRG, MOBILE",Southeast,4,MAX2V,64,73,86,68,76,67,54,59,54,44,43,47,47,46,50,44,44,51,41,37,54,58,35,40,,,,,,,,0,24,6,Alabama,"Mobile, AL",No,PM10,Undetermined/Insufficient Data,,,0,No,Undetermined/Insufficient Data,,,0,No,Undetermined/Insufficient Data,,
01-097-0031,010970031,30.698836378,-88.18197395,USA (CLOSED),Southeast,1,MAX2V,,,,,,,,56,56,,40,45,,,,,,,,,,,,,,,,,,,,0,4,6,Alabama,"Mobile, AL",No,PM10,Undetermined/Insufficient Data,,,0,No,Undetermined/Insufficient Data,,,,,,,
01-097-1002,010971002,30.705745588,-88.06527728,,Southeast,1,MAX2V,,55,56,63,48,41,,,,,,,,,,,,,,,,,,,,,,,,,,0,5,6,Alabama,"Mobile, AL",No,PM10,Undetermined/Insufficient Data,,,,,,,,,,,,
01-097-2005,010972005,30.474305001,-88.141022,BAY ROAD,Southeast,1,MAX2V,,,,,,,,,,63,42,47,31,37,60,36,,,,,,,,,,,,,,,,0,7,6,Alabama,"Mobile, AL",No,PM10,Undetermined/Insufficient Data,,,0,No,Undetermined/Insufficient Data,,,,,,,
01-101-0007,011010007,32.425969936,-86.28524719,MONTGOMERY RCC CLOSED AND RELOCATED TO MOMS ON 01/15/2009,Southeast,1,MAX2V,58,60,48,48,45,55,39,53,49,48,58,47,40,,,,,,,,,,,,,,,,,,,0,13,6,Alabama,"Montgomery, AL",No,PM10,Undetermined/Insufficient Data,,,0,No,Undetermined/Insufficient Data,,,,,,,
01-101-1001,011011001,31.971818094,-86.13468124,,Southeast,2,MAX2V,60,52,44,39,,,,,,,,,,,,,,,,,,,,,,,,,,,,0,4,6,Alabama,"Montgomery, AL",No,PM10,Undetermined/Insufficient Data,,,,,,,,,,,,
01-101-1002,011011002,32.412811001,-86.263394,"MOMS, ADEM",Southeast,1,MAX2V,,,,,44,56,38,50,49,48,61,50,36,39,49,40,49,44,53,31,61,40,28,27,,,,33,48,33,25,0,24,6,Alabama,"Montgomery, AL",No,PM10,Undetermined/Insufficient Data,,,0,No,Undetermined/Insufficient Data,,,0,No,Undetermined/Insufficient Data,,
01-103-0008,011030008,34.605925082,-86.98195238,,Southeast,1,MAX2V,57,68,48,60,45,52,44,48,44,,,,,,,,,,,,,,,,,,,,,,,0,9,6,Alabama,"Decatur, AL",No,PM10,Undetermined/Insufficient Data,,,,,,,,,,,,
01-103-0009,011030009,34.630955824,-87.05277541,ADEM MALLARD CREEK PM10 STATION NEAR DECATUR AL,Southeast,1,MAX2V,,,,,,,45,,,,,,,,,,,,,,,,,,,,,,,,,0,1,6,Alabama,"Decatur, AL",No,PM10,Undetermined/Insufficient Data,,,,,,,,,,,,
01-103-0010,011030010,34.630955825,-87.05277541,DECATUR (CLOSED),Southeast,1,MAX2V,,,,,,,,,,43,53,40,,,,,,,,,,,,,,,,,,,,0,3,6,Alabama,"Decatur, AL",No,PM10,Undetermined/Insufficient Data,,,0,No,Undetermined/Insufficient Data,,,,,,,
01-103-0011,011030011,34.530717001,-86.967536,"DECATUR, Alabama",Southeast,1,MAX2V,,,,,,,,,,,,,31,,,,,,,,,,,,,,,,,,,0,1,6,Alabama,"Decatur, AL",No,PM10,Undetermined/Insufficient Data,,,0,No,Undetermined/Insufficient Data,,,,,,,
01-109-0003,011090003,31.790479001,-85.978974,TROY LEAD,Southeast,1,MAX2V,61,54,49,60,45,49,45,48,51,40,48,40,46,45,50,49,,,,,,,,,,,,,,,,0,16,6,Alabama,"Troy, AL",No,PM10,Undetermined/Insufficient Data,,,0,No,Undetermined/Insufficient Data,,,,,,,
01-113-0001,011130001,32.472136001,-85.005028,PHENIX CITY,Southeast,1,MAX2V,63,75,51,50,49,54,38,55,55,49,52,44,44,38,,,,,,,,,,,,,,,,,,0,14,6,Alabama,"Columbus, GA-AL",No,PM10,Undetermined/Insufficient Data,,,0,No,Undetermined/Insufficient Data,,,,,,,
01-117-0003,011170003,33.109007551,-86.75359739,CALERA (CLOSED),Southeast,2,MAX2V,66,72,47,62,45,52,42,67,46,57,60,49,,,,,,,,,,,,,,,,,,,,0,12,6,Alabama,"Birmingham-Hoover, AL",No,PM10,Undetermined/Insufficient Data,,,0,No,Undetermined/Insufficient Data,,,,,,,
01-121-0002,011210002,33.279470001,-86.349438,CHILDERSBURG,Southeast,1,MAX2V,63,73,42,49,42,52,48,54,48,59,62,41,38,43,39,42,,,,,,,,,,,,,,,,0,16,6,Alabama,"Talladega-Sylacauga, AL",No,PM10,Undetermined/Insufficient Data,,,0,No,Undetermined/Insufficient Data,,,,,,,
01-121-1002,011211002,33.43677528,-86.10052734,TALLADEGA,Southeast,1,MAX2V,86,82,71,70,60,64,53,67,49,50,68,44,49,57,44,61,,,,,,,,,,,,,,,,0,16,6,Alabama,"Talladega-Sylacauga, AL",No,PM10,Undetermined/Insufficient Data,,,0,No,Undetermined/Insufficient Data,,,,,,,
01-125-0003,011250003,33.217062271,-87.53889497,TUSC. (CLOSED),Southeast,1,MAX2V,70,62,45,66,48,63,58,55,53,61,68,,,,,,,,,,,,,,,,,,,,,0,11,6,Alabama,"Tuscaloosa, AL",No,PM10,Undetermined/Insufficient Data,,,0,No,Undetermined/Insufficient Data,,,,,,,
01-127-0002,011270002,33.832885387,-87.27250524,JASPER,Southeast,1,MAX2V,65,77,44,58,45,53,46,43,48,56,41,,,,,,,,,,,,,,,,,,,,,0,11,6,Alabama,"Birmingham-Hoover, AL",No,PM10,Undetermined/Insufficient Data,,,0,No,Undetermined/Insufficient Data,,,,,,,
02-020-0005,020200005,61.215837264,-149.8955386,,None,2,MAX2V,94,,,,,,,,,,,,,,,,,,,,,,,,,,,,,,,0,1,0,Alaska,"Anchorage, AK",No,PM10,Undetermined/Insufficient Data,,,,,,,,,,,,
02-020-0018,020200018,61.205861001,-149.824602,GARDEN/TRINITY CHRISTIAN CHURCH,None,1,MAX2V,,,,,,,,,,,52,54,40,57,37,52,48,56,49,44,40,36,53,34,,,,,,,,0,14,0,Alaska,"Anchorage, AK",No,PM10,Undetermined/Insufficient Data,,,0,No,Undetermined/Insufficient Data,,,1,Yes,No Trend,1.3333333333,0.2711296747
02-020-0026,020200026,61.203614746,-149.8694239,,None,1,MAX2V,188,141,446,174,198,192,158,127,98,73,,,,,,,,,,,,,,,,,,,,,,0,10,0,Alaska,"Anchorage, AK",No,PM10,Undetermined/Insufficient Data,,,,,,,,,,,,
02-020-0039,020200039,61.311678469,-149.5427703,,None,1,MAX2V,83,148,116,,,,,,,,,,,,,,,,,,,,,,,,,,,,,0,3,0,Alaska,"Anchorage, AK",No,PM10,Undetermined/Insufficient Data,,,,,,,,,,,,
02-020-0040,020200040,61.311678356,-149.545825,,None,1,MAX2V,,,170,66,66,80,68,,,,,,,,,,,,,,,,,,,,,,,,,0,5,0,Alaska,"Anchorage, AK",No,PM10,Undetermined/Insufficient Data,,,,,,,,,,,,
02-020-0042,020200042,61.113612643,-149.8771956,,None,1,MAX2V,77,99,331,69,79,102,85,95,54,41,,,,,,,,,,,,,,,,,,,,,,0,10,0,Alaska,"Anchorage, AK",No,PM10,Undetermined/Insufficient Data,,,,,,,,,,,,
02-020-0043,020200043,61.214450247,-149.7252565,SITE AT INTERSECTION OF MULDOON AND DEBARR ROADS - NE ANCHORAGE,None,1,MAX2V,,,,,,89,94,100,58,64,78,82,58,187,55,82,,,,,,,,,,,,,,,,0,11,0,Alaska,"Anchorage, AK",No,PM10,Undetermined/Insufficient Data,,,0,No,Undetermined/Insufficient Data,,,,,,,
02-020-0044,020200044,61.181083001,-149.817389,ON THE ROOF OF THE ALLSTATE BUILDING,None,1,MAX2V,,,,,,,,,,52,108,127,104,179,97,145,105,98,109,90,98,,,,,,,,,,,0,12,0,Alaska,"Anchorage, AK",No,PM10,Undetermined/Insufficient Data,,,0,No,Undetermined/Insufficient Data,,,0,No,Undetermined/Insufficient Data,,
02-020-0045,020200045,61.181116667,-149.8340028,ON THE ROOF OF THE TUDOR PROFESSIONAL BUILDING,None,3,MAX2V,,,,,,,,,,,,,,,,,,,,,,,,,,76,115,88,102,98,77,0,6,0,Alaska,"Anchorage, AK",No,PM10,Undetermined/Insufficient Data,,,0,No,Undetermined/Insufficient Data,,,0,No,Undetermined/Insufficient Data,,
02-020-0052,020200052,61.215027001,-149.903111,DHHS,None,3,MAX2V,,,,,,,,,,,,,,,,,,,,120,89,43,68,,,,,,,,,0,4,0,Alaska,"Anchorage, AK",No,PM10,Undetermined/Insufficient Data,,,0,No,Undetermined/Insufficient Data,,,0,No,Undetermined/Insufficient Data,,
02-020-1004,020201004,61.326700001,-149.569707,PARKGATE/EAGLE RIVER,None,1,MAX2V,106,72,128,77,60,51,49,59,55,66,53,66,40,92,43,65,60,48,53,49,39,62,,,,,,,,64,26,0,24,0,Alaska,"Anchorage, AK",No,PM10,Undetermined/Insufficient Data,,,0,No,Undetermined/Insufficient Data,,,1,Yes,No Trend,-3,0.1414834105
02-050-0001,020500001,60.795830001,-161.767,Bethel,None,3,MAX2V,,,,,,,,,,,,,,,,,,,,,,,,,,,,,60,99,48,0,3,0,Alaska,,No,PM10,Undetermined/Insufficient Data,,,0,No,Undetermined/Insufficient Data,,,0,No,Undetermined/Insufficient Data,,
02-090-0010,020900010,64.840672025,-147.7224613,STATE OFFICE BUILDING,None,1,MAX2V,152,59,58,70,52,57,49,47,42,51,,,,,,,,,,,,,,,,,,,,,,0,10,0,Alaska,"Fairbanks, AK",No,PM10,Undetermined/Insufficient Data,,,,,,,,,,,,
02-090-0025,020900025,64.837346984,-147.7182571,,None,2,MAX2V,139,79,101,76,72,87,98,59,,,,,,,,,,,,,,,,,,,,,,,,0,8,0,Alaska,"Fairbanks, AK",No,PM10,Undetermined/Insufficient Data,,,,,,,,,,,,
02-090-0027,020900027,64.843733071,-147.8593708,,None,1,MAX2V,53,59,49,,,,,,,,,,,,,,,,,,,,,,,,,,,,,0,3,0,Alaska,"Fairbanks, AK",No,PM10,Undetermined/Insufficient Data,,,,,,,,,,,,
02-090-0034,020900034,64.84569,-147.727413,NCORE,None,3,MAX2V,,,,,,,,,,,,,,,,,,,,,,52,83,95,74,229,69,49,59,200,43,0,10,0,Alaska,"Fairbanks, AK",No,PM10,Undetermined/Insufficient Data,,,0,No,Undetermined/Insufficient Data,,,1,Yes,No Trend,-0.5,0.4396349156
02-110-0004,021100004,58.388497124,-134.5672365,Floyd Dryden Middle School,None,1,MAX2V,101,327,207,79,59,76,79,63,40,27,27,28,29,22,31,35,27,21,28,24,27,21,19,24,31,18,32,30,,,,0,28,0,Alaska,"Juneau, AK",No,PM10,Undetermined/Insufficient Data,,,0,No,Undetermined/Insufficient Data,,,0,No,Undetermined/Insufficient Data,,
02-110-0015,021100015,58.35856382,-134.501776,,None,1,MAX2V,108,76,72,72,,,,,,,,,,,,,,,,,,,,,,,,,,,,0,4,0,Alaska,"Juneau, AK",No,PM10,Undetermined/Insufficient Data,,,,,,,,,,,,
02-110-0016,021100016,58.374117491,-134.5851142,,None,2,MAX2V,69,81,80,69,,,,,,,,,,,,,,,,,,,,,,,,,,,,0,4,0,Alaska,"Juneau, AK",No,PM10,Undetermined/Insufficient Data,,,,,,,,,,,,
02-110-0019,021100019,58.389118023,-134.577337,,None,1,MAX2V,218,617,496,224,84,88,78,90,,,,,,,,,,,,,,,,,,,,,,,,0,8,0,Alaska,"Juneau, AK",No,PM10,Undetermined/Insufficient Data,,,,,,,,,,,,
02-110-0020,021100020,58.389952317,-134.5659473,,None,1,MAX2V,95,213,,,,,,,,,,,,,,,,,,,,,,,,,,,,,,0,2,0,Alaska,"Juneau, AK",No,PM10,Undetermined/Insufficient Data,,,,,,,,,,,,
02-110-0022,021100022,58.362174659,-134.5153879,TRAILER LOCATED IN PARKING LOT OF MIDDLE SCHOOL,None,1,MAX2V,,,,15,21,,,,,,,,,,,,,,,,,,,,,,,,,,,0,2,0,Alaska,"Juneau, AK",No,PM10,Undetermined/Insufficient Data,,,,,,,,,,,,
02-122-0008,021220008,60.48916667,-151.0693,"Kenai Peninsula Borough Building site, Soldotna",None,3,MAX2V,,,,,,,,,,,,,,,,,,,,,,,108,68,90,,,,,,,0,3,0,Alaska,,No,PM10,Undetermined/Insufficient Data,,,0,No,Undetermined/Insufficient Data,,,0,No,Undetermined/Insufficient Data,,
02-122-1004,021221004,60.694993924,-151.366127,,None,1,MAX2V,270,32,,,,,,,,,,,,,,,,,,,,,,,,,,,,,,0,2,0,Alaska,,No,PM10,Undetermined/Insufficient Data,,,,,,,,,,,,
02-122-1005,021221005,60.684437152,-151.3752941,,None,1,MAX2V,33,27,,,,,,,,,,,,,,,,,,,,,,,,,,,,,,0,2,0,Alaska,,No,PM10,Undetermined/Insufficient Data,,,,,,,,,,,,
02-122-1006,021221006,59.462806,-151.687917,,None,1,MAX2V,,,,,,,,,,,,,,,,,,,,,,,,96,15,,,,,,,0,2,0,Alaska,,No,PM10,Undetermined/Insufficient Data,,,0,No,Undetermined/Insufficient Data,,,0,No,Undetermined/Insufficient Data,,
02-122-1007,021221007,59.468101,-151.66185,,None,1,MAX2V,,,,,,,,,,,,,,,,,,,,,,,,134,16,,,,,,,0,2,0,Alaska,,No,PM10,Undetermined/Insufficient Data,,,0,No,Undetermined/Insufficient Data,,,0,No,Undetermined/Insufficient Data,,
02-130-0008,021300008,55.351042541,-131.6500189,SITE LOCATED AT END OF W. SESAME STREET IN BEAR VALLEY,None,1,MAX2V,,,,27,43,86,,,,,,,,,,,,,,,,,,,,,,,,,,0,3,0,Alaska,"Ketchikan, AK",No,PM10,Undetermined/Insufficient Data,,,,,,,,,,,,
02-170-0008,021700008,61.534163,-149.031655,BUTTE,None,1,MAX2V,,,,,,,,,180,149,125,100,36,122,97,111,79,48,87,29,45,34,31,26,43,,,,,,,0,17,0,Alaska,"Anchorage, AK",No,PM10,Undetermined/Insufficient Data,,,0,No,Undetermined/Insufficient Data,,,1,Yes,No Trend,0,0.5
02-170-0009,021700009,61.608147689,-149.2098325,SHELTER LOCATED IN PARKING LOT OF COLONY HIGH SCHOOL,None,1,MAX2V,,,,,,,,,89,,,,,,,,,,,,,,,,,,,,,,,0,1,0,Alaska,"Anchorage, AK",No,PM10,Undetermined/Insufficient Data,,,,,,,,,,,,
02-170-0012,021700012,61.598897649,-149.1062196,Palmer,None,3,MAX2V,,,,,,,,,,,,,,,,,,,,,,174,121,84,213,158,112,119,131,58,,0,9,0,Alaska,"Anchorage, AK",No,PM10,Undetermined/Insufficient Data,,,0,No,Undetermined/Insufficient Data,,,1,Yes,Decreasing,-9.166666667,0.0202661787
02-170-0013,021700013,61.598795943,-149.455255,Wasilla,None,3,MAX2V,,,,,,,,,,,,,,,,,,,,,,49,109,63,118,69,,,,,,0,5,0,Alaska,"Anchorage, AK",No,PM10,Undetermined/Insufficient Data,,,0,No,Undetermined/Insufficient Data,,,0,No,Undetermined/Insufficient Data,,
02-220-0007,022200007,57.03991521,-135.2720416,,None,1,MAX2V,35,,,,,,,,,,,,,,,,,,,,,,,,,,,,,,,0,1,0,Alaska,,No,PM10,Undetermined/Insufficient Data,,,,,,,,,,,,
02-220-0008,022200008,57.051304615,-135.2384294,,None,1,MAX2V,18,69,52,53,,,,,,,,,,,,,,,,,,,,,,,,,,,,0,4,0,Alaska,,No,PM10,Undetermined/Insufficient Data,,,,,,,,,,,,
04-001-1003,040011003,34.07339,-109.85801,White Mountain Fort Apache Reservation,Southwest,1,MAX2V,,,,,,,,,,,,,,,,,,,,65,40,59,56,54,48,32,55,53,58,38,43,0,12,7,Arizona,,No,PM10,Undetermined/Insufficient Data,,,0,No,Undetermined/Insufficient Data,,,1,Yes,No Trend,-0.8,0.2226910724
04-001-1234,040011234,35.746004763,-109.0723864,FD,Southwest,1,MAX2V,,,,,,,,,,,,,,53,52,53,105,98,110,92,,,,,,,,,,,,0,7,7,Arizona,,No,PM10,Undetermined/Insufficient Data,,,0,No,Undetermined/Insufficient Data,,,,,,,
04-003-0011,040030011,31.3658,-109.73095,PAUL SPUR CHEMICAL LIME PLANT,Southwest,1,MAX2V,222,154,129,67,77,77,69,74,94,88,57,45,37,45,37,68,64,62,70,46,37,69,36,,,,,,,,,0,23,7,Arizona,"Sierra Vista-Douglas, AZ",No,PM10,Undetermined/Insufficient Data,,,0,No,Undetermined/Insufficient Data,,,1,Yes,No Trend,-2.833333333,0.2226910724
04-003-1004,040031004,31.349733,-109.539695,DOUGLAS CITY PARK,Southwest,1,MAX2V,113,120,104,59,73,57,69,,,,,,,,,,,,,,,,,,,,,,,,,0,7,7,Arizona,"Sierra Vista-Douglas, AZ",No,PM10,Undetermined/Insufficient Data,,,,,,,,,,,,
04-003-1005,040031005,31.3492,-109.539683,DOUGLAS RED CROSS,Southwest,1,MAX2V,,,,,,,,,,82,90,110,69,71,52,82,75,72,92,83,83,88,58,,,,,,,,,0,14,7,Arizona,"Sierra Vista-Douglas, AZ",No,PM10,Undetermined/Insufficient Data,,,0,No,Undetermined/Insufficient Data,,,0,No,Undetermined/Insufficient Data,,
04-003-1006,040031006,31.350031,-109.537788,DOUGLAS HIGH SCHOOL,Southwest,1,MAX2V,,,,,,,,55,,,,,,,,,,,,,,,,,,,,,,,,0,1,7,Arizona,"Sierra Vista-Douglas, AZ",No,PM10,Undetermined/Insufficient Data,,,,,,,,,,,,
04-005-1003,040051003,35.207896,-111.655625,FLAGSTAFF THORPE PARK,Southwest,1,MAX2V,,,45,55,40,42,31,,,,,,,,,,,,,,,,,,,,,,,,,0,5,7,Arizona,"Flagstaff, AZ",No,PM10,Undetermined/Insufficient Data,,,,,,,,,,,,
04-005-1007,040051007,35.19945562,-111.6423837,,Southwest,1,MAX2V,77,54,,,,,,,,,,,,,,,,,,,,,,,,,,,,,,0,2,7,Arizona,"Flagstaff, AZ",No,PM10,Undetermined/Insufficient Data,,,,,,,,,,,,
04-005-1008,040051008,35.206111,-111.652777,FLAGSTAFF MIDDLE SCHOOL,Southwest,1,MAX2V,,,,,,,,,,31,33,40,26,50,41,35,35,42,43,43,25,37,35,27,,,,,,,,0,15,7,Arizona,"Flagstaff, AZ",No,PM10,Undetermined/Insufficient Data,,,0,No,Undetermined/Insufficient Data,,,0,No,Undetermined/Insufficient Data,,
04-005-1009,040051009,35.221481,-111.566897,FLAGSTAFF ADOT,Southwest,1,MAX2V,,,,,,,,,,35,32,30,,,,,,,,,,,,,,,,,,,,0,3,7,Arizona,"Flagstaff, AZ",No,PM10,Undetermined/Insufficient Data,,,0,No,Undetermined/Insufficient Data,,,,,,,
04-005-1010,040051010,34.866666,-111.765,SEDONA POST OFFICE,Southwest,1,MAX2V,,,,,,,,,,,21,21,45,43,20,25,31,29,,,,,,,,,,,,,,0,8,7,Arizona,"Flagstaff, AZ",No,PM10,Undetermined/Insufficient Data,,,0,No,Undetermined/Insufficient Data,,,,,,,
04-005-1237,040051237,36.125018223,-111.2347266,Tuba City,Southwest,1,MAX2V,,,,,,,,,,,,,,,,,,,,51,106,48,50,,,,,,,,,0,4,7,Arizona,"Flagstaff, AZ",No,PM10,Undetermined/Insufficient Data,,,0,No,Undetermined/Insufficient Data,,,0,No,Undetermined/Insufficient Data,,
04-007-0008,040070008,34.229733,-111.3295,PAYSON WELL SITE,Southwest,1,MAX2V,,,56,82,88,125,66,67,63,52,59,48,45,63,49,47,61,42,39,39,39,38,40,43,36,,,,,,,0,23,7,Arizona,"Payson, AZ",No,PM10,Undetermined/Insufficient Data,,,0,No,Undetermined/Insufficient Data,,,0,No,Undetermined/Insufficient Data,,
04-007-0009,040070009,33.399135,-110.858896,MIAMI RIDGELINE,Southwest,1,MAX2V,,,,,,,,,,,,,,39,24,23,25,27,28,27,19,50,36,27,41,22,,,,,,0,13,7,Arizona,"Payson, AZ",No,PM10,Undetermined/Insufficient Data,,,0,No,Undetermined/Insufficient Data,,,0,No,Undetermined/Insufficient Data,,
04-007-1001,040071001,33.006179,-110.785797,HAYDEN OLD JAIL,Southwest,1,MAX2V,64,81,83,63,66,90,66,67,65,79,65,58,64,84,47,62,68,69,67,,,,,,,,,,,,,0,19,7,Arizona,"Payson, AZ",No,PM10,Undetermined/Insufficient Data,,,0,No,Undetermined/Insufficient Data,,,1,Yes,No Trend,-1.4,0.5
04-007-8000,040078000,33.4190167,-110.82967,MIAMI GOLF COURSE,Southwest,1,MAX2V,,,,,,,,,,,,,,49,32,39,33,41,37,31,26,49,35,35,,,,,,,,0,11,7,Arizona,"Payson, AZ",No,PM10,Undetermined/Insufficient Data,,,0,No,Undetermined/Insufficient Data,,,1,Yes,No Trend,1,0.2226910724
04-007-9990,040079990,33.404583,-110.859188,MIAMI SOUTH,Southwest,1,MAX2V,,,34,24,29,,,,,,,,,,,,,,,,,,,,,,,,,,,0,3,7,Arizona,"Payson, AZ",No,PM10,Undetermined/Insufficient Data,,,,,,,,,,,,
04-007-9991,040079991,33.418889,-110.824167,MIAMI SW GAS YARD,Southwest,1,MAX2V,58,,,,,,,,,,,,,,,,,,,,,,,,,,,,,,,0,1,7,Arizona,"Payson, AZ",No,PM10,Undetermined/Insufficient Data,,,,,,,,,,,,
04-009-0001,040090001,32.83388,-109.718611,SAFFORD,Southwest,1,MAX2V,57,50,86,47,49,87,84,62,,87,69,38,48,65,33,46,50,54,,,,,,,,,,,,,,0,17,7,Arizona,"Safford, AZ",No,PM10,Undetermined/Insufficient Data,,,0,No,Undetermined/Insufficient Data,,,,,,,
04-012-8000,040128000,34.2439,-113.5586,ALAMO LAKE,Southwest,3,MAX2V,,,,,,,,,,,,,,,,,,,,,,,,,83,62,84,76,94,40,148,0,7,7,Arizona,,No,PM10,Undetermined/Insufficient Data,,,0,No,Undetermined/Insufficient Data,,,0,No,Undetermined/Insufficient Data,,
04-013-0013,040130013,33.405322793,-112.0740364,Old South Phoenix Site,Southwest,2,MAX2V,74,74,158,74,89,73,95,113,,,,,,,,,,,,,,,,,,,,,,,,0,8,7,Arizona,"Phoenix-Mesa-Scottsdale, AZ",No,PM10,Undetermined/Insufficient Data,,,,,,,,,,,,
04-013-0019,040130019,33.483780001,-112.14256,WEST PHOENIX,Southwest,1,MAX2V,93,81,101,88,92,88,99,136,76,102,132,91,97,136,72,102,150,115,105,118,86,266,148,188,165,70,138,114,237,57,120,1,31,7,Arizona,"Phoenix-Mesa-Scottsdale, AZ",Yes,PM10,Increasing,1.4545454545,0.0119829678,1,Yes,No Trend,1.3333333333,0.209797354,1,Yes,No Trend,-4.5,0.1793557349
04-013-0021,040130021,33.287828117,-111.8173606,,Southwest,1,MAX2V,101,111,126,92,114,160,130,148,86,99,144,99,116,126,80,114,,,,,,,,,,,,,,,,0,16,7,Arizona,"Phoenix-Mesa-Scottsdale, AZ",No,PM10,Undetermined/Insufficient Data,,,0,No,Undetermined/Insufficient Data,,,,,,,
04-013-1003,040131003,33.410180001,-111.86536,MESA,Southwest,1,MAX2V,,62,58,75,51,69,62,119,56,71,93,55,86,111,39,55,59,70,49,65,39,90,57,139,146,48,97,140,235,46,76,1,30,7,Arizona,"Phoenix-Mesa-Scottsdale, AZ",Yes,PM10,No Trend,0.5833333333,0.1720765656,1,Yes,No Trend,1.4,0.1616044369,1,Yes,No Trend,3.7,0.2226910724
04-013-1004,040131004,33.560310001,-112.06619,NORTH PHOENIX,Southwest,1,MAX2V,,110,65,57,66,68,70,80,63,62,113,54,72,132,43,72,62,76,48,66,39,184,140,148,107,55,76,73,166,40,54,1,30,7,Arizona,"Phoenix-Mesa-Scottsdale, AZ",Yes,PM10,No Trend,0,0.5,1,Yes,No Trend,0.0333333333,0.488109753,1,Yes,No Trend,-10.75,0.1414834105
04-013-2001,040132001,33.574530001,-112.19193,GLENDALE,Southwest,1,MAX2V,,84,60,68,54,63,60,87,74,63,99,63,85,129,47,55,58,74,48,83,62,240,136,172,102,71,161,117,208,42,68,1,30,7,Arizona,"Phoenix-Mesa-Scottsdale, AZ",Yes,PM10,No Trend,1,0.0772642846,1,Yes,No Trend,1.8166666667,0.1616044369,1,Yes,No Trend,-5.666666667,0.2226910724
04-013-2004,040132004,33.604485954,-111.9284789,North Scottsdale,Southwest,1,MAX2V,,111,59,53,43,,,,,,,,,,,,,,,,,,,,,,,,,,,0,4,7,Arizona,"Phoenix-Mesa-Scottsdale, AZ",No,PM10,Undetermined/Insufficient Data,,,,,,,,,,,,
04-013-2005,040132005,33.706390001,-111.85575,PINNACLE PEAK,Southwest,1,MAX2V,33,,,,,,,,,,,,,,,,,,,,,,,,,,,,,,,0,1,7,Arizona,"Phoenix-Mesa-Scottsdale, AZ",No,PM10,Undetermined/Insufficient Data,,,,,,,,,,,,
04-013-3002,040133002,33.457970001,-112.04659,CENTRAL PHOENIX,Southwest,4,MAX2V,,,,,,,,144,123,100,129,122,94,174,87,103,187,149,116,130,63,307,137,184,146,85,102,126,294,69,100,0,24,7,Arizona,"Phoenix-Mesa-Scottsdale, AZ",No,PM10,Undetermined/Insufficient Data,,,1,Yes,No Trend,-0.428571429,0.3942100831,1,Yes,No Trend,-4.625,0.2711296747
04-013-3003,040133003,33.479680001,-111.91721,SOUTH SCOTTSDALE,Southwest,1,MAX2V,67,61,60,60,69,69,64,84,66,80,98,53,61,123,41,96,60,61,50,75,29,90,91,142,169,67,113,129,221,55,107,1,31,7,Arizona,"Phoenix-Mesa-Scottsdale, AZ",Yes,PM10,Increasing,1.5,0.0171309611,1,Yes,Increasing,2.898989899,0.0425975647,1,Yes,No Trend,6.5,0.1793557349
04-013-3005,040133005,33.360604524,-111.7693042,WATER TREATMENT PLANT-LINDSEY RD NEAR GUADALUPE RD,Southwest,1,MAX2V,,,,,,,,108,93,87,108,118,,,,,,,,,,,,,,,,,,,,0,5,7,Arizona,"Phoenix-Mesa-Scottsdale, AZ",No,PM10,Undetermined/Insufficient Data,,,0,No,Undetermined/Insufficient Data,,,,,,,
04-013-3006,040133006,33.474486453,-112.1929301,MARYVALE-POLICE STN-ENCANTO BLVD NEAR 59TH AVE,Southwest,1,MAX2V,,,,,,,,161,83,96,109,122,89,136,,,,,,,,,,,,,,,,,,0,7,7,Arizona,"Phoenix-Mesa-Scottsdale, AZ",No,PM10,Undetermined/Insufficient Data,,,0,No,Undetermined/Insufficient Data,,,,,,,
04-013-3007,040133007,33.417822283,-112.1048716,SALT RIVER SERVICE CENTER-CITY EQUIPMENT SERVICE YARD,Southwest,2,MAX2V,,,,,,,,301,,218,231,275,174,,,,,,,,,,,,,,,,,,,0,5,7,Arizona,"Phoenix-Mesa-Scottsdale, AZ",No,PM10,Undetermined/Insufficient Data,,,0,No,Undetermined/Insufficient Data,,,,,,,
04-013-3009,040133009,33.301715941,-111.8929182,WEST CHANDLER-FIRE STN-PRICE RD & CHANDLER BLVD,Southwest,2,MAX2V,,,,,,,,161,76,91,,,,,,,,,,,,,,,,,,,,,,0,3,7,Arizona,"Phoenix-Mesa-Scottsdale, AZ",No,PM10,Undetermined/Insufficient Data,,,,,,,,,,,,
04-013-3010,040133010,33.460930001,-112.11748,GREENWOOD,Southwest,1,MAX2V,,,,,,,,124,99,115,158,99,102,125,82,95,170,122,122,123,135,254,212,207,157,90,105,,,,,0,20,7,Arizona,"Phoenix-Mesa-Scottsdale, AZ",No,PM10,Undetermined/Insufficient Data,,,0,No,Undetermined/Insufficient Data,,,0,No,Undetermined/Insufficient Data,,
04-013-4003,040134003,33.403140001,-112.07526,SOUTH PHOENIX,Southwest,1,MAX2V,,,,,,,,,,,122,92,123,134,125,107,100,159,161,169,112,338,285,186,169,80,85,121,160,72,94,0,21,7,Arizona,"Phoenix-Mesa-Scottsdale, AZ",No,PM10,Undetermined/Insufficient Data,,,1,Yes,No Trend,-0.079411765,0.488109753,1,Yes,Decreasing,-16.25,0.030085077
04-013-4004,040134004,33.298960001,-111.88426,WEST CHANDLER,Southwest,1,MAX2V,,,,,,,,,,,,58,76,197,54,67,68,98,48,185,71,387,221,188,146,87,123,134,228,71,89,0,20,7,Arizona,"Phoenix-Mesa-Scottsdale, AZ",No,PM10,Undetermined/Insufficient Data,,,1,Yes,Increasing,2.21875,0.0324667888,1,Yes,No Trend,-14.14285714,0.1793557349
04-013-4005,040134005,33.411230001,-111.93471,TEMPE,Southwest,1,MAX2V,,,,,,,,,,,,,,,,,,,,,,,145,146,140,48,71,98,168,46,87,0,9,7,Arizona,"Phoenix-Mesa-Scottsdale, AZ",No,PM10,Undetermined/Insufficient Data,,,0,No,Undetermined/Insufficient Data,,,1,Yes,No Trend,-6.444444444,0.1091732554
04-013-4006,040134006,33.309950001,-111.72003,HIGLEY,Southwest,1,MAX2V,,,,,,,,,,,,92,134,151,159,120,221,199,118,177,80,266,194,143,155,,,114,196,91,107,0,18,7,Arizona,"Phoenix-Mesa-Scottsdale, AZ",No,PM10,Undetermined/Insufficient Data,,,1,Yes,No Trend,-0.422222222,0.4173409617,1,Yes,No Trend,-10,0.0822866562
04-013-4007,040134007,33.655,-112.3855,SEASONAL SITE,Southwest,1,MAX2V,,,,,,,,,,,,52,67,,,,,,,,,,,,,,,,,,,0,2,7,Arizona,"Phoenix-Mesa-Scottsdale, AZ",No,PM10,Undetermined/Insufficient Data,,,0,No,Undetermined/Insufficient Data,,,,,,,
04-013-4009,040134009,33.406350001,-112.14426,WEST 43RD AVENUE,Southwest,1,MAX2V,,,,,,,,,,,,,135,154,145,200,260,225,250,213,107,292,220,280,141,124,127,160,275,183,199,0,19,7,Arizona,"Phoenix-Mesa-Scottsdale, AZ",No,PM10,Undetermined/Insufficient Data,,,1,Yes,No Trend,2.5901960784,0.1768219251,1,Yes,No Trend,3.3333333333,0.4396349156
04-013-4010,040134010,33.637180001,-112.34185,DYSART,Southwest,1,MAX2V,,,,,,,,,,,,,,,80,68,55,93,66,62,63,239,127,143,138,71,126,125,164,68,94,0,17,7,Arizona,"Phoenix-Mesa-Scottsdale, AZ",No,PM10,Undetermined/Insufficient Data,,,0,No,Undetermined/Insufficient Data,,,1,Yes,No Trend,-4.333333333,0.2226910724
04-013-4011,040134011,33.369850001,-112.62068,BUCKEYE,Southwest,1,MAX2V,,,,,,,,,,,,,,,82,157,211,165,203,400,107,296,202,193,175,103,134,172,161,131,138,0,17,7,Arizona,"Phoenix-Mesa-Scottsdale, AZ",No,PM10,Undetermined/Insufficient Data,,,0,No,Undetermined/Insufficient Data,,,1,Yes,No Trend,-7.857142857,0.0822866562
04-013-4014,040134014,33.666280001,-112.31042,COYOTE LAKES,Southwest,1,MAX2V,,,,,,,,,,,,,,,,,,272,167,39,,,,,,,,,,,,0,3,7,Arizona,"Phoenix-Mesa-Scottsdale, AZ",No,PM10,Undetermined/Insufficient Data,,,0,No,Undetermined/Insufficient Data,,,,,,,
04-013-4016,040134016,33.687190001,-112.29416,Zuni Hills,Southwest,1,MAX2V,,,,,,,,,,,,,,,,,,,,26,51,260,147,148,86,77,140,123,156,59,88,0,12,7,Arizona,"Phoenix-Mesa-Scottsdale, AZ",No,PM10,Undetermined/Insufficient Data,,,0,No,Undetermined/Insufficient Data,,,1,Yes,No Trend,-4.8,0.3240477193
04-013-5100,040135100,33.629246001,-111.676928,Fort McDowell/Yuma Frank,Southwest,3,MAX2V,,,,,,,,,,,,,,,,,,,,,,401,90,101,93,61,83,,92,,49,0,8,7,Arizona,"Phoenix-Mesa-Scottsdale, AZ",No,PM10,Undetermined/Insufficient Data,,,0,No,Undetermined/Insufficient Data,,,0,No,Undetermined/Insufficient Data,,
04-013-7003,040137003,33.290229122,-112.1605975,St Johns Air Monitoring Site,Southwest,1,MAX2V,,,,,,,,,,,,,,,,,,,,,,,,216,143,200,211,158,249,115,141,0,8,7,Arizona,"Phoenix-Mesa-Scottsdale, AZ",No,PM10,Undetermined/Insufficient Data,,,0,No,Undetermined/Insufficient Data,,,0,No,Undetermined/Insufficient Data,,
04-013-7020,040137020,33.488130785,-111.8554428,Senior Center Air Monitoring Station,Southwest,1,MAX2V,,,,,,,,,,,,,,,,102,98,100,74,119,57,76,125,70,,,,,,,,0,9,7,Arizona,"Phoenix-Mesa-Scottsdale, AZ",No,PM10,Undetermined/Insufficient Data,,,0,No,Undetermined/Insufficient Data,,,0,No,Undetermined/Insufficient Data,,
04-013-7022,040137022,33.474609421,-111.8057693,Lehi Air Monitoring Station,Southwest,1,MAX2V,,,,,,,,,,,,,,,,109,109,191,74,122,49,67,113,66,61,57,76,62,,,,0,13,7,Arizona,"Phoenix-Mesa-Scottsdale, AZ",No,PM10,Undetermined/Insufficient Data,,,0,No,Undetermined/Insufficient Data,,,0,No,Undetermined/Insufficient Data,,
04-013-7023,040137023,33.507610006,-111.8331804,,Southwest,1,MAX2V,,,,,,,,,,,,,,,102,109,,,,,,,,,,,,,,,,0,2,7,Arizona,"Phoenix-Mesa-Scottsdale, AZ",No,PM10,Undetermined/Insufficient Data,,,0,No,Undetermined/Insufficient Data,,,,,,,
04-013-7024,040137024,33.508125371,-111.8385205,High School Air Monitoring Station,Southwest,2,MAX2V,,,,,,,,,,,,,,,,,,,,,,,80,119,220,99,111,125,174,101,145,0,9,7,Arizona,"Phoenix-Mesa-Scottsdale, AZ",No,PM10,Undetermined/Insufficient Data,,,0,No,Undetermined/Insufficient Data,,,1,Yes,Increasing,6.4285714286,0.030085077
04-013-8006,040138006,33.4349,-112.093,BETHUNE ELEMENTARY SCHOOL,Southwest,1,MAX2V,,,,,,,,,,,,,,114,108,135,124,132,109,118,66,51,,,,,,,,,,0,9,7,Arizona,"Phoenix-Mesa-Scottsdale, AZ",No,PM10,Undetermined/Insufficient Data,,,0,No,Undetermined/Insufficient Data,,,0,No,Undetermined/Insufficient Data,,
04-013-9612,040139612,33.970308076,-112.7307332,WICKENBURG SHERIFF STATION,Southwest,1,MAX2V,,,,,,,,64,,,,,,,,,,,,,,,,,,,,,,,,0,1,7,Arizona,"Phoenix-Mesa-Scottsdale, AZ",No,PM10,Undetermined/Insufficient Data,,,,,,,,,,,,
04-013-9812,040139812,33.426500001,-112.11821,DURANGO COMPLEX,Southwest,1,MAX2V,,,,,,,,,,,172,142,157,127,139,200,240,151,169,161,106,277,217,209,162,97,109,158,188,95,100,0,21,7,Arizona,"Phoenix-Mesa-Scottsdale, AZ",No,PM10,Undetermined/Insufficient Data,,,1,Yes,No Trend,-1.694117647,0.1768219251,1,Yes,Decreasing,-11.8,0.0432806237
04-013-9993,040139993,33.348851,-112.831103,PALO VERDE,Southwest,1,MAX2V,,,,,,,,,,46,61,54,78,107,33,,,,,,,,,,,,,,,,,0,6,7,Arizona,"Phoenix-Mesa-Scottsdale, AZ",No,PM10,Undetermined/Insufficient Data,,,0,No,Undetermined/Insufficient Data,,,,,,,
04-013-9997,040139997,33.503833,-112.095767,JLG SUPERSITE,Southwest,3,MAX2V,,,,,,,,,,,,,,,77,77,135,93,79,106,47,200,120,165,97,77,110,97,201,51,99,0,17,7,Arizona,"Phoenix-Mesa-Scottsdale, AZ",No,PM10,Undetermined/Insufficient Data,,,0,No,Undetermined/Insufficient Data,,,1,Yes,No Trend,-2.625,0.4396349156
04-015-1000,040151000,35.540017125,-113.410782,Peach Springs,Southwest,2,MAX2V,,,,,,,,,,37,72,57,,36,36,,46,46,69,,,,51,32,40,,,,,,,0,11,7,Arizona,"Lake Havasu City-Kingman, AZ",No,PM10,Undetermined/Insufficient Data,,,0,No,Undetermined/Insufficient Data,,,0,No,Undetermined/Insufficient Data,,
04-015-1003,040151003,35.153888,-114.566111,BULLHEAD CITY ADEQ,Southwest,1,MAX2V,,,,,,,,,26,22,29,35,49,44,39,47,49,50,43,51,33,38,33,,,,,,,,,0,15,7,Arizona,"Lake Havasu City-Kingman, AZ",No,PM10,Undetermined/Insufficient Data,,,0,No,Undetermined/Insufficient Data,,,1,Yes,No Trend,3.4,0.0822866562
04-015-1004,040151004,35.103611,-114.602222,BULLHEAD CITY - SCE,Southwest,1,MAX2V,,,,,,,50,42,46,63,56,49,,,,,,,,,,,,,,,,,,,,0,6,7,Arizona,"Lake Havasu City-Kingman, AZ",No,PM10,Undetermined/Insufficient Data,,,0,No,Undetermined/Insufficient Data,,,,,,,
04-015-1011,040151011,35.588725538,-113.4890246,Grand Canyon West,Southwest,1,MAX2V,,,,,,,,,,25,28,26,,27,,46,44,88,62,,,,39,30,31,39,,,,,,0,12,7,Arizona,"Lake Havasu City-Kingman, AZ",No,PM10,Undetermined/Insufficient Data,,,0,No,Undetermined/Insufficient Data,,,0,No,Undetermined/Insufficient Data,,
04-017-0007,040170007,34.2525,-110.036388,SHOW LOW,Southwest,1,MAX2V,47,57,74,40,69,25,28,35,,45,34,41,49,51,38,24,50,46,,,,,,,,,,,,,,0,17,7,Arizona,"Show Low, AZ",No,PM10,Undetermined/Insufficient Data,,,0,No,Undetermined/Insufficient Data,,,,,,,
04-017-1002,040171002,33.85815,-109.97029,Whiteriver - Fort Apache Reservation,Southwest,1,MAX2V,,,,,,,,,,,,,,,,,,,,85,33,44,53,46,47,35,45,49,51,35,45,0,12,7,Arizona,"Show Low, AZ",No,PM10,Undetermined/Insufficient Data,,,0,No,Undetermined/Insufficient Data,,,1,Yes,No Trend,0.2222222222,0.3240477193
04-019-0001,040190001,32.382036111,-112.8574528,AJO,Southwest,1,MAX2V,112,80,42,45,32,53,53,50,53,41,41,31,46,129,41,43,50,70,49,,,,,,,,,,,,,0,19,7,Arizona,"Tucson, AZ",No,PM10,Undetermined/Insufficient Data,,,0,No,Undetermined/Insufficient Data,,,1,Yes,No Trend,-6.666666667,0.2226910724
04-019-0005,040190005,31.949999722,-112.801,ORGAN PIPE NM,Southwest,1,MAX2V,108,26,24,19,17,19,17,29,,16,27,21,26,,,,,,,,,,,,,,,,,,,0,12,7,Arizona,"Tucson, AZ",No,PM10,Undetermined/Insufficient Data,,,0,No,Undetermined/Insufficient Data,,,,,,,
04-019-0007,040190007,31.875639816,-110.9937025,,Southwest,1,MAX2V,59,24,25,32,26,34,27,30,33,33,35,,,,,,,,,,,,,,,,,,,,,0,11,7,Arizona,"Tucson, AZ",No,PM10,Undetermined/Insufficient Data,,,0,No,Undetermined/Insufficient Data,,,,,,,
04-019-0008,040190008,32.004707001,-110.792593,CORONA DE TUCSON,Southwest,1,MAX2V,49,19,30,25,21,43,24,31,40,46,50,85,30,47,24,31,70,48,67,52,29,38,36,34,57,23,29,42,31,56,61,1,31,7,Arizona,"Tucson, AZ",Yes,PM10,No Trend,0.45,0.0677981428,1,Yes,No Trend,-0.321428571,0.3490941395,1,Yes,No Trend,2,0.1414834105
04-019-0011,040190011,32.322661419,-111.0383893,ORANGE GROVE,Southwest,2,MAX2V,116,67,79,58,48,106,62,66,43,176,100,100,125,120,100,74,88,95,88,97,57,89,88,115,117,48,56,59,,,,0,28,7,Arizona,"Tucson, AZ",No,PM10,Undetermined/Insufficient Data,,,0,No,Undetermined/Insufficient Data,,,0,No,Undetermined/Insufficient Data,,
04-019-0020,040190020,32.414344167,-111.1545444,RILLITO,Southwest,1,MAX2V,70,107,95,51,63,54,80,128,71,70,102,75,68,75,91,77,95,123,77,99,,,,,,,,,,,,0,20,7,Arizona,"Tucson, AZ",No,PM10,Undetermined/Insufficient Data,,,0,No,Undetermined/Insufficient Data,,,1,Yes,No Trend,-3.5,0.3240477193
04-019-1001,040191001,32.201978001,-110.967905,SOUTH TUCSON,Southwest,1,MAX2V,108,58,60,73,54,58,53,69,74,207,123,115,192,128,117,73,85,96,121,127,66,87,89,156,101,52,52,78,,,,0,28,7,Arizona,"Tucson, AZ",No,PM10,Undetermined/Insufficient Data,,,0,No,Undetermined/Insufficient Data,,,0,No,Undetermined/Insufficient Data,,
04-019-1009,040191009,32.272290001,-110.989079,PRINCE ROAD,Southwest,1,MAX2V,75,70,67,44,46,70,60,58,70,80,68,83,62,56,50,88,71,62,68,75,58,55,81,64,,,,,,,,0,24,7,Arizona,"Tucson, AZ",No,PM10,Undetermined/Insufficient Data,,,0,No,Undetermined/Insufficient Data,,,0,No,Undetermined/Insufficient Data,,
04-019-1010,040191010,32.247297739,-110.8367534,,Southwest,1,MAX2V,58,38,51,38,,,,,,,,,,,,,,,,,,,,,,,,,,,,0,4,7,Arizona,"Tucson, AZ",No,PM10,Undetermined/Insufficient Data,,,,,,,,,,,,
04-019-1011,040191011,32.2044107,-110.878067,22ND & CRAYCROFT,Southwest,1,MAX2V,,,,,80,63,36,56,39,,,,,,,,,,,,,,,,,,,,,,,0,5,7,Arizona,"Tucson, AZ",No,PM10,Undetermined/Insufficient Data,,,,,,,,,,,,
04-019-1013,040191013,32.192299032,-110.7917517,,Southwest,1,MAX2V,61,35,42,34,31,,,,,,,,,,,,,,,,,,,,,,,,,,,0,5,7,Arizona,"Tucson, AZ",No,PM10,Undetermined/Insufficient Data,,,,,,,,,,,,
04-019-1018,040191018,32.425261001,-111.06352,TANGERINE,Southwest,1,MAX2V,,,,,22,34,24,30,25,36,38,62,58,50,26,35,59,44,50,41,35,65,41,72,53,,34,45,39,38,62,0,26,7,Arizona,"Tucson, AZ",No,PM10,Undetermined/Insufficient Data,,,1,Yes,No Trend,-0.076704545,0.4407539118,1,Yes,No Trend,-0.333333333,0.3805751964
04-019-1020,040191020,32.047670001,-110.774357,FAIRGROUNDS,Southwest,1,MAX2V,,,,,23,37,29,33,33,,,,,,,,,,,,,,,,,,,,,,,0,5,7,Arizona,"Tucson, AZ",No,PM10,Undetermined/Insufficient Data,,,,,,,,,,,,
04-019-1022,040191022,32.222298136,-110.9784257,,Southwest,1,MAX2V,108,62,69,61,58,69,81,71,78,117,,,,,,,,,,,,,,,,,,,,,,0,10,7,Arizona,"Tucson, AZ",No,PM10,Undetermined/Insufficient Data,,,,,,,,,,,,
04-019-1023,040191023,32.222103001,-110.893842,BROADWAY & SWAN,Southwest,1,MAX2V,,43,56,43,52,53,39,57,51,51,56,70,54,66,34,44,55,80,42,52,33,,,,,,,,,,,0,20,7,Arizona,"Tucson, AZ",No,PM10,Undetermined/Insufficient Data,,,0,No,Undetermined/Insufficient Data,,,0,No,Undetermined/Insufficient Data,,
04-019-1024,040191024,32.295908532,-110.8234225,Sabino Canyon,Southwest,1,MAX2V,,,,,,96,38,35,34,,,,,,,,,,,,,,,,,,,,,,,0,4,7,Arizona,"Tucson, AZ",No,PM10,Undetermined/Insufficient Data,,,,,,,,,,,,
04-019-1026,040191026,32.125919001,-110.982556,SANTA CLARA,Southwest,1,MAX2V,,,,,41,54,54,46,44,76,72,111,53,63,41,55,93,60,81,48,50,68,75,71,69,,42,56,44,28,43,0,26,7,Arizona,"Tucson, AZ",No,PM10,Undetermined/Insufficient Data,,,1,Yes,Decreasing,-1.527777778,0.0209846723,1,Yes,Decreasing,-3.8,0.0202661787
04-019-1027,040191027,32.231742971,-110.9520357,CENTRAL SITE FOR URBAN HAZE MONITORING,Southwest,1,MAX2V,,,,,,59,45,52,47,,,,,,,,,,,,,,,,,,,,,,,0,4,7,Arizona,"Tucson, AZ",No,PM10,Undetermined/Insufficient Data,,,,,,,,,,,,
04-019-1030,040191030,31.87952,-110.99644,GREEN VALLEY  -REPLACES SITE 0007 245 W ESPERANZA,Southwest,1,MAX2V,,,,,,,,,,,,73,75,118,96,51,50,77,97,78,32,70,63,95,104,30,57,54,118,29,55,0,20,7,Arizona,"Tucson, AZ",No,PM10,Undetermined/Insufficient Data,,,1,Yes,No Trend,-1.088888889,0.1472453295,1,Yes,No Trend,-0.4,0.3805751964
04-019-1113,040191113,32.251843001,-110.965293,GERONIMO,Southwest,1,MAX2V,,,,,,,,,,,,,,,,,,77,112,124,66,85,88,149,143,53,67,92,86,55,87,0,14,7,Arizona,"Tucson, AZ",No,PM10,Undetermined/Insufficient Data,,,0,No,Undetermined/Insufficient Data,,,1,Yes,No Trend,-0.125,0.5
04-019-2001,040192001,32.231742971,-110.9520357,,Southwest,1,MAX2V,72,51,69,46,,,,,,,,,,,,,,,,,,,,,,,,,,,,0,4,7,Arizona,"Tucson, AZ",No,PM10,Undetermined/Insufficient Data,,,,,,,,,,,,
04-019-8031,040198031,31.827300001,-111.0113,Green Valley Fire Administration,Southwest,3,MAX2V,,,,,,,,,,,,,,,,,,48,66,,,,,,,,,,,,,0,2,7,Arizona,"Tucson, AZ",No,PM10,Undetermined/Insufficient Data,,,0,No,Undetermined/Insufficient Data,,,,,,,
04-021-0001,040210001,32.877583001,-111.752222,CASA GRANDE DOWNTOWN,Southwest,3,MAX2V,,,,,,,,,,,,,,,,,,255,183,274,127,428,174,191,287,77,137,160,331,104,151,0,14,7,Arizona,"Phoenix-Mesa-Scottsdale, AZ",No,PM10,Undetermined/Insufficient Data,,,0,No,Undetermined/Insufficient Data,,,1,Yes,No Trend,-3,0.3240477193
04-021-3001,040213001,33.4214,-111.5436,A J MAINTENANCE YARD,Southwest,1,MAX2V,,,,,,,,,,,,,47,81,,,,,,,,,,,,,,,,,,0,2,7,Arizona,"Phoenix-Mesa-Scottsdale, AZ",No,PM10,Undetermined/Insufficient Data,,,0,No,Undetermined/Insufficient Data,,,,,,,
04-021-3002,040213002,33.421194001,-111.503222,APACHE JUNCTION FIRE STATION,Southwest,1,MAX2V,,,,,,,,,,,,,,46,35,38,53,39,42,38,43,125,73,63,47,,,,,,,0,12,7,Arizona,"Phoenix-Mesa-Scottsdale, AZ",No,PM10,Undetermined/Insufficient Data,,,0,No,Undetermined/Insufficient Data,,,1,Yes,Decreasing,-10.25,0.0202661787
04-021-3004,040213004,32.978556001,-111.514833,COOLIDGE,Southwest,1,MAX2V,,,,,,,,,,,,,79,95,54,73,84,76,63,88,81,72,97,95,93,68,124,100,140,66,,0,18,7,Arizona,"Phoenix-Mesa-Scottsdale, AZ",No,PM10,Undetermined/Insufficient Data,,,1,Yes,No Trend,1,0.1768219251,1,Yes,No Trend,-0.4,0.5
04-021-3005,040213005,32.7559,-111.5551,ELOY (DISMANTLED 2007),Southwest,1,MAX2V,,,,,,,,,,,,,110,114,46,71,95,,,,,,,,,,,,,,,0,5,7,Arizona,"Phoenix-Mesa-Scottsdale, AZ",No,PM10,Undetermined/Insufficient Data,,,0,No,Undetermined/Insufficient Data,,,,,,,
04-021-3006,040213006,32.719307001,-110.641934,MAMMOTH,Southwest,1,MAX2V,,,,,,,,,,,,,49,68,21,28,28,29,32,36,38,,,,,,,,,,,0,9,7,Arizona,"Phoenix-Mesa-Scottsdale, AZ",No,PM10,Undetermined/Insufficient Data,,,0,No,Undetermined/Insufficient Data,,,0,No,Undetermined/Insufficient Data,,
04-021-3007,040213007,32.508306001,-111.308056,PINAL AIR PARK,Southwest,1,MAX2V,,,,,,,,,,,,,58,105,35,44,67,61,53,49,63,57,95,60,65,,,,,,,0,13,7,Arizona,"Phoenix-Mesa-Scottsdale, AZ",No,PM10,Undetermined/Insufficient Data,,,0,No,Undetermined/Insufficient Data,,,1,Yes,No Trend,-2.6,0.1793557349
04-021-3008,040213008,32.881194001,-111.962,STANFIELD,Southwest,3,MAX2V,,,,,,,,,,,,,,,,,469,482,364,661,144,567,337,445,289,134,285,308,829,152,181,0,15,7,Arizona,"Phoenix-Mesa-Scottsdale, AZ",No,PM10,Undetermined/Insufficient Data,,,0,No,Undetermined/Insufficient Data,,,1,Yes,No Trend,-13,0.3240477193
04-021-3009,040213009,33.219111001,-111.561111,COMBS,Southwest,3,MAX2V,,,,,,,,,,,,,,,,,,866,195,180,110,280,179,282,240,137,196,149,234,85,103,0,14,7,Arizona,"Phoenix-Mesa-Scottsdale, AZ",No,PM10,Undetermined/Insufficient Data,,,0,No,Undetermined/Insufficient Data,,,1,Yes,No Trend,-13,0.1091732554
04-021-3010,040213010,33.058500001,-112.047219,MARICOPA,Southwest,3,MAX2V,,,,,,,,,,,,,,,,,389,525,317,454,156,529,235,262,169,133,154,,,,,0,11,7,Arizona,"Phoenix-Mesa-Scottsdale, AZ",No,PM10,Undetermined/Insufficient Data,,,0,No,Undetermined/Insufficient Data,,,0,No,Undetermined/Insufficient Data,,
04-021-3011,040213011,32.891056001,-111.5705,PINAL COUNTY HOUSING (aka ELEVEN MILE CORNER),Southwest,3,MAX2V,,,,,,,,,,,,,,,,,763,1838,274,887,182,1161,491,212,370,222,259,416,516,145,147,0,15,7,Arizona,"Phoenix-Mesa-Scottsdale, AZ",No,PM10,Undetermined/Insufficient Data,,,0,No,Undetermined/Insufficient Data,,,1,Yes,No Trend,-15,0.2711296747
04-021-3012,040213012,33.105806001,-110.974194,RIVERSIDE,Southwest,1,MAX2V,,,,,,,,,,,,,,89,32,33,44,53,44,49,46,,,,,,,,,,,0,8,7,Arizona,"Phoenix-Mesa-Scottsdale, AZ",No,PM10,Undetermined/Insufficient Data,,,0,No,Undetermined/Insufficient Data,,,0,No,Undetermined/Insufficient Data,,
04-021-3013,040213013,33.010530001,-111.97205,COWTOWN,Southwest,3,MAX2V,,,,,,,,,,,,,,,,,916,978,539,626,226,1638,504,510,521,266,,,,,,0,10,7,Arizona,"Phoenix-Mesa-Scottsdale, AZ",No,PM10,Undetermined/Insufficient Data,,,0,No,Undetermined/Insufficient Data,,,0,No,Undetermined/Insufficient Data,,
04-021-3014,040213014,32.757639001,-111.554861,ELOY,Southwest,1,MAX2V,,,,,,,,,,,,,,,,,,126,64,120,80,127,116,84,79,65,,,,,,0,9,7,Arizona,"Phoenix-Mesa-Scottsdale, AZ",No,PM10,Undetermined/Insufficient Data,,,0,No,Undetermined/Insufficient Data,,,0,No,Undetermined/Insufficient Data,,
04-021-3015,040213015,32.884761,-112.03705,HIDDEN VALLEY,Southwest,3,MAX2V,,,,,,,,,,,,,,,,,,,,,,,,,,,357,246,466,222,279,0,5,7,Arizona,"Phoenix-Mesa-Scottsdale, AZ",No,PM10,Undetermined/Insufficient Data,,,0,No,Undetermined/Insufficient Data,,,0,No,Undetermined/Insufficient Data,,
04-021-3016,040213016,33.06115,-112.05204,MARICOPA 1405,Southwest,3,MAX2V,,,,,,,,,,,,,,,,,,,,,,,,,,,,156,348,89,263,0,4,7,Arizona,"Phoenix-Mesa-Scottsdale, AZ",No,PM10,Undetermined/Insufficient Data,,,0,No,Undetermined/Insufficient Data,,,0,No,Undetermined/Insufficient Data,,
04-021-7001,040217001,33.081703948,-111.7529427,Sacaton Air Monitoring Site,Southwest,1,MAX2V,,,,,,,,,,,,,,,,,,,,,,,,251,172,136,171,276,260,125,138,0,8,7,Arizona,"Phoenix-Mesa-Scottsdale, AZ",No,PM10,Undetermined/Insufficient Data,,,0,No,Undetermined/Insufficient Data,,,0,No,Undetermined/Insufficient Data,,
04-021-7004,040217004,33.117556,-111.885814,Casa Blanca Air Monitoring Site,Southwest,1,MAX2V,,,,,,,,,,,,,,,,106,184,327,201,82,80,133,184,120,156,,,,,,,0,10,7,Arizona,"Phoenix-Mesa-Scottsdale, AZ",No,PM10,Undetermined/Insufficient Data,,,0,No,Undetermined/Insufficient Data,,,0,No,Undetermined/Insufficient Data,,
04-021-7030,040217030,33.031038,-112.078111,Ak Chin Museum,Southwest,1,MAX2V,,,,,,,,,,,,,,,,,,,,,,,,,985,985,78,,98,990,,0,5,7,Arizona,"Phoenix-Mesa-Scottsdale, AZ",No,PM10,Undetermined/Insufficient Data,,,0,No,Undetermined/Insufficient Data,,,0,No,Undetermined/Insufficient Data,,
04-023-0004,040230004,31.337204,-110.936718,NOGALES POST OFFICE,Southwest,1,MAX2V,108,149,147,108,95,107,104,93,158,184,116,112,115,162,109,205,168,133,150,116,84,109,72,87,87,,,,,,,0,25,7,Arizona,"Nogales, AZ",No,PM10,Undetermined/Insufficient Data,,,0,No,Undetermined/Insufficient Data,,,1,Yes,No Trend,-6.375,0.0822866562
04-023-0005,040230005,31.348739,-110.936101,NOGALES CARILLO PLACE,Southwest,1,MAX2V,,,,,48,32,,,,,,,,,,,,,,,,,,,,,,,,,,0,2,7,Arizona,"Nogales, AZ",No,PM10,Undetermined/Insufficient Data,,,,,,,,,,,,
04-023-0007,040230007,31.3654,-110.933103,NOGALES MARIPOSA COMMUNITY HEALTH CENTER,Southwest,1,MAX2V,,,,,52,,,,,,,,,,,,,,,,,,,,,,,,,,,0,1,7,Arizona,"Nogales, AZ",No,PM10,Undetermined/Insufficient Data,,,,,,,,,,,,
04-025-0003,040250003,34.77,-112.05555,CLARKDALE ADEQ,Southwest,1,MAX2V,,76,,28,35,29,30,27,26,29,34,27,,,,,,,,,,,,,,,,,,,,0,10,7,Arizona,"Prescott, AZ",No,PM10,Undetermined/Insufficient Data,,,0,No,Undetermined/Insufficient Data,,,,,,,
04-025-0005,040250005,34.42888,-112.9619444,HILLSIDE,Southwest,1,MAX2V,,,,,,,,,,18,29,,,,,,,,,,,,,,,,,,,,,0,2,7,Arizona,"Prescott, AZ",No,PM10,Undetermined/Insufficient Data,,,0,No,Undetermined/Insufficient Data,,,,,,,
04-025-0015,040250015,35.513486,-113.322198,NELSON LIME PLANT WEST,Southwest,1,MAX2V,,,62,43,41,49,45,40,,35,27,30,,,,,,,,,,,,,,,,,,,,0,9,7,Arizona,"Prescott, AZ",No,PM10,Undetermined/Insufficient Data,,,0,No,Undetermined/Insufficient Data,,,,,,,
04-025-1002,040251002,34.58238609,-111.8246072,MONTEZUMA CASTLE,Southwest,1,MAX2V,38,23,30,28,19,26,23,22,,,,,,,,,,,,,,,,,,,,,,,,0,8,7,Arizona,"Prescott, AZ",No,PM10,Undetermined/Insufficient Data,,,,,,,,,,,,
04-025-2001,040252001,34.539147,-112.467733,PRESCOTT,Southwest,1,MAX2V,,,,,,,,,,,21,26,,,,,,,,,,,,,,,,,,,,0,2,7,Arizona,"Prescott, AZ",No,PM10,Undetermined/Insufficient Data,,,0,No,Undetermined/Insufficient Data,,,,,,,
04-025-2002,040252002,34.595,-112.331,PRESCOTT VALLEY,Southwest,1,MAX2V,,,,,,,,,,,,,,52,27,31,48,54,37,57,31,25,35,27,,,,,,,,0,11,7,Arizona,"Prescott, AZ",No,PM10,Undetermined/Insufficient Data,,,0,No,Undetermined/Insufficient Data,,,0,No,Undetermined/Insufficient Data,,
04-027-0004,040270004,32.677001,-114.648905,YUMA COURTHOUSE,Southwest,1,MAX2V,,,60,59,54,73,83,83,106,63,99,,125,93,102,85,114,142,87,54,,,,,,,,,,,,0,17,7,Arizona,"Yuma, AZ",No,PM10,Undetermined/Insufficient Data,,,0,No,Undetermined/Insufficient Data,,,,,,,
04-027-8011,040278011,32.690278,-114.61444,YUMA SUPERSITE,Southwest,3,MAX2V,,,,,,,,,,,,,,,,,230,193,,,113,178,240,228,375,182,224,302,227,174,179,0,13,7,Arizona,"Yuma, AZ",No,PM10,Undetermined/Insufficient Data,,,0,No,Undetermined/Insufficient Data,,,1,Yes,No Trend,0.1111111111,0.5
05-001-0001,050010001,34.499263869,-91.57429558,,South,2,MAX2V,65,59,58,58,60,72,70,67,,,,,,,,,,,,,,,,,,,,,,,,0,8,5,Arkansas,,No,PM10,Undetermined/Insufficient Data,,,,,,,,,,,,
05-003-0003,050030003,33.130400267,-91.9620756,,South,1,MAX2V,72,64,63,53,56,58,55,63,,,,,,,,,,,,,,,,,,,,,,,,0,8,5,Arkansas,,No,PM10,Undetermined/Insufficient Data,,,,,,,,,,,,
05-031-0001,050310001,35.838685634,-90.70872354,,South,1,MAX2V,62,56,53,59,64,69,53,60,,,,,,,,,,,,,,,,,,,,,,,,0,8,5,Arkansas,"Jonesboro, AR",No,PM10,Undetermined/Insufficient Data,,,,,,,,,,,,
05-035-0004,050350004,35.147590729,-90.1764832,,South,1,MAX2V,59,47,54,61,55,57,58,44,,,,,,,,,,,,,,,,,,,,,,,,0,8,5,Arkansas,"Memphis, TN-MS-AR",No,PM10,Undetermined/Insufficient Data,,,,,,,,,,,,
05-051-0002,050510002,34.510367371,-93.05434647,,South,1,MAX2V,52,41,61,52,45,53,40,44,,,,,,,,,,,,,,,,,,,,,,,,0,8,5,Arkansas,"Hot Springs, AR",No,PM10,Undetermined/Insufficient Data,,,,,,,,,,,,
05-069-0005,050690005,34.220098017,-92.00097277,,South,1,MAX2V,47,42,51,55,56,62,51,61,,,,,,,,,,,,,,,,,,,,,,,,0,8,5,Arkansas,"Pine Bluff, AR",No,PM10,Undetermined/Insufficient Data,,,,,,,,,,,,
05-089-0001,050890001,36.084239252,-92.58683006,,South,1,MAX2V,47,40,53,47,37,42,51,31,,,,,,,,,,,,,,,,,,,,,,,,0,8,5,Arkansas,,No,PM10,Undetermined/Insufficient Data,,,,,,,,,,,,
05-091-0001,050910001,33.425625099,-94.04054292,,South,1,MAX2V,48,45,50,44,52,55,50,64,,,,,,,,,,,,,,,,,,,,,,,,0,8,5,Arkansas,"Texarkana, TX-AR",No,PM10,Undetermined/Insufficient Data,,,,,,,,,,,,
05-093-0005,050930005,35.890907861,-89.78397095,,South,1,MAX2V,65,,,,,,,,,,,,,,,,,,,,,,,,,,,,,,,0,1,5,Arkansas,"Blytheville, AR",No,PM10,Undetermined/Insufficient Data,,,,,,,,,,,,
05-103-0001,051030001,33.587613671,-92.8332187,,South,1,MAX2V,45,43,53,51,44,45,45,52,,,,,,,,,,,,,,,,,,,,,,,,0,8,5,Arkansas,"Camden, AR",No,PM10,Undetermined/Insufficient Data,,,,,,,,,,,,
05-107-0001,051070001,34.529765549,-90.58604896,HELENA,South,1,MAX2V,52,46,51,64,43,51,64,47,,,,,,,,,,,,,,,,,,,,,,,,0,8,5,Arkansas,"Helena-West Helena, AR",No,PM10,Undetermined/Insufficient Data,,,,,,,,,,,,
05-113-0001,051130001,34.582884055,-94.23798892,,South,1,MAX2V,47,47,51,62,48,49,47,,,,,,,,,,,,,,,,,,,,,,,,,0,7,5,Arkansas,,No,PM10,Undetermined/Insufficient Data,,,,,,,,,,,,
05-113-0002,051130002,34.583698588,-94.22623447,MENA,South,1,MAX2V,,,,,,,,52,,,,,,,,,,,,,,,,,,,,,,,,0,1,5,Arkansas,,No,PM10,Undetermined/Insufficient Data,,,,,,,,,,,,
05-115-0003,051150003,35.259775016,-93.10004987,RUSSELLVILLE,South,1,MAX2V,51,43,50,49,46,48,46,46,,,,,,,,,,,,,,,,,,,,,,,,0,8,5,Arkansas,"Russellville, AR",No,PM10,Undetermined/Insufficient Data,,,,,,,,,,,,
05-119-0001,051190001,34.866478487,-92.12209018,,South,1,MAX2V,57,50,56,54,52,50,44,51,,,,,,,,,,,,,,,,,,,,,,,,0,8,5,Arkansas,"Little Rock-North Little Rock-Conway, AR",No,PM10,Undetermined/Insufficient Data,,,,,,,,,,,,
05-119-0003,051190003,34.733425106,-92.24125969,,South,1,MAX2V,68,56,79,53,56,59,52,61,,,,,,,,,,,,,,,,,,,,,,,,0,8,5,Arkansas,"Little Rock-North Little Rock-Conway, AR",No,PM10,Undetermined/Insufficient Data,,,,,,,,,,,,
05-119-0007,051190007,34.756188804,-92.28129586,PARR,South,1,MAX2V,,,,,,,,,,,48,51,56,48,51,48,37,41,36,30,36,41,36,61,45,47,44,36,51,36,35,0,21,5,Arkansas,"Little Rock-North Little Rock-Conway, AR",No,PM10,Undetermined/Insufficient Data,,,1,Yes,Decreasing,-0.464102564,0.0281820449,1,Yes,No Trend,-0.1,0.3240477193
05-119-1001,051191001,34.745370022,-92.27764999,,South,2,MAX2V,56,49,52,53,62,60,52,53,,,,,,,,,,,,,,,,,,,,,,,,0,8,5,Arkansas,"Little Rock-North Little Rock-Conway, AR",No,PM10,Undetermined/Insufficient Data,,,,,,,,,,,,
05-119-1007,051191007,34.744930997,-92.32006402,VA HOSPITAL,South,1,MAX2V,60,58,66,60,59,67,52,60,96,72,49,57,49,46,52,46,38,48,42,36,38,47,35,50,38,36,34,31,35,38,,1,30,5,Arkansas,"Little Rock-North Little Rock-Conway, AR",Yes,PM10,Decreasing,-1.047619048,1.0925623E-8,1,Yes,Decreasing,-0.861904762,0.0003087673,1,Yes,No Trend,-0.375,0.2226910724
05-131-0008,051310008,35.389672114,-94.42428764,FT. SMITH,South,1,MAX2V,55,47,51,60,44,56,47,59,,,,,,,,,,,,,,,,,,,,,,,,0,8,5,Arkansas,"Fort Smith, AR-OK",No,PM10,Undetermined/Insufficient Data,,,,,,,,,,,,
05-139-0004,051390004,33.214018772,-92.66876743,,South,1,MAX2V,48,40,57,51,46,52,47,38,,,,,,,,,,,,,,,,,,,,,,,,0,8,5,Arkansas,"El Dorado, AR",No,PM10,Undetermined/Insufficient Data,,,,,,,,,,,,
05-143-0003,051430003,36.052023662,-94.1627043,,South,1,MAX2V,59,46,53,58,49,46,48,36,,,,,,,,,,,,,,,,,,,,,,,,0,8,5,Arkansas,"Fayetteville-Springdale-Rogers, AR-MO",No,PM10,Undetermined/Insufficient Data,,,,,,,,,,,,
05-143-0005,051430005,36.179700045,-94.11682738,SPRINGDALE,South,1,MAX2V,,,,,,,,,,,,,,,,,,,,,,,,,,,,44,40,26,33,0,4,5,Arkansas,"Fayetteville-Springdale-Rogers, AR-MO",No,PM10,Undetermined/Insufficient Data,,,0,No,Undetermined/Insufficient Data,,,0,No,Undetermined/Insufficient Data,,
05-145-0001,051450001,35.24894009,-91.71559649,SEARCY,South,1,MAX2V,65,45,47,52,52,59,49,55,,,,,,,,,,,,,,,,,,,,,,,,0,8,5,Arkansas,"Searcy, AR",No,PM10,Undetermined/Insufficient Data,,,,,,,,,,,,
06-001-0003,060010003,37.6849,-121.7659,Livermore - Old 1st St.,West,2,MAX2V,84,96,62,71,74,49,40,55,52,64,52,,,,,,,,,,,,,,,,,,,,,0,11,8,California,"San Francisco-Oakland-Hayward, CA",No,PM10,Undetermined/Insufficient Data,,,0,No,Undetermined/Insufficient Data,,,,,,,
06-001-0006,060010006,37.710229,-122.116899,San Leandro,West,1,MAX2V,,72,51,47,49,42,44,29,25,,,,,,,,,,,,,,,,,,,,,,,0,8,8,California,"San Francisco-Oakland-Hayward, CA",No,PM10,Undetermined/Insufficient Data,,,,,,,,,,,,
06-001-0007,060010007,37.687526,-121.784217,Livermore,West,1,MAX2V,,,,,,,,,,,63,85,56,31,42,37,53,63,35,,,,,,,,,,,,,0,9,8,California,"San Francisco-Oakland-Hayward, CA",No,PM10,Undetermined/Insufficient Data,,,0,No,Undetermined/Insufficient Data,,,,,,,
06-001-1001,060011001,37.535833,-121.961823,Fremont - Chapel Way,West,1,MAX2V,91,88,60,67,73,49,41,44,45,51,50,56,44,31,37,33,40,47,31,,,,,,,,,,,,,0,19,8,California,"San Francisco-Oakland-Hayward, CA",No,PM10,Undetermined/Insufficient Data,,,0,No,Undetermined/Insufficient Data,,,,,,,
06-001-2004,060012004,37.877794,-122.30129,Berkeley,West,1,MAX2V,,,,,,,,,,,,,,,,,,,38,31,40,,,,,,,,,,,0,3,8,California,"San Francisco-Oakland-Hayward, CA",No,PM10,Undetermined/Insufficient Data,,,0,No,Undetermined/Insufficient Data,,,0,No,Undetermined/Insufficient Data,,
06-007-0002,060070002,39.757371488,-121.8432863,Chico-Manzanita Ave.,West,1,MAX2V,,,83,78,81,60,62,84,56,81,77,101,55,41,76,61,65,61,112,43,32,56,,,,,,,,,,0,20,8,California,"Chico, CA",No,PM10,Undetermined/Insufficient Data,,,0,No,Undetermined/Insufficient Data,,,0,No,Undetermined/Insufficient Data,,
06-007-0005,060070005,39.729327391,-121.8433108,Chico-Salem St.,West,1,MAX2V,78,95,60,,,,,,,,,,,,,,,,,,,,,,,,,,,,,0,3,8,California,"Chico, CA",No,PM10,Undetermined/Insufficient Data,,,,,,,,,,,,
06-007-0007,060070007,39.708454,-121.617309,Paradise - Airport,West,1,MAX2V,,,,,,,,,,,,,,,39,,,,,,,,,,,,,,,,,0,1,8,California,"Chico, CA",No,PM10,Undetermined/Insufficient Data,,,0,No,Undetermined/Insufficient Data,,,,,,,
06-007-0008,060070008,39.76168,-121.84047,Chico-East Avenue,West,3,MAX2V,,,,,,,,,,,,,,,,,,,,,,,,,44,67,56,85,338,53,325,0,7,8,California,"Chico, CA",No,PM10,Undetermined/Insufficient Data,,,0,No,Undetermined/Insufficient Data,,,0,No,Undetermined/Insufficient Data,,
06-007-2001,060072001,39.751272959,-121.6205282,Paradise-Birch St.,West,1,MAX2V,,,,,,,,,,,,37,43,32,44,38,51,50,,,,,,,,,,,,,,0,7,8,California,"Chico, CA",No,PM10,Undetermined/Insufficient Data,,,0,No,Undetermined/Insufficient Data,,,,,,,
06-007-4001,060074001,39.327563,-121.668811,"TRAFFIC, RURAL PAVED ROAD",West,1,MAX2V,,,28,56,39,,,,,,,,,,,,,,,,,,,,,,,,,,,0,3,8,California,"Chico, CA",No,PM10,Undetermined/Insufficient Data,,,,,,,,,,,,
06-009-0001,060090001,38.20185,-120.680277,San Andreas-Gold Strike Road,West,1,MAX2V,,,,,38,57,33,34,35,64,33,36,41,39,29,27,33,33,45,24,23,32,38,39,27,,,,,,,0,21,8,California,,No,PM10,Undetermined/Insufficient Data,,,0,No,Undetermined/Insufficient Data,,,0,No,Undetermined/Insufficient Data,,
06-011-0002,060110002,39.202946302,-122.0180281,Colusa Fairgrounds,West,2,MAX2V,,,,76,83,170,57,,,,,,,,,,,,,,,,,,,,,,,,,0,4,8,California,,No,PM10,Undetermined/Insufficient Data,,,,,,,,,,,,
06-011-0007,060110007,39.021221001,-122.281803,Cortina Indian Rancheria,West,1,MAX2V,,,,,,,,,,,,,0,0,0,2,2,2,2,2,2,2,,,,,,,,,,0,10,8,California,,No,PM10,Undetermined/Insufficient Data,,,0,No,Undetermined/Insufficient Data,,,0,No,Undetermined/Insufficient Data,,
06-011-1002,060111002,39.18919,-121.99887,Colusa-Sunrise Blvd,West,2,MAX2V,72,92,75,59,56,88,53,53,48,89,48,49,61,57,59,82,56,42,80,54,48,57,60,71,54,69,,,,,,0,26,8,California,,No,PM10,Undetermined/Insufficient Data,,,0,No,Undetermined/Insufficient Data,,,0,No,Undetermined/Insufficient Data,,
06-013-0002,060130002,37.936013,-122.026154,Concord,West,1,MAX2V,,,,,77,48,40,55,37,61,48,82,59,32,43,32,60,49,34,29,29,40,33,32,29,21,18,,31,,43,0,25,8,California,"San Francisco-Oakland-Hayward, CA",No,PM10,Undetermined/Insufficient Data,,,1,Yes,Decreasing,-1.25,0.0054482374,1,Yes,No Trend,0.25,0.5
06-013-0003,060130003,37.949923909,-122.3571931,Richmond-13th St.,West,1,MAX2V,69,82,53,60,66,42,42,,,,,,,,,,,,,,,,,,,,,,,,,0,7,8,California,"San Francisco-Oakland-Hayward, CA",No,PM10,Undetermined/Insufficient Data,,,,,,,,,,,,
06-013-1002,060131002,38.006311,-121.641918,Bethel Island,West,1,MAX2V,,,,,64,71,45,71,59,88,49,75,54,38,37,42,47,46,59,31,45,44,29,,31,,25,,,53,,0,22,8,California,"San Francisco-Oakland-Hayward, CA",No,PM10,Undetermined/Insufficient Data,,,1,Yes,Decreasing,-0.722222222,0.048519913,0,No,Undetermined/Insufficient Data,,
06-013-1003,060131003,37.9642,-122.3403,San Pablo - El Portal Center,West,1,MAX2V,,,,,,,,38,30,,42,48,37,,,,,,,,,,,,,,,,,,,0,5,8,California,"San Francisco-Oakland-Hayward, CA",No,PM10,Undetermined/Insufficient Data,,,0,No,Undetermined/Insufficient Data,,,,,,,
06-013-1004,060131004,37.9604,-122.356811,San Pablo,West,1,MAX2V,,,,,,,,,,,,,,45,41,39,52,51,40,,37,37,44,42,34,35,29,58,102,34,43,0,17,8,California,"San Francisco-Oakland-Hayward, CA",No,PM10,Undetermined/Insufficient Data,,,0,No,Undetermined/Insufficient Data,,,1,Yes,No Trend,0.1428571429,0.4396349156
06-013-3001,060133001,38.029258,-121.896866,Pittsburg - W 10th St.,West,1,MAX2V,,,,,,,,,,,50,79,56,45,46,41,51,49,50,,,,,,,,,,,,,0,9,8,California,"San Francisco-Oakland-Hayward, CA",No,PM10,Undetermined/Insufficient Data,,,0,No,Undetermined/Insufficient Data,,,,,,,
06-015-0004,060150004,41.75705895,-124.2017479,"4 BLKS NO OF OLD SITE/MAJOR INFLUENCES-TRAFFIC,WOOD HEATING,SEA SALT",West,1,MAX2V,,,,,,40,40,46,,,,,,,,,,,,,,,,,,,,,,,,0,3,8,California,"Crescent City, CA",No,PM10,Undetermined/Insufficient Data,,,,,,,,,,,,
06-015-0006,060150006,41.764400001,-124.1998,CRESCENT CITY-NORTHCREST,West,1,MAX2V,,,,,,,,,33,38,36,38,37,24,38,,29,30,38,40,35,37,32,36,,,,,,,,0,15,8,California,"Crescent City, CA",No,PM10,Undetermined/Insufficient Data,,,0,No,Undetermined/Insufficient Data,,,0,No,Undetermined/Insufficient Data,,
06-017-0009,060170009,38.945740873,-119.9679585,South Lake Tahoe-Tahoe Blvd,West,2,MAX2V,74,65,78,,,,,,,,,,,,,,,,,,,,,,,,,,,,,0,3,8,California,"Sacramento--Roseville--Arden-Arcade, CA",No,PM10,Undetermined/Insufficient Data,,,,,,,,,,,,
06-017-0010,060170010,38.725282,-120.821916,Placerville-Gold Nugget Way,West,1,MAX2V,,,43,40,32,50,42,31,38,41,33,47,35,32,28,25,30,33,52,,,,,,,,,,,,,0,17,8,California,"Sacramento--Roseville--Arden-Arcade, CA",No,PM10,Undetermined/Insufficient Data,,,0,No,Undetermined/Insufficient Data,,,,,,,
06-017-0011,060170011,38.944979,-119.970609,South Lake Tahoe-Sandy Way,West,1,MAX2V,,,,70,77,64,64,52,53,39,50,52,45,41,45,38,,,,,,,,,,,,,,,,0,13,8,California,"Sacramento--Roseville--Arden-Arcade, CA",No,PM10,Undetermined/Insufficient Data,,,0,No,Undetermined/Insufficient Data,,,0,No,Undetermined/Insufficient Data,,
06-017-0012,060170012,38.81161,-120.033084,Echo Summit,West,1,MAX2V,,,,,,,,,,,20,26,22,22,23,,,,,,,,,,,,,,,,,0,5,8,California,"Sacramento--Roseville--Arden-Arcade, CA",No,PM10,Undetermined/Insufficient Data,,,0,No,Undetermined/Insufficient Data,,,,,,,
06-019-0007,060190007,36.705474,-119.741332,Fresno-Drummond,West,1,MAX2V,192,140,111,126,124,124,101,111,117,130,122,131,87,89,71,92,95,84,87,71,67,79,76,99,96,82,78,98,116,105,153,1,31,8,California,"Fresno, CA",Yes,PM10,Decreasing,-1.444444444,0.0044851372,1,Yes,No Trend,0.6547619048,0.2653110816,1,Yes,Increasing,5,0.0028535855
06-019-0008,060190008,36.781332852,-119.7731898,"3425 N FIRST ST, FRESNO",West,1,MAX2V,238,142,88,121,117,115,98,110,104,124,114,141,93,74,53,87,99,89,76,67,61,84,,,,,,,,,,0,22,8,California,"Fresno, CA",No,PM10,Undetermined/Insufficient Data,,,0,No,Undetermined/Insufficient Data,,,0,No,Undetermined/Insufficient Data,,
06-019-0011,060190011,36.78538,-119.77321,Fresno - Garland,West,3,MAX2V,,,,,,,,,,,,,,,,,,,,,,,,95,80,103,90,124,120,230,263,0,8,8,California,"Fresno, CA",No,PM10,Undetermined/Insufficient Data,,,0,No,Undetermined/Insufficient Data,,,0,No,Undetermined/Insufficient Data,,
06-019-0500,060190500,36.985118557,-119.6583393,Table Mountain Air Monitoring Site,West,1,MAX2V,,,,,,,,,,,,,,,,,,,,,,,,,,80,115,164,98,170,320,0,6,8,California,"Fresno, CA",No,PM10,Undetermined/Insufficient Data,,,0,No,Undetermined/Insufficient Data,,,0,No,Undetermined/Insufficient Data,,
06-019-1002,060191002,36.341062432,-120.1056991,Five Points,West,2,MAX2V,227,,,131,,,,,,,,,,,,,,,,,,,,,,,,,,,,0,2,8,California,"Fresno, CA",No,PM10,Undetermined/Insufficient Data,,,,,,,,,,,,
06-019-5001,060195001,36.819449,-119.716433,Clovis-Villa,West,1,MAX2V,,109,96,105,96,103,76,84,94,113,101,110,86,74,61,86,102,83,77,62,56,67,63,71,68,78,72,92,104,89,130,1,30,8,California,"Fresno, CA",Yes,PM10,Decreasing,-0.941176471,0.0221123803,1,Yes,No Trend,0.1882352941,0.3942100831,1,Yes,Increasing,5.1428571429,0.0000661376
06-021-0001,060210001,39.520992985,-122.2097046,Willows-N. Villa Ave,West,2,MAX2V,60,80,68,65,,,,,,,,,,,,,,,,,,,,,,,,,,,,0,4,8,California,,No,PM10,Undetermined/Insufficient Data,,,,,,,,,,,,
06-021-0002,060210002,39.517660195,-122.191371,420 E. LAUREL ST.,West,1,MAX2V,,,,,62,72,71,55,52,82,49,68,70,56,87,58,61,,,,,,,,,,,,,,,0,13,8,California,,No,PM10,Undetermined/Insufficient Data,,,0,No,Undetermined/Insufficient Data,,,,,,,
06-021-0003,060210003,39.53387,-122.190834,Willows-Colusa Street,West,1,MAX2V,,,,,,,,,,,,,,,,,,38,111,70,40,47,62,38,,,,,,,,0,7,8,California,,No,PM10,Undetermined/Insufficient Data,,,0,No,Undetermined/Insufficient Data,,,0,No,Undetermined/Insufficient Data,,
06-023-0006,060230006,41.047116985,-123.6752334,Hoopa Valley Reservation,West,1,MAX2V,,,,,,,,,,,,74,166,,,,,,,,,,,,,,,,,,,0,2,8,California,"Eureka-Arcata-Fortuna, CA",No,PM10,Undetermined/Insufficient Data,,,0,No,Undetermined/Insufficient Data,,,,,,,
06-023-1002,060231002,40.80178,-124.1621,Eureka I Street,West,2,MAX2V,76,,,,77,47,56,41,40,50,46,60,36,61,49,,65,44,44,48,61,43,44,49,,,,,,,,0,20,8,California,"Eureka-Arcata-Fortuna, CA",No,PM10,Undetermined/Insufficient Data,,,0,No,Undetermined/Insufficient Data,,,0,No,Undetermined/Insufficient Data,,
06-023-1004,060231004,40.776780001,-124.17949,Jacobs,West,1,MAX2V,,,,,,,,,,,,,,,,,,35,49,41,46,48,36,51,64,49,42,72,55,44,131,0,14,8,California,"Eureka-Arcata-Fortuna, CA",No,PM10,Undetermined/Insufficient Data,,,0,No,Undetermined/Insufficient Data,,,1,Yes,No Trend,1.6666666667,0.0822866562
06-023-1005,060231005,40.71528,-124.20139,Humboldt Hill,West,1,MAX2V,,,,,,,,,,,,,,,,,,,,,,,22,30,,,,,,,,0,2,8,California,"Eureka-Arcata-Fortuna, CA",No,PM10,Undetermined/Insufficient Data,,,0,No,Undetermined/Insufficient Data,,,0,No,Undetermined/Insufficient Data,,
06-025-0003,060250003,32.978378648,-115.5341558,Brawley-401 Main St.,West,2,MAX2V,212,137,88,162,126,89,100,97,73,75,111,72,197,150,,,,,,,,,,,,,,,,,,0,14,8,California,"El Centro, CA",No,PM10,Undetermined/Insufficient Data,,,0,No,Undetermined/Insufficient Data,,,,,,,
06-025-0004,060250004,32.673947975,-115.5038839,Calexico-Grant Street,West,2,MAX2V,,,,,165,173,174,170,159,174,236,202,172,174,120,169,233,147,,,,,,,,,,,,,,0,14,8,California,"El Centro, CA",No,PM10,Undetermined/Insufficient Data,,,0,No,Undetermined/Insufficient Data,,,,,,,
06-025-0005,060250005,32.67618,-115.48307,Calexico-Ethel Street,West,1,MAX2V,,,,,,149,186,165,143,162,252,203,329,214,154,102,134,142,103,186,89,79,321,101,126,107,,,,,,0,21,8,California,"El Centro, CA",No,PM10,Undetermined/Insufficient Data,,,0,No,Undetermined/Insufficient Data,,,0,No,Undetermined/Insufficient Data,,
06-025-0006,060250006,32.677833084,-115.3905437,PORT OF ENTRY BETWEEN MEXICO AND USA. SCHEDULED TO OPEN 8/96,West,2,MAX2V,,,,,,,,,162,,,,,,,,,,,,,,,,,,,,,,,0,1,8,California,"El Centro, CA",No,PM10,Undetermined/Insufficient Data,,,,,,,,,,,,
06-025-0007,060250007,32.97833,-115.53917,Brawley-220 Main Street,West,1,MAX2V,,,,,,,,,,,,,,,138,60,113,281,110,167,59,81,96,192,269,222,218,,,,,0,13,8,California,"El Centro, CA",No,PM10,Undetermined/Insufficient Data,,,0,No,Undetermined/Insufficient Data,,,0,No,Undetermined/Insufficient Data,,
06-025-1003,060251003,32.79222,-115.56306,El Centro-9th Street,West,2,MAX2V,84,112,69,119,105,92,110,104,84,76,134,85,84,135,88,62,96,121,59,161,57,66,67,78,87,93,,,,,,0,26,8,California,"El Centro, CA",No,PM10,Undetermined/Insufficient Data,,,0,No,Undetermined/Insufficient Data,,,0,No,Undetermined/Insufficient Data,,
06-025-4002,060254002,32.738935657,-114.6357863,Winterhaven,West,1,MAX2V,,,,,,133,192,136,,,,,,,,,,,,,,,,,,,,,,,,0,3,8,California,"El Centro, CA",No,PM10,Undetermined/Insufficient Data,,,,,,,,,,,,
06-025-4003,060254003,33.0325,-115.62361,Westmorland,West,1,MAX2V,,,,,,79,220,118,70,94,168,125,297,162,151,52,136,155,97,132,66,73,106,155,375,179,,,,,,0,21,8,California,"El Centro, CA",No,PM10,Undetermined/Insufficient Data,,,0,No,Undetermined/Insufficient Data,,,0,No,Undetermined/Insufficient Data,,
06-025-4004,060254004,33.213611,-115.54528,Niland-English Road,West,1,MAX2V,,,,,,,,113,63,54,204,84,117,185,93,63,104,108,99,117,52,81,167,133,136,147,111,,,,,0,20,8,California,"El Centro, CA",No,PM10,Undetermined/Insufficient Data,,,0,No,Undetermined/Insufficient Data,,,0,No,Undetermined/Insufficient Data,,
06-027-0002,060270002,37.360684,-118.330783,White Mountain Research Center - Owens Valley Lab,West,1,MAX2V,,,,,,,,,,,,,,,,,92,45,65,71,33,217,114,279,141,107,67,169,353,529,450,0,15,8,California,"Bishop, CA",No,PM10,Undetermined/Insufficient Data,,,0,No,Undetermined/Insufficient Data,,,1,Yes,Increasing,31,0.030085077
06-027-0004,060270004,36.609003,-118.057809,Lone Pine PM,West,4,MAX2V,,,,113,307,228,119,86,391,176,151,159,303,496,137,94,293,94,139,184,135,130,73,80,94,69,122,92,137,72,145,0,28,8,California,"Bishop, CA",No,PM10,Undetermined/Insufficient Data,,,1,Yes,Decreasing,-4.172697368,0.0045100674,1,Yes,No Trend,0.75,0.4396349156
06-027-0005,060270005,36.816599522,-118.2112069,Independnece-DWP#77,West,1,MAX2V,36,,,,,,,,,,,,,,,,,,,,,,,,,,,,,,,0,1,8,California,"Bishop, CA",No,PM10,Undetermined/Insufficient Data,,,,,,,,,,,,
06-027-0012,060270012,36.281605325,-118.0056382,Olancha-Post Office,West,1,MAX2V,200,61,39,,,,,,,,,,,,,,,,,,,,,,,,,,,,,0,3,8,California,"Bishop, CA",No,PM10,Undetermined/Insufficient Data,,,,,,,,,,,,
06-027-0016,060270016,36.275494501,-117.9906377,Olancha-661 Fall Road,West,1,MAX2V,,,,185,70,,,,,,,,,,,,,,,,,,,,,,,,,,,0,2,8,California,"Bishop, CA",No,PM10,Undetermined/Insufficient Data,,,,,,,,,,,,
06-027-0017,060270017,37.364096319,-118.3956654,Bishop-351 N. Main St.,West,1,MAX2V,,,,,69,50,36,,,,,,,,,,,,,,,,,,,,,,,,,0,3,8,California,"Bishop, CA",No,PM10,Undetermined/Insufficient Data,,,,,,,,,,,,
06-027-0021,060270021,36.267536,-117.993002,Olancha,West,2,MAX2V,,,,,,46,710,1262,244,294,240,310,454,379,281,256,183,109,309,246,373,642,278,240,233,224,279,334,164,79,,0,25,8,California,"Bishop, CA",No,PM10,Undetermined/Insufficient Data,,,1,Yes,Decreasing,-8,0.0153735215,1,Yes,Decreasing,-28.42857143,0.0049727684
06-027-0022,060270022,36.326172,-117.95512,Dirty Socks,West,2,MAX2V,,,,,,,,,,996,6230,10510,3934,6592,4125,830,2941,230,343,449,1308,780,322,,,204,140,768,180,162,526,0,20,8,California,"Bishop, CA",No,PM10,Undetermined/Insufficient Data,,,1,Yes,Decreasing,-217.2846154,8.0770727E-6,1,Yes,Decreasing,-39.33333333,0.0202661787
06-027-0023,060270023,36.280596511,-118.0116613,Olancha-Well 404,West,1,MAX2V,,,,,,,,,,,,,,,,,,,,,,,,,,,,,,88,243,0,2,8,California,"Bishop, CA",No,PM10,Undetermined/Insufficient Data,,,0,No,Undetermined/Insufficient Data,,,0,No,Undetermined/Insufficient Data,,
06-027-0024,060270024,36.419994,-117.836753,Flat Rock,West,2,MAX2V,,,,,,,,,,,,697,520,320,237,197,734,147,478,251,174,233,,,,,,,,,,0,11,8,California,"Bishop, CA",No,PM10,Undetermined/Insufficient Data,,,0,No,Undetermined/Insufficient Data,,,0,No,Undetermined/Insufficient Data,,
06-027-0025,060270025,36.366319,-117.897609,Shell Cut,West,2,MAX2V,,,,,,,,,,,,1136,2593,2498,1784,3538,2537,152,198,248,395,198,642,339,132,332,326,540,205,175,500,0,20,8,California,"Bishop, CA",No,PM10,Undetermined/Insufficient Data,,,1,Yes,Decreasing,-52.55555556,0.0130761282,1,Yes,No Trend,-6,0.3240477193
06-027-0026,060270026,36.361932,-118.01068,Bill Stanley,West,1,MAX2V,,,,,,,,,,,,,,,159,119,251,77,83,469,134,179,222,106,101,74,82,127,90,29,134,0,17,8,California,"Bishop, CA",No,PM10,Undetermined/Insufficient Data,,,0,No,Undetermined/Insufficient Data,,,1,Yes,No Trend,-8.666666667,0.0822866562
06-027-0027,060270027,37.407244,-118.345308,Laws-Joe Smith Road,West,1,MAX2V,,,,,,,,,,,,,,,79,120,91,,,,,,,,,,,,,,,0,3,8,California,"Bishop, CA",No,PM10,Undetermined/Insufficient Data,,,0,No,Undetermined/Insufficient Data,,,,,,,
06-027-0028,060270028,36.54314,-117.941827,Lizard Tail,West,1,MAX2V,,,,,,,,,,,,,,,,,,,423,275,2519,462,880,157,194,199,198,1015,219,130,212,0,13,8,California,"Bishop, CA",No,PM10,Undetermined/Insufficient Data,,,0,No,Undetermined/Insufficient Data,,,1,Yes,No Trend,-27.77777778,0.1793557349
06-027-0029,060270029,36.54222887,-117.9900673,North Beach,West,1,MAX2V,,,,,,,,,,,,,,,,,,,35,416,553,484,385,,84,223,284,555,205,177,149,0,12,8,California,"Bishop, CA",No,PM10,Undetermined/Insufficient Data,,,0,No,Undetermined/Insufficient Data,,,1,Yes,Decreasing,-30,0.0202661787
06-027-0030,060270030,36.458104001,-117.851888,Mill Site,West,1,MAX2V,,,,,,,,,,,,,,,,,,,,,,552,491,,,627,111,376,148,101,361,0,8,8,California,"Bishop, CA",No,PM10,Undetermined/Insufficient Data,,,0,No,Undetermined/Insufficient Data,,,0,No,Undetermined/Insufficient Data,,
06-027-1001,060271001,36.049402,-117.943927,Coso Junction,West,2,MAX2V,69,64,38,188,80,337,143,55,91,36,65,37,122,118,62,62,47,,,,,,,,,,,,,,,0,17,8,California,"Bishop, CA",No,PM10,Undetermined/Insufficient Data,,,0,No,Undetermined/Insufficient Data,,,1,Yes,No Trend,3.6666666667,0.3805751964
06-027-1002,060271002,36.483824491,-117.8678575,,West,1,MAX2V,,144,350,80,,,,,,,,,,,,,,,,,,,,,,,,,,,,0,3,8,California,"Bishop, CA",No,PM10,Undetermined/Insufficient Data,,,,,,,,,,,,
06-027-1003,060271003,36.487823,-117.871036,Keeler,West,4,MAX2V,,,,,421,3883,734,428,663,1910,996,1324,748,674,813,383,756,296,693,235,310,524,517,424,577,278,236,512,196,256,253,0,27,8,California,"Bishop, CA",No,PM10,Undetermined/Insufficient Data,,,1,Yes,Decreasing,-33.59615385,0.0000776314,1,Yes,Decreasing,-21.66666667,0.030085077
06-027-1004,060271004,37.358540307,-118.3948322,,West,2,MAX2V,61,,,,,,,,,,,,,,,,,,,,,,,,,,,,,,,0,1,8,California,"Bishop, CA",No,PM10,Undetermined/Insufficient Data,,,,,,,,,,,,
06-027-1014,060271014,36.043832959,-117.9470214,,West,2,MAX2V,85,112,,35,25,268,25,20,64,,,,,,,,,,,,,,,,,,,,,,,0,8,8,California,"Bishop, CA",No,PM10,Undetermined/Insufficient Data,,,,,,,,,,,,
06-027-1018,060271018,36.595556001,-118.049167,Lone Pine Paiute-Shoshone Reservation,West,4,MAX2V,,,,,,,,,,,,,,,,38,253,86,146,209,143,167,195,107,98,59,142,100,99,102,268,0,16,8,California,"Bishop, CA",No,PM10,Undetermined/Insufficient Data,,,0,No,Undetermined/Insufficient Data,,,1,Yes,No Trend,-1.6,0.3240477193
06-027-1023,060271023,37.362136969,-118.4174779,Bishop Tribe EMO,West,4,MAX2V,,,,,,,,,,,,,,,,53,51,68,69,76,64,87,69,61,62,96,,64,181,108,258,0,15,8,California,"Bishop, CA",No,PM10,Undetermined/Insufficient Data,,,0,No,Undetermined/Insufficient Data,,,1,Yes,Increasing,6.4,0.030085077
06-027-1028,060271028,36.834957061,-118.2266773,Fort Independence Indian Community,West,1,MAX2V,,,,,,,,,,,,,,,,,,,,,50,103,52,51,67,67,142,119,94,153,238,0,11,8,California,"Bishop, CA",No,PM10,Undetermined/Insufficient Data,,,0,No,Undetermined/Insufficient Data,,,1,Yes,Increasing,11.444444444,0.0028535855
06-027-1033,060271033,37.155494,-118.293547,Stn.1 Big Pine Paiute site,West,2,MAX2V,,,,,,,,,,,,,,,,,,,,,,,,,,,,,,,175,0,1,8,California,"Bishop, CA",No,PM10,Undetermined/Insufficient Data,,,0,No,Undetermined/Insufficient Data,,,0,No,Undetermined/Insufficient Data,,
06-029-0004,060290004,35.374958749,-119.0226018,Bakersfield-Chester Ave.,West,1,MAX2V,131,132,97,128,,,,,,,,,,,,,,,,,,,,,,,,,,,,0,4,8,California,"Bakersfield, CA",No,PM10,Undetermined/Insufficient Data,,,,,,,,,,,,
06-029-0009,060290009,35.361070416,-119.0601033,,West,1,MAX2V,,,93,,,,,,,,,,,,,,,,,,,,,,,,,,,,,0,1,8,California,"Bakersfield, CA",No,PM10,Undetermined/Insufficient Data,,,,,,,,,,,,
06-029-0010,060290010,35.385574,-119.015009,Bakersfield-Golden/M St,West,1,MAX2V,,,,,,131,105,96,135,141,143,174,116,128,79,95,154,109,116,111,,,,,,81,88,109,144,116,143,0,21,8,California,"Bakersfield, CA",No,PM10,Undetermined/Insufficient Data,,,0,No,Undetermined/Insufficient Data,,,0,No,Undetermined/Insufficient Data,,
06-029-0011,060290011,35.050551349,-118.1472936,Mojave,West,1,MAX2V,,,,,30,32,36,29,37,34,43,41,51,54,40,38,62,70,111,45,38,,,,,,,,,,,0,17,8,California,"Bakersfield, CA",No,PM10,Undetermined/Insufficient Data,,,0,No,Undetermined/Insufficient Data,,,0,No,Undetermined/Insufficient Data,,
06-029-0014,060290014,35.356615,-119.062613,Bakersfield-California,West,1,MAX2V,,,,,91,126,105,94,112,138,133,186,94,110,79,94,147,106,122,90,81,69,88,110,,97,81,106,116,94,131,0,26,8,California,"Bakersfield, CA",No,PM10,Undetermined/Insufficient Data,,,1,Yes,No Trend,-0.633333333,0.2853027496,1,Yes,Increasing,3.6,0.030085077
06-029-0015,060290015,35.62109,-117.67296,Ridgecrest-California Ave,West,1,MAX2V,,,,,,,,,,,52,46,62,52,45,40,43,41,49,45,37,47,40,54,42,36,44,43,,,,0,18,8,California,"Bakersfield, CA",No,PM10,Undetermined/Insufficient Data,,,0,No,Undetermined/Insufficient Data,,,0,No,Undetermined/Insufficient Data,,
06-029-0017,060290017,35.727710001,-118.13774,Canebrake,West,1,MAX2V,,,,,,,,,,,,,,,,,,,,42,57,28,37,39,61,39,47,45,46,33,,0,11,8,California,"Bakersfield, CA",No,PM10,Undetermined/Insufficient Data,,,0,No,Undetermined/Insufficient Data,,,1,Yes,No Trend,-0.5,0.3805751964
06-029-0018,060290018,35.642943101,-117.7150665,Ridgecrest-Ward,West,1,MAX2V,,,,,,,,,,,,,,,,,,,,,,,,,,,,52,74,128,139,0,4,8,California,"Bakersfield, CA",No,PM10,Undetermined/Insufficient Data,,,0,No,Undetermined/Insufficient Data,,,0,No,Undetermined/Insufficient Data,,
06-029-0019,060290019,35.046528001,-118.162833,Mojave - CA 58 Business,West,2,MAX2V,,,,,,,,,,,,,,,,,,,,,,,,,,,,,,,108,0,1,8,California,"Bakersfield, CA",No,PM10,Undetermined/Insufficient Data,,,0,No,Undetermined/Insufficient Data,,,0,No,Undetermined/Insufficient Data,,
06-029-0232,060290232,35.438035,-119.016787,Oildale,West,2,MAX2V,165,169,104,96,131,111,64,78,88,135,102,139,92,96,78,93,145,103,107,98,88,89,86,111,334,88,88,,,,,0,27,8,California,"Bakersfield, CA",No,PM10,Undetermined/Insufficient Data,,,0,No,Undetermined/Insufficient Data,,,0,No,Undetermined/Insufficient Data,,
06-029-1001,060291001,35.624678091,-117.6708966,China Lake,West,1,MAX2V,53,411,37,,25,47,39,34,84,28,38,37,50,28,,,,,,,,,,,,,,,,,,0,13,8,California,"Bakersfield, CA",No,PM10,Undetermined/Insufficient Data,,,0,No,Undetermined/Insufficient Data,,,,,,,
06-029-2001,060292001,35.770234493,-119.5862338,Kern Wildlife Refuge,West,1,MAX2V,117,99,90,89,,,,,,,,,,,,,,,,,,,,,,,,,,,,0,4,8,California,"Bakersfield, CA",No,PM10,Undetermined/Insufficient Data,,,,,,,,,,,,
06-029-2004,060292004,35.142189086,-119.4609524,Taft-College,West,1,MAX2V,,128,76,103,64,84,91,77,81,86,92,97,79,80,60,82,,,,,,,,,,,,,,,,0,15,8,California,"Bakersfield, CA",No,PM10,Undetermined/Insufficient Data,,,0,No,Undetermined/Insufficient Data,,,,,,,
06-029-3002,060293002,35.066636441,-118.1509083,Mojave - Airport Bldg 58,West,1,MAX2V,92,51,65,42,,,,,,,,,,,,,,,,,,,,,,,,,,,,0,4,8,California,"Bakersfield, CA",No,PM10,Undetermined/Insufficient Data,,,,,,,,,,,,
06-031-0003,060310003,36.086062459,-119.5634572,Corcoran-Van Dorsten Ave,West,2,MAX2V,158,204,143,169,114,169,99,124,64,,,,,,,,,,,,,,,,,,,,,,,0,9,8,California,"Hanford-Corcoran, CA",No,PM10,Undetermined/Insufficient Data,,,,,,,,,,,,
06-031-0004,060310004,36.102244,-119.56565,Corcoran-Patterson,West,1,MAX2V,,,,,,,,120,116,146,119,137,134,117,102,106,140,92,119,82,100,,,,,,,,,,,0,14,8,California,"Hanford-Corcoran, CA",No,PM10,Undetermined/Insufficient Data,,,0,No,Undetermined/Insufficient Data,,,0,No,Undetermined/Insufficient Data,,
06-031-0500,060310500,36.233273678,-119.7662118,Santa Rosa Rancheria,West,1,MAX2V,,,,,,,,,,,,,,,,,,102,121,86,109,80,94,124,109,,,,,,,0,8,8,California,"Hanford-Corcoran, CA",No,PM10,Undetermined/Insufficient Data,,,0,No,Undetermined/Insufficient Data,,,0,No,Undetermined/Insufficient Data,,
06-031-1001,060311001,36.282172065,-119.6451284,Hanford-Lacy Blvd,West,2,MAX2V,156,161,127,65,,,,,,,,,,,,,,,,,,,,,,,,,,,,0,4,8,California,"Hanford-Corcoran, CA",No,PM10,Undetermined/Insufficient Data,,,,,,,,,,,,
06-031-1003,060311003,36.006897149,-119.9598554,Kettleman City-Caltrans,West,2,MAX2V,269,162,121,148,105,125,111,,,,,,,,,,,,,,,,,,,,,,,,,0,7,8,California,"Hanford-Corcoran, CA",No,PM10,Undetermined/Insufficient Data,,,,,,,,,,,,
06-031-1004,060311004,36.31567,-119.643447,Hanford-Irwin,West,1,MAX2V,,,,,112,133,104,111,109,140,116,155,124,110,102,113,121,97,226,99,86,95,94,118,117,101,109,136,131,138,168,0,27,8,California,"Hanford-Corcoran, CA",No,PM10,Undetermined/Insufficient Data,,,1,Yes,No Trend,0.7421052632,0.2853027496,1,Yes,Increasing,6.8333333333,0.0003797649
06-033-3001,060333001,39.0327,-122.92229,Lakeport-Lakeport Blvd.,West,2,MAX2V,28,26,22,25,19,22,20,17,22,40,21,,,,,,,,,,,,,20,22,18,19,12,,,,0,16,8,California,"Clearlake, CA",No,PM10,Undetermined/Insufficient Data,,,0,No,Undetermined/Insufficient Data,,,0,No,Undetermined/Insufficient Data,,
06-033-3002,060333002,39.018930001,-122.91333,Lakeport-S. Main Street,West,1,MAX2V,,,,,,,,,,,,,,,,,,,,,,,,,,,,,63,21,114,0,3,8,California,"Clearlake, CA",No,PM10,Undetermined/Insufficient Data,,,0,No,Undetermined/Insufficient Data,,,0,No,Undetermined/Insufficient Data,,
06-033-3010,060333010,38.77453,-122.6995,ANDERSON SPRINGS,West,1,MAX2V,,,,,,,,,,,,,,,,,,,,,,,,19,18,11,,63,89,19,80,0,7,8,California,"Clearlake, CA",No,PM10,Undetermined/Insufficient Data,,,0,No,Undetermined/Insufficient Data,,,0,No,Undetermined/Insufficient Data,,
06-033-3011,060333011,38.84846,-122.75797,GLENBROOK,West,1,MAX2V,,,,,,,,,,,,,,,,,,,,,,,,15,19,19,20,69,80,16,62,0,8,8,California,"Clearlake, CA",No,PM10,Undetermined/Insufficient Data,,,0,No,Undetermined/Insufficient Data,,,0,No,Undetermined/Insufficient Data,,
06-035-1001,060351001,40.412395608,-120.6332833,Susanville,West,1,MAX2V,,,,,,,,65,,96,65,87,,,,,,,,,,,,,,,,,,,,0,4,8,California,"Susanville, CA",No,PM10,Undetermined/Insufficient Data,,,0,No,Undetermined/Insufficient Data,,,,,,,
06-037-0002,060370002,34.1365,-117.92391,Azusa,West,2,MAX2V,119,134,101,87,88,144,86,93,78,101,93,91,79,96,78,65,68,83,75,65,59,63,71,63,77,95,64,60,67,65,95,1,31,8,California,"Los Angeles-Long Beach-Anaheim, CA",Yes,PM10,Decreasing,-1.375,0.0000232627,1,Yes,Decreasing,-0.840336134,0.0425975647,1,Yes,No Trend,0.8,0.0822866562
06-037-0016,060370016,34.14435,-117.85036,Glendora,West,3,MAX2V,,,,,,,,,,,,,,,,,,,58,76,55,76,72,61,64,66,69,68,90,61,169,0,13,8,California,"Los Angeles-Long Beach-Anaheim, CA",No,PM10,Undetermined/Insufficient Data,,,0,No,Undetermined/Insufficient Data,,,1,Yes,No Trend,2,0.1414834105
06-037-1002,060371002,34.17605,-118.31712,Burbank,West,2,MAX2V,109,132,176,88,92,90,88,87,65,71,70,85,71,72,67,79,68,,65,76,50,53,44,46,,,,,,,,0,23,8,California,"Los Angeles-Long Beach-Anaheim, CA",No,PM10,Undetermined/Insufficient Data,,,0,No,Undetermined/Insufficient Data,,,0,No,Undetermined/Insufficient Data,,
06-037-1103,060371103,34.066590001,-118.22688,Los Angeles-North Main Street,West,2,MAX2V,132,122,110,102,83,118,92,80,71,87,79,83,61,76,64,68,55,77,65,62,41,50,74,46,61,63,57,47,66,57,54,1,31,8,California,"Los Angeles-Long Beach-Anaheim, CA",Yes,PM10,Decreasing,-2,4.8435601E-9,1,Yes,Decreasing,-1,0.0065503412,1,Yes,No Trend,0.875,0.3240477193
06-037-4002,060374002,33.82376,-118.18921,Long Beach (North),West,2,MAX2V,101,82,64,81,89,141,79,71,60,77,92,74,62,57,72,61,64,75,45,56,41,42,37,35,,,,,,,,0,24,8,California,"Los Angeles-Long Beach-Anaheim, CA",No,PM10,Undetermined/Insufficient Data,,,0,No,Undetermined/Insufficient Data,,,0,No,Undetermined/Insufficient Data,,
06-037-4004,060374004,33.79236,-118.17533,Long Beach (South),West,2,MAX2V,,,,,,,,,,,,,,,79,74,113,,64,78,53,46,39,43,58,51,52,52,46,63,59,0,16,8,California,"Los Angeles-Long Beach-Anaheim, CA",No,PM10,Undetermined/Insufficient Data,,,0,No,Undetermined/Insufficient Data,,,1,Yes,No Trend,1.1666666667,0.0822866562
06-037-4006,060374006,33.802500001,-118.22,Long Beach (Hudson),West,1,MAX2V,,,,,,,,,,,,,,,,,,,,,,,,,58,62,58,73,67,74,,0,6,8,California,"Los Angeles-Long Beach-Anaheim, CA",No,PM10,Undetermined/Insufficient Data,,,0,No,Undetermined/Insufficient Data,,,0,No,Undetermined/Insufficient Data,,
06-037-5001,060375001,33.92288,-118.37026,Hawthorne,West,1,MAX2V,77,78,66,82,77,123,67,65,62,63,71,74,97,57,,,,,,,,,,,,,,,,,,0,14,8,California,"Los Angeles-Long Beach-Anaheim, CA",No,PM10,Undetermined/Insufficient Data,,,0,No,Undetermined/Insufficient Data,,,,,,,
06-037-5005,060375005,33.955070001,-118.43049,LAX Hastings,West,1,MAX2V,,,,,,,,,,,,,,,46,38,42,96,49,46,36,40,30,35,40,39,43,46,43,53,43,0,17,8,California,"Los Angeles-Long Beach-Anaheim, CA",No,PM10,Undetermined/Insufficient Data,,,0,No,Undetermined/Insufficient Data,,,1,Yes,Increasing,1.4285714286,0.0049727684
06-037-6002,060376002,34.387497514,-118.5345301,,West,1,MAX2V,89,81,79,68,62,81,66,57,51,69,59,,,,,,,,,,,,,,,,,,,,,0,11,8,California,"Los Angeles-Long Beach-Anaheim, CA",No,PM10,Undetermined/Insufficient Data,,,0,No,Undetermined/Insufficient Data,,,,,,,
06-037-6012,060376012,34.38344,-118.5284,Santa Clarita,West,1,MAX2V,,,,,,,,,,,,53,56,67,52,44,46,131,56,45,38,39,35,40,45,37,50,54,48,42,48,0,20,8,California,"Los Angeles-Long Beach-Anaheim, CA",No,PM10,Undetermined/Insufficient Data,,,1,Yes,Decreasing,-0.57518797,0.048519913,1,Yes,Increasing,1.1428571429,0.030085077
06-037-9002,060379002,34.689985309,-118.1328499,Lancaster-Ponderosa St.,West,1,MAX2V,175,215,64,64,70,54,53,52,58,51,,81,,,,,,,,,,,,,,,,,,,,0,11,8,California,"Los Angeles-Long Beach-Anaheim, CA",No,PM10,Undetermined/Insufficient Data,,,0,No,Undetermined/Insufficient Data,,,,,,,
06-037-9033,060379033,34.669739001,-118.130511,Lancaster-Division Street,West,2,MAX2V,,,,,,,,,,,,,118,72,81,47,56,80,98,58,40,50,70,91,80,64,127,74,85,159,121,0,19,8,California,"Los Angeles-Long Beach-Anaheim, CA",No,PM10,Undetermined/Insufficient Data,,,1,Yes,No Trend,0.58125,0.2853027496,1,Yes,Increasing,8.1,0.0049727684
06-039-0001,060390001,36.954668733,-120.0373833,Madera-Library,West,3,MAX2V,141,114,83,120,100,100,68,,,,,,,,,,,,,,,,,,,,,,,,,0,7,8,California,"Madera, CA",No,PM10,Undetermined/Insufficient Data,,,,,,,,,,,,
06-039-0500,060390500,37.213599578,-119.6990653,Picayune Rancheria,West,1,MAX2V,,,,,,,,,,,,,,,,,,,,,,,53,71,56,,,,,,,0,3,8,California,"Madera, CA",No,PM10,Undetermined/Insufficient Data,,,0,No,Undetermined/Insufficient Data,,,0,No,Undetermined/Insufficient Data,,
06-039-2010,060392010,36.953256,-120.034203,Madera-City,West,3,MAX2V,,,,,,,,,,,,,,,,,,,,,111,106,114,108,91,111,100,128,140,155,314,0,11,8,California,"Madera, CA",No,PM10,Undetermined/Insufficient Data,,,0,No,Undetermined/Insufficient Data,,,1,Yes,Increasing,5.8571428571,0.0202661787
06-041-0001,060410001,37.97231,-122.520004,San Rafael,West,1,MAX2V,,,,,71,48,46,60,39,64,38,54,55,32,36,31,40,46,35,35,31,28,32,32,37,29,21,50,95,30,39,0,27,8,California,"San Francisco-Oakland-Hayward, CA",No,PM10,Undetermined/Insufficient Data,,,1,Yes,No Trend,-0.3875,0.1337455423,1,Yes,No Trend,0.875,0.1414834105
06-043-1001,060431001,37.748707,-119.587094,Yosemite NP-Yosemite Village Vistor Center,West,2,MAX2V,190,210,81,72,98,65,96,39,39,74,60,154,58,50,92,56,73,51,77,74,58,53,31,61,53,,,,,,,0,25,8,California,,No,PM10,Undetermined/Insufficient Data,,,0,No,Undetermined/Insufficient Data,,,0,No,Undetermined/Insufficient Data,,
06-045-0002,060450002,39.445722748,-123.8039048,Fort Bragg-North Franklin Street,West,1,MAX2V,,,,,60,51,49,50,39,66,47,56,49,55,36,44,48,42,51,,,,,,,,,,,,,0,15,8,California,"Ukiah, CA",No,PM10,Undetermined/Insufficient Data,,,0,No,Undetermined/Insufficient Data,,,0,No,Undetermined/Insufficient Data,,
06-045-0006,060450006,39.15047,-123.20655,Ukiah-Library,West,1,MAX2V,55,54,43,53,49,26,29,34,29,51,36,44,46,33,30,31,34,26,45,,,,,,,,,,,,,0,19,8,California,"Ukiah, CA",No,PM10,Undetermined/Insufficient Data,,,0,No,Undetermined/Insufficient Data,,,,,,,
06-045-0010,060450010,39.43734,-123.78766,Fort Bragg-300 Dana Street,West,1,MAX2V,,,,,,,,,,,,,,,,,,,,,,34,39,45,40,42,41,78,152,38,187,0,10,8,California,"Ukiah, CA",No,PM10,Undetermined/Insufficient Data,,,0,No,Undetermined/Insufficient Data,,,1,Yes,Increasing,5,0.0082702521
06-045-2001,060452001,39.412941535,-123.3536212,,West,2,MAX2V,60,61,44,47,46,37,39,45,37,52,42,38,39,34,31,32,33,31,112,,,,,,,,,,,,,0,19,8,California,"Ukiah, CA",No,PM10,Undetermined/Insufficient Data,,,0,No,Undetermined/Insufficient Data,,,,,,,
06-047-0001,060470001,37.060778288,-120.8496373,Los Banos,West,1,MAX2V,128,110,68,100,,,,,,,,,,,,,,,,,,,,,,,,,,,,0,4,8,California,"Merced, CA",No,PM10,Undetermined/Insufficient Data,,,,,,,,,,,,
06-047-1003,060471003,37.29994112,-120.501024,Merced-15th St.,West,1,MAX2V,153,122,82,119,109,89,57,,,,,,,,,,,,,,,,,,,,,,,,,0,7,8,California,"Merced, CA",No,PM10,Undetermined/Insufficient Data,,,,,,,,,,,,
06-047-2510,060472510,37.30832,-120.480456,Merced-M Street,West,1,MAX2V,,,,,,,,,,114,89,100,79,73,54,68,80,65,74,60,53,70,60,69,81,64,62,94,80,80,123,0,22,8,California,"Merced, CA",No,PM10,Undetermined/Insufficient Data,,,1,Yes,No Trend,0.09375,0.4173409617,1,Yes,Increasing,3.6666666667,0.0202661787
06-049-0001,060490001,41.483225471,-120.5402336,Alturas-Fourth St.,West,1,MAX2V,,,,,56,78,,45,60,73,58,47,,,,,,,,,,,,,,,,,,,,0,7,8,California,,No,PM10,Undetermined/Insufficient Data,,,0,No,Undetermined/Insufficient Data,,,,,,,
06-051-0001,060510001,37.64571,-118.96652,Mammoth,West,5,MAX2V,,,,,,,,,,,,,,53,76,78,68,56,96,69,101,77,48,98,46,63,79,77,125,63,284,0,18,8,California,,No,PM10,Undetermined/Insufficient Data,,,0,No,Undetermined/Insufficient Data,,,1,Yes,No Trend,3.4,0.2711296747
06-051-0005,060510005,37.962069,-119.120278,Lee Vining,West,3,MAX2V,,,,,,,,,,,,51,46,56,70,30,44,35,66,39,36,52,36,46,35,29,43,62,144,,,0,18,8,California,,No,PM10,Undetermined/Insufficient Data,,,1,Yes,No Trend,0.6092436975,0.2653110816,1,Yes,Increasing,10.222222222,0.030085077
06-051-0007,060510007,38.091428,-118.997957,Simis Ranch,West,2,MAX2V,77,75,225,658,,43,37,28,25,33,54,41,,,,,,,,,,,,,,,,,,,,0,11,8,California,,No,PM10,Undetermined/Insufficient Data,,,0,No,Undetermined/Insufficient Data,,,,,,,
06-051-0011,060510011,38.069711,-118.947738,Mono Shore,West,3,MAX2V,,,,,,,,,,,,,,,,,,,857,1461,3096,3393,2187,1870,1890,3294,4054,2538,580,3427,1955,0,13,8,California,,No,PM10,Undetermined/Insufficient Data,,,0,No,Undetermined/Insufficient Data,,,1,Yes,No Trend,-29,0.4396349156
06-053-0002,060530002,36.481870001,-121.73333,Carmel Valley,West,1,MAX2V,,,,27,30,26,24,23,27,39,21,29,32,31,23,22,25,23,28,19,,,,,,,,,,,,0,17,8,California,"Salinas, CA",No,PM10,Undetermined/Insufficient Data,,,0,No,Undetermined/Insufficient Data,,,,,,,
06-053-0005,060530005,36.22746594,-121.1165841,KING CITY AMS,West,1,MAX2V,,48,44,40,32,,40,41,35,57,44,55,40,37,42,37,37,,,,,,,,,,,,,,,0,15,8,California,"Salinas, CA",No,PM10,Undetermined/Insufficient Data,,,0,No,Undetermined/Insufficient Data,,,,,,,
06-053-0006,060530006,36.574682382,-121.8063395,MONTEREY AMS,West,1,MAX2V,,,,22,26,27,33,,,,,,,,,,,,,,,,,,,,,,,,,0,4,8,California,"Salinas, CA",No,PM10,Undetermined/Insufficient Data,,,,,,,,,,,,
06-053-0007,060530007,36.804399946,-121.786895,MOSS LANDING HARBOR AREA,West,1,MAX2V,,,,,,,,70,50,76,70,59,57,71,51,47,,,,,,,,,,,,,,,,0,9,8,California,"Salinas, CA",No,PM10,Undetermined/Insufficient Data,,,0,No,Undetermined/Insufficient Data,,,,,,,
06-053-0008,060530008,36.209286001,-121.126371,King City 2,West,3,MAX2V,,,,,,,,,,,,,,,,,,,,,,68,80,75,66,68,70,95,76,76,218,0,10,8,California,"Salinas, CA",No,PM10,Undetermined/Insufficient Data,,,0,No,Undetermined/Insufficient Data,,,1,Yes,Increasing,2,0.030085077
06-053-1002,060531002,36.697181317,-121.6335564,Salinas-Natividad Rd.,West,2,MAX2V,49,43,,55,33,47,40,38,46,48,,,,,,,,,,,,,,,,,,,,,,0,9,8,California,"Salinas, CA",No,PM10,Undetermined/Insufficient Data,,,,,,,,,,,,
06-053-1003,060531003,36.694261001,-121.623271,Salinas 3,West,1,MAX2V,,,,,,,,,,,34,46,37,55,41,34,38,34,50,34,32,,,,,,,,,,,0,11,8,California,"Salinas, CA",No,PM10,Undetermined/Insufficient Data,,,0,No,Undetermined/Insufficient Data,,,0,No,Undetermined/Insufficient Data,,
06-055-0003,060550003,38.310942,-122.296189,Napa,West,1,MAX2V,,,,,52,45,39,71,31,52,43,55,57,37,40,36,45,43,46,31,34,43,35,36,35,45,31,,,,,0,23,8,California,"Napa, CA",No,PM10,Undetermined/Insufficient Data,,,0,No,Undetermined/Insufficient Data,,,0,No,Undetermined/Insufficient Data,,
06-055-0004,060550004,38.278849001,-122.275024,Napa Valley College,West,1,MAX2V,,,,,,,,,,,,,,,,,,,,,,,,,,,,,23,29,81,0,3,8,California,"Napa, CA",No,PM10,Undetermined/Insufficient Data,,,0,No,Undetermined/Insufficient Data,,,0,No,Undetermined/Insufficient Data,,
06-057-0001,060570001,39.21878318,-121.0532823,Grass Valley-Henderson St.,West,1,MAX2V,,,,,,,,29,34,,,,,,,,,,,,,,,,,,,,,,,0,2,8,California,"Truckee-Grass Valley, CA",No,PM10,Undetermined/Insufficient Data,,,,,,,,,,,,
06-057-0003,060570003,39.116562408,-121.0427251,,West,1,MAX2V,,,43,21,,,,,,,,,,,,,,,,,,,,,,,,,,,,0,2,8,California,"Truckee-Grass Valley, CA",No,PM10,Undetermined/Insufficient Data,,,,,,,,,,,,
06-057-0004,060570004,39.357963086,-120.1065864,,West,1,MAX2V,,,,,,,,64,66,69,,,,,,,,,,,,,,,,,,,,,,0,3,8,California,"Truckee-Grass Valley, CA",No,PM10,Undetermined/Insufficient Data,,,,,,,,,,,,
06-057-0005,060570005,39.233477001,-121.055608,Grass Valley-Litton Building,West,1,MAX2V,,,,,,,43,16,47,77,40,54,38,38,,,,,,,,,,,,,,,,,,0,8,8,California,"Truckee-Grass Valley, CA",No,PM10,Undetermined/Insufficient Data,,,0,No,Undetermined/Insufficient Data,,,,,,,
06-057-1001,060571001,39.327830001,-120.184592,Truckee-Fire Station,West,2,MAX2V,,,,,,,86,158,99,,48,49,53,29,,,,,,,,,,,,,,,,,,0,7,8,California,"Truckee-Grass Valley, CA",No,PM10,Undetermined/Insufficient Data,,,0,No,Undetermined/Insufficient Data,,,,,,,
06-059-0001,060590001,33.821353001,-117.91427,Anaheim (1010 Harbor Blvd),West,1,MAX2V,108,116,85,80,88,144,77,82,65,112,119,,,,,,,,,,,,,,,,,,,,,0,11,8,California,"Los Angeles-Long Beach-Anaheim, CA",No,PM10,Undetermined/Insufficient Data,,,0,No,Undetermined/Insufficient Data,,,,,,,
06-059-0004,060590004,33.655020388,-117.8858902,,West,1,MAX2V,,,68,,,,,,,,,,,,,,,,,,,,,,,,,,,,,0,1,8,California,"Los Angeles-Long Beach-Anaheim, CA",No,PM10,Undetermined/Insufficient Data,,,,,,,,,,,,
06-059-0007,060590007,33.83062,-117.93845,Anaheim,West,1,MAX2V,,,,,,,,,,,,,64,77,70,54,95,75,59,49,42,51,36,46,58,57,64,70,50,64,68,0,19,8,California,"Los Angeles-Long Beach-Anaheim, CA",No,PM10,Undetermined/Insufficient Data,,,1,Yes,No Trend,-0.483333333,0.209797354,1,Yes,Increasing,2.6,0.0082702521
06-059-2001,060592001,33.627244431,-117.6911628,El Toro,West,2,MAX2V,82,78,72,75,77,103,72,66,58,73,42,,,,,,,,,,,,,,,,,,,,,0,11,8,California,"Los Angeles-Long Beach-Anaheim, CA",No,PM10,Undetermined/Insufficient Data,,,0,No,Undetermined/Insufficient Data,,,,,,,
06-059-2022,060592022,33.63003,-117.67593,Mission Viejo,West,1,MAX2V,,,,,,,,,,46,55,55,62,53,46,32,37,55,42,41,31,39,29,45,40,46,45,38,46,43,53,0,22,8,California,"Los Angeles-Long Beach-Anaheim, CA",No,PM10,Undetermined/Insufficient Data,,,1,Yes,No Trend,-0.483333333,0.1337455423,1,Yes,Increasing,1.5,0.0202661787
06-061-0002,060610002,38.937669529,-121.1049213,Auburn - Dewitt - C Avenue,West,1,MAX2V,,,,,,,47,51,,,,,,,,,,,,,,,,,,,,,,,,0,2,8,California,"Sacramento--Roseville--Arden-Arcade, CA",No,PM10,Undetermined/Insufficient Data,,,,,,,,,,,,
06-061-0004,060610004,39.100174496,-120.9538317,Colfax-City Hall,West,1,MAX2V,,,,,,,50,66,,,,,,,,,,,,,,,,,,,,,,,,0,2,8,California,"Sacramento--Roseville--Arden-Arcade, CA",No,PM10,Undetermined/Insufficient Data,,,,,,,,,,,,
06-061-0006,060610006,38.74643,-121.26498,Roseville-N Sunrise Ave,West,1,MAX2V,,,,45,65,53,39,39,62,83,50,58,44,38,38,40,50,35,40,29,33,30,28,36,29,,,,,,,0,22,8,California,"Sacramento--Roseville--Arden-Arcade, CA",No,PM10,Undetermined/Insufficient Data,,,0,No,Undetermined/Insufficient Data,,,0,No,Undetermined/Insufficient Data,,
06-061-0810,060610810,38.791844614,-121.2091158,Rocklin-Sierra College,West,2,MAX2V,51,,,,,,,,,,,,,,,,,,,,,,,,,,,,,,,0,1,8,California,"Sacramento--Roseville--Arden-Arcade, CA",No,PM10,Undetermined/Insufficient Data,,,,,,,,,,,,
06-061-2001,060612001,38.889890551,-121.307704,Lincoln-L Street,West,1,MAX2V,,,,,,,47,66,,,,,,,,,,,,,,,,,,,,,,,,0,2,8,California,"Sacramento--Roseville--Arden-Arcade, CA",No,PM10,Undetermined/Insufficient Data,,,,,,,,,,,,
06-061-3001,060613001,38.788789662,-121.217727,Rocklin,West,1,MAX2V,,,46,41,48,47,33,36,47,72,41,52,33,,,,,,,,,,,,,,,,,,,0,11,8,California,"Sacramento--Roseville--Arden-Arcade, CA",No,PM10,Undetermined/Insufficient Data,,,0,No,Undetermined/Insufficient Data,,,,,,,
06-063-1006,060631006,39.939567001,-120.944376,Quincy-N Church Street,West,1,MAX2V,128,134,119,108,95,50,45,59,43,96,58,57,46,33,35,45,43,,,,,,,,,,,,,,,0,17,8,California,,No,PM10,Undetermined/Insufficient Data,,,0,No,Undetermined/Insufficient Data,,,,,,,
06-063-1007,060631007,40.309644001,-121.227848,Chester-222 First Ave,West,2,MAX2V,,,,,,,,,,,,,,38,54,60,48,,,,,,,,,,,,,,,0,4,8,California,,No,PM10,Undetermined/Insufficient Data,,,0,No,Undetermined/Insufficient Data,,,,,,,
06-063-1008,060631008,39.791568138,-120.4727147,MONITOR ON TOP OF PRIMETIME PIZZA BUSINESS,West,1,MAX2V,,,,,,,,,65,74,,,,,,,,,,,,,,,,,,,,,,0,2,8,California,,No,PM10,Undetermined/Insufficient Data,,,,,,,,,,,,
06-065-0002,060650002,33.927793639,-116.8744656,Banning-Allesandro,West,1,MAX2V,,,,,92,77,79,64,66,,,,,,,,,,,,,,,,,,,,,,,0,5,8,California,"Riverside-San Bernardino-Ontario, CA",No,PM10,Undetermined/Insufficient Data,,,,,,,,,,,,
06-065-0003,060650003,33.921450001,-117.57244,Norco,West,1,MAX2V,,,,,120,163,83,133,92,116,119,100,77,79,72,64,71,93,85,68,49,54,47,54,62,63,59,85,59,85,91,0,27,8,California,"Riverside-San Bernardino-Ontario, CA",No,PM10,Undetermined/Insufficient Data,,,1,Yes,No Trend,-1.080128205,0.0701615005,1,Yes,Increasing,4.1111111111,0.0015531556
06-065-0004,060650004,34.007,-117.521,Mira Loma (Bellegrave),West,3,MAX2V,,,,,,,,,,,,,,,,,,,84,73,63,62,,,,,,,,,,0,4,8,California,"Riverside-San Bernardino-Ontario, CA",No,PM10,Undetermined/Insufficient Data,,,0,No,Undetermined/Insufficient Data,,,0,No,Undetermined/Insufficient Data,,
06-065-0006,060650006,33.491695051,-117.1461427,,West,1,MAX2V,,,51,61,,,,,,,,,,,,,,,,,,,,,,,,,,,,0,2,8,California,"Riverside-San Bernardino-Ontario, CA",No,PM10,Undetermined/Insufficient Data,,,,,,,,,,,,
